<?xml version="1.0" encoding="utf-8"?><greatschools-city-feed xmlns:xsi="http://www.w3.org/2001/XMLSchema-instance" xsi:noNamespaceSchemaLocation="http://www.greatschools.org/feeds/greatschools-city2.xsd">
<city>
<id>427492</id>
<name>Abingdon</name>
<state>IL</state>
<rating>4</rating>
<url>http://www.greatschools.org/city/Abingdon/IL</url>
<lat>40.8037</lat>
<lon>-90.401</lon>
<active>1</active>
</city>
<city>
<id>426766</id>
<name>Addison</name>
<state>IL</state>
<rating>4</rating>
<url>http://www.greatschools.org/city/Addison/IL</url>
<lat>41.9314</lat>
<lon>-88.0088</lon>
<active>1</active>
</city>
<city>
<id>445912</id>
<name>Affton</name>
<state>IL</state>
<rating/>
<url>http://www.greatschools.org/city/Affton/IL</url>
<lat>38.5517</lat>
<lon>-90.3388</lon>
<active>1</active>
</city>
<city>
<id>427490</id>
<name>Albers</name>
<state>IL</state>
<rating>9</rating>
<url>http://www.greatschools.org/city/Albers/IL</url>
<lat>38.5452</lat>
<lon>-89.6143</lon>
<active>1</active>
</city>
<city>
<id>427392</id>
<name>Albion</name>
<state>IL</state>
<rating>6</rating>
<url>http://www.greatschools.org/city/Albion/IL</url>
<lat>38.3766</lat>
<lon>-88.0591</lon>
<active>1</active>
</city>
<city>
<id>427488</id>
<name>Aledo</name>
<state>IL</state>
<rating>7</rating>
<url>http://www.greatschools.org/city/Aledo/IL</url>
<lat>41.1985</lat>
<lon>-90.744</lon>
<active>1</active>
</city>
<city>
<id>427367</id>
<name>Alexander</name>
<state>IL</state>
<rating>8</rating>
<url>http://www.greatschools.org/city/Alexander/IL</url>
<lat>39.746</lat>
<lon>-90.0563</lon>
<active>1</active>
</city>
<city>
<id>426859</id>
<name>Alexis</name>
<state>IL</state>
<rating>8</rating>
<url>http://www.greatschools.org/city/Alexis/IL</url>
<lat>41.0629</lat>
<lon>-90.5554</lon>
<active>1</active>
</city>
<city>
<id>426736</id>
<name>Algonquin</name>
<state>IL</state>
<rating>8</rating>
<url>http://www.greatschools.org/city/Algonquin/IL</url>
<lat>42.1624</lat>
<lon>-88.3156</lon>
<active>1</active>
</city>
<city>
<id>427330</id>
<name>Alhambra</name>
<state>IL</state>
<rating/>
<url>http://www.greatschools.org/city/Alhambra/IL</url>
<lat>38.8874</lat>
<lon>-89.7369</lon>
<active>1</active>
</city>
<city>
<id>427486</id>
<name>Allendale</name>
<state>IL</state>
<rating>7</rating>
<url>http://www.greatschools.org/city/Allendale/IL</url>
<lat>38.5276</lat>
<lon>-87.7103</lon>
<active>1</active>
</city>
<city>
<id>427485</id>
<name>Alpha</name>
<state>IL</state>
<rating>5</rating>
<url>http://www.greatschools.org/city/Alpha/IL</url>
<lat>41.1918</lat>
<lon>-90.3806</lon>
<active>1</active>
</city>
<city>
<id>426802</id>
<name>Alsip</name>
<state>IL</state>
<rating>5</rating>
<url>http://www.greatschools.org/city/Alsip/IL</url>
<lat>41.6703</lat>
<lon>-87.7359</lon>
<active>1</active>
</city>
<city>
<id>427023</id>
<name>Altamont</name>
<state>IL</state>
<rating>6</rating>
<url>http://www.greatschools.org/city/Altamont/IL</url>
<lat>39.0572</lat>
<lon>-88.7475</lon>
<active>1</active>
</city>
<city>
<id>426710</id>
<name>Alton</name>
<state>IL</state>
<rating>3</rating>
<url>http://www.greatschools.org/city/Alton/IL</url>
<lat>38.9021</lat>
<lon>-90.1541</lon>
<active>1</active>
</city>
<city>
<id>427215</id>
<name>Altona</name>
<state>IL</state>
<rating>8</rating>
<url>http://www.greatschools.org/city/Altona/IL</url>
<lat>41.1155</lat>
<lon>-90.1647</lon>
<active>1</active>
</city>
<city>
<id>427483</id>
<name>Amboy</name>
<state>IL</state>
<rating>6</rating>
<url>http://www.greatschools.org/city/Amboy/IL</url>
<lat>41.729</lat>
<lon>-89.3677</lon>
<active>1</active>
</city>
<city>
<id>427169</id>
<name>Andalusia</name>
<state>IL</state>
<rating>7</rating>
<url>http://www.greatschools.org/city/Andalusia/IL</url>
<lat>41.4356</lat>
<lon>-90.7156</lon>
<active>1</active>
</city>
<city>
<id>426900</id>
<name>Anna</name>
<state>IL</state>
<rating>5</rating>
<url>http://www.greatschools.org/city/Anna/IL</url>
<lat>37.4657</lat>
<lon>-89.2363</lon>
<active>1</active>
</city>
<city>
<id>427482</id>
<name>Annawan</name>
<state>IL</state>
<rating>6</rating>
<url>http://www.greatschools.org/city/Annawan/IL</url>
<lat>41.3948</lat>
<lon>-89.888</lon>
<active>1</active>
</city>
<city>
<id>426754</id>
<name>Antioch</name>
<state>IL</state>
<rating>7</rating>
<url>http://www.greatschools.org/city/Antioch/IL</url>
<lat>42.4744</lat>
<lon>-88.0704</lon>
<active>1</active>
</city>
<city>
<id>427481</id>
<name>Arcola</name>
<state>IL</state>
<rating>4</rating>
<url>http://www.greatschools.org/city/Arcola/IL</url>
<lat>39.6836</lat>
<lon>-88.3008</lon>
<active>1</active>
</city>
<city>
<id>427014</id>
<name>Arenzville</name>
<state>IL</state>
<rating>7</rating>
<url>http://www.greatschools.org/city/Arenzville/IL</url>
<lat>39.8804</lat>
<lon>-90.3706</lon>
<active>1</active>
</city>
<city>
<id>427479</id>
<name>Argenta</name>
<state>IL</state>
<rating>5</rating>
<url>http://www.greatschools.org/city/Argenta/IL</url>
<lat>39.9851</lat>
<lon>-88.8202</lon>
<active>1</active>
</city>
<city>
<id>426783</id>
<name>Arlington Heights</name>
<state>IL</state>
<rating>10</rating>
<url>http://www.greatschools.org/city/Arlington_Heights/IL</url>
<lat>42.0974</lat>
<lon>-87.9817</lon>
<active>1</active>
</city>
<city>
<id>427477</id>
<name>Armstrong</name>
<state>IL</state>
<rating>6</rating>
<url>http://www.greatschools.org/city/Armstrong/IL</url>
<lat>40.2605</lat>
<lon>-87.9227</lon>
<active>1</active>
</city>
<city>
<id>427301</id>
<name>Aroma Park</name>
<state>IL</state>
<rating/>
<url>http://www.greatschools.org/city/Aroma_Park/IL</url>
<lat>41.073</lat>
<lon>-87.8105</lon>
<active>1</active>
</city>
<city>
<id>426660</id>
<name>Arthur</name>
<state>IL</state>
<rating>5</rating>
<url>http://www.greatschools.org/city/Arthur/IL</url>
<lat>39.7144</lat>
<lon>-88.4694</lon>
<active>1</active>
</city>
<city>
<id>427423</id>
<name>Ashkum</name>
<state>IL</state>
<rating/>
<url>http://www.greatschools.org/city/Ashkum/IL</url>
<lat>40.8782</lat>
<lon>-87.9531</lon>
<active>1</active>
</city>
<city>
<id>427516</id>
<name>Ashland</name>
<state>IL</state>
<rating>6</rating>
<url>http://www.greatschools.org/city/Ashland/IL</url>
<lat>39.8886</lat>
<lon>-90.008</lon>
<active>1</active>
</city>
<city>
<id>427476</id>
<name>Ashley</name>
<state>IL</state>
<rating>4</rating>
<url>http://www.greatschools.org/city/Ashley/IL</url>
<lat>38.3283</lat>
<lon>-89.1889</lon>
<active>1</active>
</city>
<city>
<id>427429</id>
<name>Ashmore</name>
<state>IL</state>
<rating/>
<url>http://www.greatschools.org/city/Ashmore/IL</url>
<lat>39.5305</lat>
<lon>-88.0202</lon>
<active>1</active>
</city>
<city>
<id>427475</id>
<name>Ashton</name>
<state>IL</state>
<rating>8</rating>
<url>http://www.greatschools.org/city/Ashton/IL</url>
<lat>41.8682</lat>
<lon>-89.2224</lon>
<active>1</active>
</city>
<city>
<id>427433</id>
<name>Assumption</name>
<state>IL</state>
<rating>8</rating>
<url>http://www.greatschools.org/city/Assumption/IL</url>
<lat>39.5178</lat>
<lon>-89.0485</lon>
<active>1</active>
</city>
<city>
<id>427473</id>
<name>Astoria</name>
<state>IL</state>
<rating>3</rating>
<url>http://www.greatschools.org/city/Astoria/IL</url>
<lat>40.2279</lat>
<lon>-90.3565</lon>
<active>1</active>
</city>
<city>
<id>427472</id>
<name>Athens</name>
<state>IL</state>
<rating>5</rating>
<url>http://www.greatschools.org/city/Athens/IL</url>
<lat>39.9619</lat>
<lon>-89.7216</lon>
<active>1</active>
</city>
<city>
<id>427220</id>
<name>Atlanta</name>
<state>IL</state>
<rating>6</rating>
<url>http://www.greatschools.org/city/Atlanta/IL</url>
<lat>40.2636</lat>
<lon>-89.2308</lon>
<active>1</active>
</city>
<city>
<id>427470</id>
<name>Atwood</name>
<state>IL</state>
<rating>5</rating>
<url>http://www.greatschools.org/city/Atwood/IL</url>
<lat>39.7992</lat>
<lon>-88.4626</lon>
<active>1</active>
</city>
<city>
<id>427469</id>
<name>Auburn</name>
<state>IL</state>
<rating>6</rating>
<url>http://www.greatschools.org/city/Auburn/IL</url>
<lat>39.5757</lat>
<lon>-89.7427</lon>
<active>1</active>
</city>
<city>
<id>427147</id>
<name>Augusta</name>
<state>IL</state>
<rating>5</rating>
<url>http://www.greatschools.org/city/Augusta/IL</url>
<lat>40.2309</lat>
<lon>-90.9498</lon>
<active>1</active>
</city>
<city>
<id>426629</id>
<name>Aurora</name>
<state>IL</state>
<rating>5</rating>
<url>http://www.greatschools.org/city/Aurora/IL</url>
<lat>41.7635</lat>
<lon>-88.2901</lon>
<active>1</active>
</city>
<city>
<id>427468</id>
<name>Aviston</name>
<state>IL</state>
<rating>9</rating>
<url>http://www.greatschools.org/city/Aviston/IL</url>
<lat>38.6259</lat>
<lon>-89.6125</lon>
<active>1</active>
</city>
<city>
<id>427467</id>
<name>Avon</name>
<state>IL</state>
<rating>3</rating>
<url>http://www.greatschools.org/city/Avon/IL</url>
<lat>40.662</lat>
<lon>-90.4352</lon>
<active>1</active>
</city>
<city>
<id>427466</id>
<name>Bannockburn</name>
<state>IL</state>
<rating/>
<url>http://www.greatschools.org/city/Bannockburn/IL</url>
<lat>42.1922</lat>
<lon>-87.8698</lon>
<active>1</active>
</city>
<city>
<id>426717</id>
<name>Barrington</name>
<state>IL</state>
<rating>10</rating>
<url>http://www.greatschools.org/city/Barrington/IL</url>
<lat>42.1526</lat>
<lon>-88.1276</lon>
<active>1</active>
</city>
<city>
<id>444058</id>
<name>Barrington Hill</name>
<state>IL</state>
<rating/>
<url>http://www.greatschools.org/city/Barrington_Hill/IL</url>
<lat>42.1621</lat>
<lon>-88.1487</lon>
<active>1</active>
</city>
<city>
<id>446459</id>
<name>Barrington Hills</name>
<state>IL</state>
<rating/>
<url>http://www.greatschools.org/city/Barrington_Hills/IL</url>
<lat>42.1386</lat>
<lon>-88.203</lon>
<active>1</active>
</city>
<city>
<id>427464</id>
<name>Barry</name>
<state>IL</state>
<rating>2</rating>
<url>http://www.greatschools.org/city/Barry/IL</url>
<lat>39.6983</lat>
<lon>-91.0398</lon>
<active>1</active>
</city>
<city>
<id>427463</id>
<name>Bartelso</name>
<state>IL</state>
<rating>10</rating>
<url>http://www.greatschools.org/city/Bartelso/IL</url>
<lat>38.5373</lat>
<lon>-89.4676</lon>
<active>1</active>
</city>
<city>
<id>426757</id>
<name>Bartlett</name>
<state>IL</state>
<rating>8</rating>
<url>http://www.greatschools.org/city/Bartlett/IL</url>
<lat>41.9608</lat>
<lon>-88.177</lon>
<active>1</active>
</city>
<city>
<id>427227</id>
<name>Bartonville</name>
<state>IL</state>
<rating>4</rating>
<url>http://www.greatschools.org/city/Bartonville/IL</url>
<lat>40.642</lat>
<lon>-89.6598</lon>
<active>1</active>
</city>
<city>
<id>426953</id>
<name>Batavia</name>
<state>IL</state>
<rating>9</rating>
<url>http://www.greatschools.org/city/Batavia/IL</url>
<lat>41.8482</lat>
<lon>-88.3086</lon>
<active>1</active>
</city>
<city>
<id>426936</id>
<name>Beach Park</name>
<state>IL</state>
<rating>2</rating>
<url>http://www.greatschools.org/city/Beach_Park/IL</url>
<lat>42.4423</lat>
<lon>-87.8753</lon>
<active>1</active>
</city>
<city>
<id>427004</id>
<name>Beardstown</name>
<state>IL</state>
<rating>3</rating>
<url>http://www.greatschools.org/city/Beardstown/IL</url>
<lat>40.0099</lat>
<lon>-90.4316</lon>
<active>1</active>
</city>
<city>
<id>427451</id>
<name>Beckemeyer</name>
<state>IL</state>
<rating>7</rating>
<url>http://www.greatschools.org/city/Beckemeyer/IL</url>
<lat>38.6058</lat>
<lon>-89.4323</lon>
<active>1</active>
</city>
<city>
<id>427478</id>
<name>Bedford Park</name>
<state>IL</state>
<rating>4</rating>
<url>http://www.greatschools.org/city/Bedford_Park/IL</url>
<lat>41.7671</lat>
<lon>-87.7955</lon>
<active>1</active>
</city>
<city>
<id>426952</id>
<name>Beecher</name>
<state>IL</state>
<rating>7</rating>
<url>http://www.greatschools.org/city/Beecher/IL</url>
<lat>41.3503</lat>
<lon>-87.617</lon>
<active>1</active>
</city>
<city>
<id>427462</id>
<name>Beecher City</name>
<state>IL</state>
<rating>5</rating>
<url>http://www.greatschools.org/city/Beecher_City/IL</url>
<lat>39.1866</lat>
<lon>-88.7876</lon>
<active>1</active>
</city>
<city>
<id>427460</id>
<name>Belle Rive</name>
<state>IL</state>
<rating/>
<url>http://www.greatschools.org/city/Belle_Rive/IL</url>
<lat>38.2317</lat>
<lon>-88.7392</lon>
<active>1</active>
</city>
<city>
<id>426617</id>
<name>Belleville</name>
<state>IL</state>
<rating>5</rating>
<url>http://www.greatschools.org/city/Belleville/IL</url>
<lat>38.5151</lat>
<lon>-89.9862</lon>
<active>1</active>
</city>
<city>
<id>426790</id>
<name>Bellwood</name>
<state>IL</state>
<rating>2</rating>
<url>http://www.greatschools.org/city/Bellwood/IL</url>
<lat>41.8829</lat>
<lon>-87.8762</lon>
<active>1</active>
</city>
<city>
<id>426663</id>
<name>Belvidere</name>
<state>IL</state>
<rating>5</rating>
<url>http://www.greatschools.org/city/Belvidere/IL</url>
<lat>42.2562</lat>
<lon>-88.8681</lon>
<active>1</active>
</city>
<city>
<id>427456</id>
<name>Bement</name>
<state>IL</state>
<rating>4</rating>
<url>http://www.greatschools.org/city/Bement/IL</url>
<lat>39.9229</lat>
<lon>-88.5719</lon>
<active>1</active>
</city>
<city>
<id>426773</id>
<name>Bensenville</name>
<state>IL</state>
<rating>5</rating>
<url>http://www.greatschools.org/city/Bensenville/IL</url>
<lat>41.9597</lat>
<lon>-87.9435</lon>
<active>1</active>
</city>
<city>
<id>427172</id>
<name>Benson</name>
<state>IL</state>
<rating>8</rating>
<url>http://www.greatschools.org/city/Benson/IL</url>
<lat>40.8506</lat>
<lon>-89.121</lon>
<active>1</active>
</city>
<city>
<id>426931</id>
<name>Benton</name>
<state>IL</state>
<rating>5</rating>
<url>http://www.greatschools.org/city/Benton/IL</url>
<lat>38.0128</lat>
<lon>-88.9171</lon>
<active>1</active>
</city>
<city>
<id>427455</id>
<name>Berkeley</name>
<state>IL</state>
<rating>3</rating>
<url>http://www.greatschools.org/city/Berkeley/IL</url>
<lat>41.8891</lat>
<lon>-87.9115</lon>
<active>1</active>
</city>
<city>
<id>444951</id>
<name>Berlin</name>
<state>IL</state>
<rating/>
<url>http://www.greatschools.org/city/Berlin/IL</url>
<lat>39.759</lat>
<lon>-89.9032</lon>
<active>1</active>
</city>
<city>
<id>426659</id>
<name>Berwyn</name>
<state>IL</state>
<rating>3</rating>
<url>http://www.greatschools.org/city/Berwyn/IL</url>
<lat>41.8433</lat>
<lon>-87.7909</lon>
<active>1</active>
</city>
<city>
<id>427019</id>
<name>Bethalto</name>
<state>IL</state>
<rating>5</rating>
<url>http://www.greatschools.org/city/Bethalto/IL</url>
<lat>38.903</lat>
<lon>-90.0535</lon>
<active>1</active>
</city>
<city>
<id>426958</id>
<name>Bethany</name>
<state>IL</state>
<rating>7</rating>
<url>http://www.greatschools.org/city/Bethany/IL</url>
<lat>39.6442</lat>
<lon>-88.7409</lon>
<active>1</active>
</city>
<city>
<id>427326</id>
<name>Big Rock</name>
<state>IL</state>
<rating>8</rating>
<url>http://www.greatschools.org/city/Big_Rock/IL</url>
<lat>41.7668</lat>
<lon>-88.5265</lon>
<active>1</active>
</city>
<city>
<id>426862</id>
<name>Biggsville</name>
<state>IL</state>
<rating>7</rating>
<url>http://www.greatschools.org/city/Biggsville/IL</url>
<lat>40.8539</lat>
<lon>-90.8623</lon>
<active>1</active>
</city>
<city>
<id>427454</id>
<name>Bismarck</name>
<state>IL</state>
<rating>6</rating>
<url>http://www.greatschools.org/city/Bismarck/IL</url>
<lat>40.2594</lat>
<lon>-87.6113</lon>
<active>1</active>
</city>
<city>
<id>426880</id>
<name>Bloomingdale</name>
<state>IL</state>
<rating>8</rating>
<url>http://www.greatschools.org/city/Bloomingdale/IL</url>
<lat>41.9515</lat>
<lon>-88.0891</lon>
<active>1</active>
</city>
<city>
<id>426608</id>
<name>Bloomington</name>
<state>IL</state>
<rating>6</rating>
<url>http://www.greatschools.org/city/Bloomington/IL</url>
<lat>40.4758</lat>
<lon>-88.9699</lon>
<active>1</active>
</city>
<city>
<id>426786</id>
<name>Blue Island</name>
<state>IL</state>
<rating>2</rating>
<url>http://www.greatschools.org/city/Blue_Island/IL</url>
<lat>41.6576</lat>
<lon>-87.6811</lon>
<active>1</active>
</city>
<city>
<id>427503</id>
<name>Blue Mound</name>
<state>IL</state>
<rating>4</rating>
<url>http://www.greatschools.org/city/Blue_Mound/IL</url>
<lat>39.7005</lat>
<lon>-89.1186</lon>
<active>1</active>
</city>
<city>
<id>427453</id>
<name>Bluffs</name>
<state>IL</state>
<rating>3</rating>
<url>http://www.greatschools.org/city/Bluffs/IL</url>
<lat>39.7493</lat>
<lon>-90.5353</lon>
<active>1</active>
</city>
<city>
<id>427092</id>
<name>Bluford</name>
<state>IL</state>
<rating>7</rating>
<url>http://www.greatschools.org/city/Bluford/IL</url>
<lat>38.3262</lat>
<lon>-88.7356</lon>
<active>1</active>
</city>
<city>
<id>426840</id>
<name>Bolingbrook</name>
<state>IL</state>
<rating>5</rating>
<url>http://www.greatschools.org/city/Bolingbrook/IL</url>
<lat>41.6911</lat>
<lon>-88.1016</lon>
<active>1</active>
</city>
<city>
<id>427334</id>
<name>Bonfield</name>
<state>IL</state>
<rating>4</rating>
<url>http://www.greatschools.org/city/Bonfield/IL</url>
<lat>41.145</lat>
<lon>-88.054</lon>
<active>1</active>
</city>
<city>
<id>426706</id>
<name>Bourbonnais</name>
<state>IL</state>
<rating>6</rating>
<url>http://www.greatschools.org/city/Bourbonnais/IL</url>
<lat>41.1831</lat>
<lon>-87.8782</lon>
<active>1</active>
</city>
<city>
<id>427146</id>
<name>Bowen</name>
<state>IL</state>
<rating>5</rating>
<url>http://www.greatschools.org/city/Bowen/IL</url>
<lat>40.2321</lat>
<lon>-91.0633</lon>
<active>1</active>
</city>
<city>
<id>445913</id>
<name>Boys Town</name>
<state>IL</state>
<rating/>
<url>http://www.greatschools.org/city/Boys_Town/IL</url>
<lat>41.2628</lat>
<lon>-96.126</lon>
<active>1</active>
</city>
<city>
<id>427452</id>
<name>Braceville</name>
<state>IL</state>
<rating>4</rating>
<url>http://www.greatschools.org/city/Braceville/IL</url>
<lat>41.2235</lat>
<lon>-88.2721</lon>
<active>1</active>
</city>
<city>
<id>426947</id>
<name>Bradford</name>
<state>IL</state>
<rating>5</rating>
<url>http://www.greatschools.org/city/Bradford/IL</url>
<lat>41.1772</lat>
<lon>-89.6582</lon>
<active>1</active>
</city>
<city>
<id>427053</id>
<name>Bradley</name>
<state>IL</state>
<rating>6</rating>
<url>http://www.greatschools.org/city/Bradley/IL</url>
<lat>41.1633</lat>
<lon>-87.8468</lon>
<active>1</active>
</city>
<city>
<id>427177</id>
<name>Braidwood</name>
<state>IL</state>
<rating>6</rating>
<url>http://www.greatschools.org/city/Braidwood/IL</url>
<lat>41.2691</lat>
<lon>-88.2203</lon>
<active>1</active>
</city>
<city>
<id>427005</id>
<name>Breese</name>
<state>IL</state>
<rating>7</rating>
<url>http://www.greatschools.org/city/Breese/IL</url>
<lat>38.6138</lat>
<lon>-89.5237</lon>
<active>1</active>
</city>
<city>
<id>427285</id>
<name>Bridgeport</name>
<state>IL</state>
<rating>5</rating>
<url>http://www.greatschools.org/city/Bridgeport/IL</url>
<lat>38.7083</lat>
<lon>-87.7594</lon>
<active>1</active>
</city>
<city>
<id>426996</id>
<name>Bridgeview</name>
<state>IL</state>
<rating>6</rating>
<url>http://www.greatschools.org/city/Bridgeview/IL</url>
<lat>41.7402</lat>
<lon>-87.8066</lon>
<active>1</active>
</city>
<city>
<id>427198</id>
<name>Brighton</name>
<state>IL</state>
<rating>6</rating>
<url>http://www.greatschools.org/city/Brighton/IL</url>
<lat>39.0406</lat>
<lon>-90.1405</lon>
<active>1</active>
</city>
<city>
<id>427450</id>
<name>Brimfield</name>
<state>IL</state>
<rating>9</rating>
<url>http://www.greatschools.org/city/Brimfield/IL</url>
<lat>40.8382</lat>
<lon>-89.8838</lon>
<active>1</active>
</city>
<city>
<id>427075</id>
<name>Bristol</name>
<state>IL</state>
<rating/>
<url>http://www.greatschools.org/city/Bristol/IL</url>
<lat>41.7022</lat>
<lon>-88.4343</lon>
<active>1</active>
</city>
<city>
<id>427515</id>
<name>Broadlands</name>
<state>IL</state>
<rating>8</rating>
<url>http://www.greatschools.org/city/Broadlands/IL</url>
<lat>39.9087</lat>
<lon>-87.9968</lon>
<active>1</active>
</city>
<city>
<id>427256</id>
<name>Broadview</name>
<state>IL</state>
<rating>3</rating>
<url>http://www.greatschools.org/city/Broadview/IL</url>
<lat>41.8584</lat>
<lon>-87.8562</lon>
<active>1</active>
</city>
<city>
<id>426789</id>
<name>Brookfield</name>
<state>IL</state>
<rating>5</rating>
<url>http://www.greatschools.org/city/Brookfield/IL</url>
<lat>41.8251</lat>
<lon>-87.8475</lon>
<active>1</active>
</city>
<city>
<id>444952</id>
<name>Brooklyn</name>
<state>IL</state>
<rating/>
<url>http://www.greatschools.org/city/Brooklyn/IL</url>
<lat>38.6595</lat>
<lon>-90.1658</lon>
<active>1</active>
</city>
<city>
<id>426974</id>
<name>Brookport</name>
<state>IL</state>
<rating>8</rating>
<url>http://www.greatschools.org/city/Brookport/IL</url>
<lat>37.1258</lat>
<lon>-88.626</lon>
<active>1</active>
</city>
<city>
<id>427449</id>
<name>Brownstown</name>
<state>IL</state>
<rating>4</rating>
<url>http://www.greatschools.org/city/Brownstown/IL</url>
<lat>38.9943</lat>
<lon>-88.9553</lon>
<active>1</active>
</city>
<city>
<id>427040</id>
<name>Brussels</name>
<state>IL</state>
<rating/>
<url>http://www.greatschools.org/city/Brussels/IL</url>
<lat>38.9485</lat>
<lon>-90.5891</lon>
<active>1</active>
</city>
<city>
<id>426988</id>
<name>Buckley</name>
<state>IL</state>
<rating/>
<url>http://www.greatschools.org/city/Buckley/IL</url>
<lat>40.5977</lat>
<lon>-88.0375</lon>
<active>1</active>
</city>
<city>
<id>427500</id>
<name>Buda</name>
<state>IL</state>
<rating>5</rating>
<url>http://www.greatschools.org/city/Buda/IL</url>
<lat>41.3291</lat>
<lon>-89.6791</lon>
<active>1</active>
</city>
<city>
<id>427112</id>
<name>Buffalo</name>
<state>IL</state>
<rating>6</rating>
<url>http://www.greatschools.org/city/Buffalo/IL</url>
<lat>39.8499</lat>
<lon>-89.4089</lon>
<active>1</active>
</city>
<city>
<id>426748</id>
<name>Buffalo Grove</name>
<state>IL</state>
<rating>9</rating>
<url>http://www.greatschools.org/city/Buffalo_Grove/IL</url>
<lat>42.166</lat>
<lon>-87.9618</lon>
<active>1</active>
</city>
<city>
<id>427274</id>
<name>Buncombe</name>
<state>IL</state>
<rating>4</rating>
<url>http://www.greatschools.org/city/Buncombe/IL</url>
<lat>37.4711</lat>
<lon>-88.9747</lon>
<active>1</active>
</city>
<city>
<id>426894</id>
<name>Bunker Hill</name>
<state>IL</state>
<rating>5</rating>
<url>http://www.greatschools.org/city/Bunker_Hill/IL</url>
<lat>39.0415</lat>
<lon>-89.9511</lon>
<active>1</active>
</city>
<city>
<id>426801</id>
<name>Burbank</name>
<state>IL</state>
<rating>5</rating>
<url>http://www.greatschools.org/city/Burbank/IL</url>
<lat>41.7444</lat>
<lon>-87.7685</lon>
<active>1</active>
</city>
<city>
<id>427448</id>
<name>Burlington</name>
<state>IL</state>
<rating>9</rating>
<url>http://www.greatschools.org/city/Burlington/IL</url>
<lat>42.0529</lat>
<lon>-88.5698</lon>
<active>1</active>
</city>
<city>
<id>427447</id>
<name>Burnham</name>
<state>IL</state>
<rating>1</rating>
<url>http://www.greatschools.org/city/Burnham/IL</url>
<lat>41.6395</lat>
<lon>-87.545</lon>
<active>1</active>
</city>
<city>
<id>426636</id>
<name>Burr Ridge</name>
<state>IL</state>
<rating>9</rating>
<url>http://www.greatschools.org/city/Burr_Ridge/IL</url>
<lat>41.7479</lat>
<lon>-87.9201</lon>
<active>1</active>
</city>
<city>
<id>427446</id>
<name>Bushnell</name>
<state>IL</state>
<rating>5</rating>
<url>http://www.greatschools.org/city/Bushnell/IL</url>
<lat>40.5516</lat>
<lon>-90.5047</lon>
<active>1</active>
</city>
<city>
<id>427445</id>
<name>Byron</name>
<state>IL</state>
<rating>8</rating>
<url>http://www.greatschools.org/city/Byron/IL</url>
<lat>42.1271</lat>
<lon>-89.2627</lon>
<active>1</active>
</city>
<city>
<id>426842</id>
<name>Cahokia</name>
<state>IL</state>
<rating>2</rating>
<url>http://www.greatschools.org/city/Cahokia/IL</url>
<lat>38.5659</lat>
<lon>-90.1761</lon>
<active>1</active>
</city>
<city>
<id>426687</id>
<name>Cairo</name>
<state>IL</state>
<rating>3</rating>
<url>http://www.greatschools.org/city/Cairo/IL</url>
<lat>37.0063</lat>
<lon>-89.1829</lon>
<active>1</active>
</city>
<city>
<id>427458</id>
<name>Caledonia</name>
<state>IL</state>
<rating>7</rating>
<url>http://www.greatschools.org/city/Caledonia/IL</url>
<lat>42.3684</lat>
<lon>-88.894</lon>
<active>1</active>
</city>
<city>
<id>426803</id>
<name>Calumet City</name>
<state>IL</state>
<rating>2</rating>
<url>http://www.greatschools.org/city/Calumet_City/IL</url>
<lat>41.5965</lat>
<lon>-87.538</lon>
<active>1</active>
</city>
<city>
<id>426935</id>
<name>Calumet Park</name>
<state>IL</state>
<rating>4</rating>
<url>http://www.greatschools.org/city/Calumet_Park/IL</url>
<lat>41.6657</lat>
<lon>-87.6577</lon>
<active>1</active>
</city>
<city>
<id>427443</id>
<name>Cambridge</name>
<state>IL</state>
<rating>5</rating>
<url>http://www.greatschools.org/city/Cambridge/IL</url>
<lat>41.2923</lat>
<lon>-90.1897</lon>
<active>1</active>
</city>
<city>
<id>442301</id>
<name>Cameron</name>
<state>IL</state>
<rating/>
<url>http://www.greatschools.org/city/Cameron/IL</url>
<lat>40.9052</lat>
<lon>-90.4989</lon>
<active>1</active>
</city>
<city>
<id>427442</id>
<name>Camp Point</name>
<state>IL</state>
<rating>6</rating>
<url>http://www.greatschools.org/city/Camp_Point/IL</url>
<lat>40.038</lat>
<lon>-91.0662</lon>
<active>1</active>
</city>
<city>
<id>427440</id>
<name>Campbell Hill</name>
<state>IL</state>
<rating>4</rating>
<url>http://www.greatschools.org/city/Campbell_Hill/IL</url>
<lat>37.9296</lat>
<lon>-89.5504</lon>
<active>1</active>
</city>
<city>
<id>426762</id>
<name>Canton</name>
<state>IL</state>
<rating>4</rating>
<url>http://www.greatschools.org/city/Canton/IL</url>
<lat>40.5626</lat>
<lon>-90.0405</lon>
<active>1</active>
</city>
<city>
<id>426854</id>
<name>Cantrall</name>
<state>IL</state>
<rating>7</rating>
<url>http://www.greatschools.org/city/Cantrall/IL</url>
<lat>39.9353</lat>
<lon>-89.679</lon>
<active>1</active>
</city>
<city>
<id>427229</id>
<name>Capron</name>
<state>IL</state>
<rating/>
<url>http://www.greatschools.org/city/Capron/IL</url>
<lat>42.3988</lat>
<lon>-88.7387</lon>
<active>1</active>
</city>
<city>
<id>427520</id>
<name>Carbon Cliff</name>
<state>IL</state>
<rating/>
<url>http://www.greatschools.org/city/Carbon_Cliff/IL</url>
<lat>41.4981</lat>
<lon>-90.3921</lon>
<active>1</active>
</city>
<city>
<id>426980</id>
<name>Carbondale</name>
<state>IL</state>
<rating>7</rating>
<url>http://www.greatschools.org/city/Carbondale/IL</url>
<lat>37.7221</lat>
<lon>-89.2237</lon>
<active>1</active>
</city>
<city>
<id>426825</id>
<name>Carlinville</name>
<state>IL</state>
<rating>7</rating>
<url>http://www.greatschools.org/city/Carlinville/IL</url>
<lat>39.2781</lat>
<lon>-89.8788</lon>
<active>1</active>
</city>
<city>
<id>427232</id>
<name>Carlock</name>
<state>IL</state>
<rating>9</rating>
<url>http://www.greatschools.org/city/Carlock/IL</url>
<lat>40.5836</lat>
<lon>-89.1291</lon>
<active>1</active>
</city>
<city>
<id>426834</id>
<name>Carlyle</name>
<state>IL</state>
<rating>5</rating>
<url>http://www.greatschools.org/city/Carlyle/IL</url>
<lat>38.6223</lat>
<lon>-89.3753</lon>
<active>1</active>
</city>
<city>
<id>427439</id>
<name>Carmi</name>
<state>IL</state>
<rating>4</rating>
<url>http://www.greatschools.org/city/Carmi/IL</url>
<lat>38.0859</lat>
<lon>-88.1726</lon>
<active>1</active>
</city>
<city>
<id>426640</id>
<name>Carol Stream</name>
<state>IL</state>
<rating>8</rating>
<url>http://www.greatschools.org/city/Carol_Stream/IL</url>
<lat>41.9199</lat>
<lon>-88.1333</lon>
<active>1</active>
</city>
<city>
<id>426759</id>
<name>Carpentersville</name>
<state>IL</state>
<rating>4</rating>
<url>http://www.greatschools.org/city/Carpentersville/IL</url>
<lat>42.1236</lat>
<lon>-88.2933</lon>
<active>1</active>
</city>
<city>
<id>444953</id>
<name>Carpentersvle</name>
<state>IL</state>
<rating/>
<url>http://www.greatschools.org/city/Carpentersvle/IL</url>
<lat>42.1199</lat>
<lon>-88.2899</lon>
<active>1</active>
</city>
<city>
<id>427436</id>
<name>Carrier Mills</name>
<state>IL</state>
<rating>2</rating>
<url>http://www.greatschools.org/city/Carrier_Mills/IL</url>
<lat>37.6886</lat>
<lon>-88.629</lon>
<active>1</active>
</city>
<city>
<id>426983</id>
<name>Carrollton</name>
<state>IL</state>
<rating>7</rating>
<url>http://www.greatschools.org/city/Carrollton/IL</url>
<lat>39.2945</lat>
<lon>-90.4069</lon>
<active>1</active>
</city>
<city>
<id>427435</id>
<name>Carterville</name>
<state>IL</state>
<rating>7</rating>
<url>http://www.greatschools.org/city/Carterville/IL</url>
<lat>37.7627</lat>
<lon>-89.0838</lon>
<active>1</active>
</city>
<city>
<id>426975</id>
<name>Carthage</name>
<state>IL</state>
<rating>7</rating>
<url>http://www.greatschools.org/city/Carthage/IL</url>
<lat>40.4144</lat>
<lon>-91.1278</lon>
<active>1</active>
</city>
<city>
<id>426733</id>
<name>Cary</name>
<state>IL</state>
<rating>9</rating>
<url>http://www.greatschools.org/city/Cary/IL</url>
<lat>42.2121</lat>
<lon>-88.2496</lon>
<active>1</active>
</city>
<city>
<id>427530</id>
<name>Casey</name>
<state>IL</state>
<rating>6</rating>
<url>http://www.greatschools.org/city/Casey/IL</url>
<lat>39.3027</lat>
<lon>-87.9896</lon>
<active>1</active>
</city>
<city>
<id>426989</id>
<name>Caseyville</name>
<state>IL</state>
<rating>7</rating>
<url>http://www.greatschools.org/city/Caseyville/IL</url>
<lat>38.6305</lat>
<lon>-90.034</lon>
<active>1</active>
</city>
<city>
<id>427419</id>
<name>Catlin</name>
<state>IL</state>
<rating>7</rating>
<url>http://www.greatschools.org/city/Catlin/IL</url>
<lat>40.068</lat>
<lon>-87.7084</lon>
<active>1</active>
</city>
<city>
<id>426809</id>
<name>Centralia</name>
<state>IL</state>
<rating>4</rating>
<url>http://www.greatschools.org/city/Centralia/IL</url>
<lat>38.5221</lat>
<lon>-89.1235</lon>
<active>1</active>
</city>
<city>
<id>427444</id>
<name>Centreville</name>
<state>IL</state>
<rating/>
<url>http://www.greatschools.org/city/Centreville/IL</url>
<lat>38.5692</lat>
<lon>-90.1223</lon>
<active>1</active>
</city>
<city>
<id>427432</id>
<name>Cerro Gordo</name>
<state>IL</state>
<rating>6</rating>
<url>http://www.greatschools.org/city/Cerro_Gordo/IL</url>
<lat>39.8896</lat>
<lon>-88.7347</lon>
<active>1</active>
</city>
<city>
<id>427431</id>
<name>Chadwick</name>
<state>IL</state>
<rating>6</rating>
<url>http://www.greatschools.org/city/Chadwick/IL</url>
<lat>42.0142</lat>
<lon>-89.8884</lon>
<active>1</active>
</city>
<city>
<id>426812</id>
<name>Champaign</name>
<state>IL</state>
<rating>6</rating>
<url>http://www.greatschools.org/city/Champaign/IL</url>
<lat>40.1151</lat>
<lon>-88.2737</lon>
<active>1</active>
</city>
<city>
<id>426907</id>
<name>Chana</name>
<state>IL</state>
<rating/>
<url>http://www.greatschools.org/city/Chana/IL</url>
<lat>41.9973</lat>
<lon>-89.2042</lon>
<active>1</active>
</city>
<city>
<id>427517</id>
<name>Chandlerville</name>
<state>IL</state>
<rating>4</rating>
<url>http://www.greatschools.org/city/Chandlerville/IL</url>
<lat>40.0472</lat>
<lon>-90.1513</lon>
<active>1</active>
</city>
<city>
<id>426925</id>
<name>Channahon</name>
<state>IL</state>
<rating>7</rating>
<url>http://www.greatschools.org/city/Channahon/IL</url>
<lat>41.4229</lat>
<lon>-88.2629</lon>
<active>1</active>
</city>
<city>
<id>446472</id>
<name>Channohan</name>
<state>IL</state>
<rating/>
<url>http://www.greatschools.org/city/Channohan/IL</url>
<lat>41.43</lat>
<lon>-88.2265</lon>
<active>1</active>
</city>
<city>
<id>426661</id>
<name>Charleston</name>
<state>IL</state>
<rating>7</rating>
<url>http://www.greatschools.org/city/Charleston/IL</url>
<lat>39.4848</lat>
<lon>-88.1776</lon>
<active>1</active>
</city>
<city>
<id>426954</id>
<name>Chatham</name>
<state>IL</state>
<rating>8</rating>
<url>http://www.greatschools.org/city/Chatham/IL</url>
<lat>39.6708</lat>
<lon>-89.6995</lon>
<active>1</active>
</city>
<city>
<id>427525</id>
<name>Chatsworth</name>
<state>IL</state>
<rating/>
<url>http://www.greatschools.org/city/Chatsworth/IL</url>
<lat>40.7107</lat>
<lon>-88.301</lon>
<active>1</active>
</city>
<city>
<id>427037</id>
<name>Chebanse</name>
<state>IL</state>
<rating>4</rating>
<url>http://www.greatschools.org/city/Chebanse/IL</url>
<lat>41.0058</lat>
<lon>-87.9098</lon>
<active>1</active>
</city>
<city>
<id>426866</id>
<name>Chenoa</name>
<state>IL</state>
<rating>6</rating>
<url>http://www.greatschools.org/city/Chenoa/IL</url>
<lat>40.7376</lat>
<lon>-88.7279</lon>
<active>1</active>
</city>
<city>
<id>427428</id>
<name>Cherry</name>
<state>IL</state>
<rating/>
<url>http://www.greatschools.org/city/Cherry/IL</url>
<lat>41.4282</lat>
<lon>-89.2137</lon>
<active>1</active>
</city>
<city>
<id>427165</id>
<name>Cherry Valley</name>
<state>IL</state>
<rating>5</rating>
<url>http://www.greatschools.org/city/Cherry_Valley/IL</url>
<lat>42.2379</lat>
<lon>-88.971</lon>
<active>1</active>
</city>
<city>
<id>427017</id>
<name>Chester</name>
<state>IL</state>
<rating>4</rating>
<url>http://www.greatschools.org/city/Chester/IL</url>
<lat>37.9256</lat>
<lon>-89.8277</lon>
<active>1</active>
</city>
<city>
<id>445914</id>
<name>Chesterfield</name>
<state>IL</state>
<rating/>
<url>http://www.greatschools.org/city/Chesterfield/IL</url>
<lat>38.6401</lat>
<lon>-90.5709</lon>
<active>1</active>
</city>
<city>
<id>426607</id>
<name>Chicago</name>
<state>IL</state>
<rating>5</rating>
<url>http://www.greatschools.org/city/Chicago/IL</url>
<lat>41.8376</lat>
<lon>-87.6818</lon>
<active>1</active>
</city>
<city>
<id>426799</id>
<name>Chicago Heights</name>
<state>IL</state>
<rating>2</rating>
<url>http://www.greatschools.org/city/Chicago_Heights/IL</url>
<lat>41.5107</lat>
<lon>-87.6347</lon>
<active>1</active>
</city>
<city>
<id>426892</id>
<name>Chicago Ridge</name>
<state>IL</state>
<rating>4</rating>
<url>http://www.greatschools.org/city/Chicago_Ridge/IL</url>
<lat>41.7034</lat>
<lon>-87.7795</lon>
<active>1</active>
</city>
<city>
<id>426618</id>
<name>Chillicothe</name>
<state>IL</state>
<rating>7</rating>
<url>http://www.greatschools.org/city/Chillicothe/IL</url>
<lat>40.916</lat>
<lon>-89.5026</lon>
<active>1</active>
</city>
<city>
<id>426966</id>
<name>Chrisman</name>
<state>IL</state>
<rating>6</rating>
<url>http://www.greatschools.org/city/Chrisman/IL</url>
<lat>39.8044</lat>
<lon>-87.6752</lon>
<active>1</active>
</city>
<city>
<id>426976</id>
<name>Christopher</name>
<state>IL</state>
<rating>3</rating>
<url>http://www.greatschools.org/city/Christopher/IL</url>
<lat>37.9709</lat>
<lon>-89.053</lon>
<active>1</active>
</city>
<city>
<id>426868</id>
<name>Cicero</name>
<state>IL</state>
<rating>2</rating>
<url>http://www.greatschools.org/city/Cicero/IL</url>
<lat>41.8445</lat>
<lon>-87.7593</lon>
<active>1</active>
</city>
<city>
<id>444954</id>
<name>Cisco</name>
<state>IL</state>
<rating/>
<url>http://www.greatschools.org/city/Cisco/IL</url>
<lat>40.0132</lat>
<lon>-88.726</lon>
<active>1</active>
</city>
<city>
<id>427094</id>
<name>Cisne</name>
<state>IL</state>
<rating>8</rating>
<url>http://www.greatschools.org/city/Cisne/IL</url>
<lat>38.5138</lat>
<lon>-88.4371</lon>
<active>1</active>
</city>
<city>
<id>427425</id>
<name>Cissna Park</name>
<state>IL</state>
<rating>9</rating>
<url>http://www.greatschools.org/city/Cissna_Park/IL</url>
<lat>40.5667</lat>
<lon>-87.8923</lon>
<active>1</active>
</city>
<city>
<id>426774</id>
<name>Clarendon Hills</name>
<state>IL</state>
<rating>10</rating>
<url>http://www.greatschools.org/city/Clarendon_Hills/IL</url>
<lat>41.7984</lat>
<lon>-87.9572</lon>
<active>1</active>
</city>
<city>
<id>427424</id>
<name>Clay City</name>
<state>IL</state>
<rating>7</rating>
<url>http://www.greatschools.org/city/Clay_City/IL</url>
<lat>38.6858</lat>
<lon>-88.3485</lon>
<active>1</active>
</city>
<city>
<id>427422</id>
<name>Clifton</name>
<state>IL</state>
<rating>7</rating>
<url>http://www.greatschools.org/city/Clifton/IL</url>
<lat>40.9345</lat>
<lon>-87.934</lon>
<active>1</active>
</city>
<city>
<id>427421</id>
<name>Clinton</name>
<state>IL</state>
<rating>3</rating>
<url>http://www.greatschools.org/city/Clinton/IL</url>
<lat>40.1467</lat>
<lon>-88.9625</lon>
<active>1</active>
</city>
<city>
<id>444955</id>
<name>Cntry Clb Hls</name>
<state>IL</state>
<rating/>
<url>http://www.greatschools.org/city/Cntry_Clb_Hls/IL</url>
<lat>41.5688</lat>
<lon>-87.7271</lon>
<active>1</active>
</city>
<city>
<id>426967</id>
<name>Coal City</name>
<state>IL</state>
<rating>7</rating>
<url>http://www.greatschools.org/city/Coal_City/IL</url>
<lat>41.2798</lat>
<lon>-88.2778</lon>
<active>1</active>
</city>
<city>
<id>427246</id>
<name>Coal Valley</name>
<state>IL</state>
<rating>8</rating>
<url>http://www.greatschools.org/city/Coal_Valley/IL</url>
<lat>41.4487</lat>
<lon>-90.4586</lon>
<active>1</active>
</city>
<city>
<id>426901</id>
<name>Cobden</name>
<state>IL</state>
<rating>3</rating>
<url>http://www.greatschools.org/city/Cobden/IL</url>
<lat>37.5334</lat>
<lon>-89.2544</lon>
<active>1</active>
</city>
<city>
<id>427327</id>
<name>Coffeen</name>
<state>IL</state>
<rating>7</rating>
<url>http://www.greatschools.org/city/Coffeen/IL</url>
<lat>39.0882</lat>
<lon>-89.3898</lon>
<active>1</active>
</city>
<city>
<id>426928</id>
<name>Colchester</name>
<state>IL</state>
<rating>5</rating>
<url>http://www.greatschools.org/city/Colchester/IL</url>
<lat>40.4273</lat>
<lon>-90.7921</lon>
<active>1</active>
</city>
<city>
<id>427513</id>
<name>Colfax</name>
<state>IL</state>
<rating>7</rating>
<url>http://www.greatschools.org/city/Colfax/IL</url>
<lat>40.5666</lat>
<lon>-88.6161</lon>
<active>1</active>
</city>
<city>
<id>426738</id>
<name>Collinsville</name>
<state>IL</state>
<rating>5</rating>
<url>http://www.greatschools.org/city/Collinsville/IL</url>
<lat>38.6768</lat>
<lon>-90.0058</lon>
<active>1</active>
</city>
<city>
<id>427420</id>
<name>Colona</name>
<state>IL</state>
<rating>3</rating>
<url>http://www.greatschools.org/city/Colona/IL</url>
<lat>41.4785</lat>
<lon>-90.3387</lon>
<active>1</active>
</city>
<city>
<id>427055</id>
<name>Columbia</name>
<state>IL</state>
<rating>8</rating>
<url>http://www.greatschools.org/city/Columbia/IL</url>
<lat>38.4581</lat>
<lon>-90.216</lon>
<active>1</active>
</city>
<city>
<id>427416</id>
<name>Concord</name>
<state>IL</state>
<rating>9</rating>
<url>http://www.greatschools.org/city/Concord/IL</url>
<lat>39.816</lat>
<lon>-90.3709</lon>
<active>1</active>
</city>
<city>
<id>427379</id>
<name>Congerville</name>
<state>IL</state>
<rating/>
<url>http://www.greatschools.org/city/Congerville/IL</url>
<lat>40.6166</lat>
<lon>-89.2042</lon>
<active>1</active>
</city>
<city>
<id>427415</id>
<name>Cornell</name>
<state>IL</state>
<rating>4</rating>
<url>http://www.greatschools.org/city/Cornell/IL</url>
<lat>40.9922</lat>
<lon>-88.7294</lon>
<active>1</active>
</city>
<city>
<id>427404</id>
<name>Cortland</name>
<state>IL</state>
<rating>4</rating>
<url>http://www.greatschools.org/city/Cortland/IL</url>
<lat>41.9377</lat>
<lon>-88.6914</lon>
<active>1</active>
</city>
<city>
<id>427413</id>
<name>Coulterville</name>
<state>IL</state>
<rating>4</rating>
<url>http://www.greatschools.org/city/Coulterville/IL</url>
<lat>38.1851</lat>
<lon>-89.6043</lon>
<active>1</active>
</city>
<city>
<id>426653</id>
<name>Country Club Hills</name>
<state>IL</state>
<rating>2</rating>
<url>http://www.greatschools.org/city/Country_Club_Hills/IL</url>
<lat>41.5635</lat>
<lon>-87.7254</lon>
<active>1</active>
</city>
<city>
<id>427289</id>
<name>Countryside</name>
<state>IL</state>
<rating>7</rating>
<url>http://www.greatschools.org/city/Countryside/IL</url>
<lat>41.7742</lat>
<lon>-87.8752</lon>
<active>1</active>
</city>
<city>
<id>427494</id>
<name>Cowden</name>
<state>IL</state>
<rating>4</rating>
<url>http://www.greatschools.org/city/Cowden/IL</url>
<lat>39.2492</lat>
<lon>-88.8594</lon>
<active>1</active>
</city>
<city>
<id>427263</id>
<name>Creal Springs</name>
<state>IL</state>
<rating>7</rating>
<url>http://www.greatschools.org/city/Creal_Springs/IL</url>
<lat>37.6198</lat>
<lon>-88.8374</lon>
<active>1</active>
</city>
<city>
<id>426855</id>
<name>Crescent City</name>
<state>IL</state>
<rating>10</rating>
<url>http://www.greatschools.org/city/Crescent_City/IL</url>
<lat>40.7718</lat>
<lon>-87.8563</lon>
<active>1</active>
</city>
<city>
<id>427175</id>
<name>Crest Hill</name>
<state>IL</state>
<rating>4</rating>
<url>http://www.greatschools.org/city/Crest_Hill/IL</url>
<lat>41.5738</lat>
<lon>-88.111</lon>
<active>1</active>
</city>
<city>
<id>427412</id>
<name>Creston</name>
<state>IL</state>
<rating>3</rating>
<url>http://www.greatschools.org/city/Creston/IL</url>
<lat>41.9335</lat>
<lon>-88.9741</lon>
<active>1</active>
</city>
<city>
<id>427248</id>
<name>Crestwood</name>
<state>IL</state>
<rating>3</rating>
<url>http://www.greatschools.org/city/Crestwood/IL</url>
<lat>41.6456</lat>
<lon>-87.7401</lon>
<active>1</active>
</city>
<city>
<id>426937</id>
<name>Crete</name>
<state>IL</state>
<rating>4</rating>
<url>http://www.greatschools.org/city/Crete/IL</url>
<lat>41.4405</lat>
<lon>-87.6245</lon>
<active>1</active>
</city>
<city>
<id>426959</id>
<name>Creve Coeur</name>
<state>IL</state>
<rating>6</rating>
<url>http://www.greatschools.org/city/Creve_Coeur/IL</url>
<lat>40.6421</lat>
<lon>-89.5996</lon>
<active>1</active>
</city>
<city>
<id>427438</id>
<name>Crossville</name>
<state>IL</state>
<rating>3</rating>
<url>http://www.greatschools.org/city/Crossville/IL</url>
<lat>38.1625</lat>
<lon>-88.0643</lon>
<active>1</active>
</city>
<city>
<id>426734</id>
<name>Crystal Lake</name>
<state>IL</state>
<rating>8</rating>
<url>http://www.greatschools.org/city/Crystal_Lake/IL</url>
<lat>42.2326</lat>
<lon>-88.3353</lon>
<active>1</active>
</city>
<city>
<id>427411</id>
<name>Cuba</name>
<state>IL</state>
<rating>5</rating>
<url>http://www.greatschools.org/city/Cuba/IL</url>
<lat>40.4936</lat>
<lon>-90.1934</lon>
<active>1</active>
</city>
<city>
<id>427109</id>
<name>Cullom</name>
<state>IL</state>
<rating>5</rating>
<url>http://www.greatschools.org/city/Cullom/IL</url>
<lat>40.8784</lat>
<lon>-88.2698</lon>
<active>1</active>
</city>
<city>
<id>427410</id>
<name>Cypress</name>
<state>IL</state>
<rating>5</rating>
<url>http://www.greatschools.org/city/Cypress/IL</url>
<lat>37.3657</lat>
<lon>-89.0189</lon>
<active>1</active>
</city>
<city>
<id>427418</id>
<name>Dahlgren</name>
<state>IL</state>
<rating>4</rating>
<url>http://www.greatschools.org/city/Dahlgren/IL</url>
<lat>38.1982</lat>
<lon>-88.6846</lon>
<active>1</active>
</city>
<city>
<id>427409</id>
<name>Dakota</name>
<state>IL</state>
<rating>7</rating>
<url>http://www.greatschools.org/city/Dakota/IL</url>
<lat>42.3875</lat>
<lon>-89.5268</lon>
<active>1</active>
</city>
<city>
<id>427408</id>
<name>Dallas City</name>
<state>IL</state>
<rating>6</rating>
<url>http://www.greatschools.org/city/Dallas_City/IL</url>
<lat>40.6353</lat>
<lon>-91.1643</lon>
<active>1</active>
</city>
<city>
<id>427407</id>
<name>Dalzell</name>
<state>IL</state>
<rating/>
<url>http://www.greatschools.org/city/Dalzell/IL</url>
<lat>41.3525</lat>
<lon>-89.17</lon>
<active>1</active>
</city>
<city>
<id>427406</id>
<name>Damiansville</name>
<state>IL</state>
<rating>10</rating>
<url>http://www.greatschools.org/city/Damiansville/IL</url>
<lat>38.5088</lat>
<lon>-89.615</lon>
<active>1</active>
</city>
<city>
<id>427319</id>
<name>Danforth</name>
<state>IL</state>
<rating/>
<url>http://www.greatschools.org/city/Danforth/IL</url>
<lat>40.822</lat>
<lon>-87.9779</lon>
<active>1</active>
</city>
<city>
<id>427219</id>
<name>Danvers</name>
<state>IL</state>
<rating>7</rating>
<url>http://www.greatschools.org/city/Danvers/IL</url>
<lat>40.5298</lat>
<lon>-89.1753</lon>
<active>1</active>
</city>
<city>
<id>426820</id>
<name>Danville</name>
<state>IL</state>
<rating>2</rating>
<url>http://www.greatschools.org/city/Danville/IL</url>
<lat>40.1426</lat>
<lon>-87.6107</lon>
<active>1</active>
</city>
<city>
<id>426767</id>
<name>Darien</name>
<state>IL</state>
<rating>8</rating>
<url>http://www.greatschools.org/city/Darien/IL</url>
<lat>41.7457</lat>
<lon>-87.9815</lon>
<active>1</active>
</city>
<city>
<id>444956</id>
<name>Davis</name>
<state>IL</state>
<rating/>
<url>http://www.greatschools.org/city/Davis/IL</url>
<lat>42.4237</lat>
<lon>-89.4216</lon>
<active>1</active>
</city>
<city>
<id>444957</id>
<name>Davis Junction</name>
<state>IL</state>
<rating/>
<url>http://www.greatschools.org/city/Davis_Junction/IL</url>
<lat>42.0967</lat>
<lon>-89.0761</lon>
<active>1</active>
</city>
<city>
<id>445915</id>
<name>De Kalb</name>
<state>IL</state>
<rating>3</rating>
<url>http://www.greatschools.org/city/De_Kalb/IL</url>
<lat>41.9295</lat>
<lon>-88.7504</lon>
<active>1</active>
</city>
<city>
<id>445916</id>
<name>De Land</name>
<state>IL</state>
<rating>4</rating>
<url>http://www.greatschools.org/city/De_Land/IL</url>
<lat>40.1266</lat>
<lon>-88.5996</lon>
<active>1</active>
</city>
<city>
<id>427399</id>
<name>De Soto</name>
<state>IL</state>
<rating>2</rating>
<url>http://www.greatschools.org/city/De_Soto/IL</url>
<lat>37.8157</lat>
<lon>-89.227</lon>
<active>1</active>
</city>
<city>
<id>426623</id>
<name>Decatur</name>
<state>IL</state>
<rating>3</rating>
<url>http://www.greatschools.org/city/Decatur/IL</url>
<lat>39.856</lat>
<lon>-88.9337</lon>
<active>1</active>
</city>
<city>
<id>427405</id>
<name>Deer Creek</name>
<state>IL</state>
<rating>7</rating>
<url>http://www.greatschools.org/city/Deer_Creek/IL</url>
<lat>40.6289</lat>
<lon>-89.3313</lon>
<active>1</active>
</city>
<city>
<id>443871</id>
<name>Deer Grove</name>
<state>IL</state>
<rating/>
<url>http://www.greatschools.org/city/Deer_Grove/IL</url>
<lat>41.6098</lat>
<lon>-89.6874</lon>
<active>1</active>
</city>
<city>
<id>442299</id>
<name>Deer Park</name>
<state>IL</state>
<rating/>
<url>http://www.greatschools.org/city/Deer_Park/IL</url>
<lat>42.1663</lat>
<lon>-88.0862</lon>
<active>1</active>
</city>
<city>
<id>426656</id>
<name>Deerfield</name>
<state>IL</state>
<rating>10</rating>
<url>http://www.greatschools.org/city/Deerfield/IL</url>
<lat>42.1661</lat>
<lon>-87.8525</lon>
<active>1</active>
</city>
<city>
<id>426777</id>
<name>DeKalb</name>
<state>IL</state>
<rating>5</rating>
<url>http://www.greatschools.org/city/DeKalb/IL</url>
<lat>41.9306</lat>
<lon>-88.7478</lon>
<active>1</active>
</city>
<city>
<id>427401</id>
<name>Delavan</name>
<state>IL</state>
<rating>7</rating>
<url>http://www.greatschools.org/city/Delavan/IL</url>
<lat>40.3713</lat>
<lon>-89.5447</lon>
<active>1</active>
</city>
<city>
<id>427400</id>
<name>Depue</name>
<state>IL</state>
<rating>2</rating>
<url>http://www.greatschools.org/city/Depue/IL</url>
<lat>41.3113</lat>
<lon>-89.3084</lon>
<active>1</active>
</city>
<city>
<id>426655</id>
<name>Des Plaines</name>
<state>IL</state>
<rating>6</rating>
<url>http://www.greatschools.org/city/Des_Plaines/IL</url>
<lat>42.0351</lat>
<lon>-87.9011</lon>
<active>1</active>
</city>
<city>
<id>442298</id>
<name>Diamond</name>
<state>IL</state>
<rating/>
<url>http://www.greatschools.org/city/Diamond/IL</url>
<lat>41.2852</lat>
<lon>-88.2506</lon>
<active>1</active>
</city>
<city>
<id>427120</id>
<name>Dieterich</name>
<state>IL</state>
<rating>8</rating>
<url>http://www.greatschools.org/city/Dieterich/IL</url>
<lat>39.0601</lat>
<lon>-88.3819</lon>
<active>1</active>
</city>
<city>
<id>427398</id>
<name>Divernon</name>
<state>IL</state>
<rating>5</rating>
<url>http://www.greatschools.org/city/Divernon/IL</url>
<lat>39.5704</lat>
<lon>-89.6536</lon>
<active>1</active>
</city>
<city>
<id>427163</id>
<name>Dix</name>
<state>IL</state>
<rating>5</rating>
<url>http://www.greatschools.org/city/Dix/IL</url>
<lat>38.4445</lat>
<lon>-88.946</lon>
<active>1</active>
</city>
<city>
<id>427336</id>
<name>Dixmoor</name>
<state>IL</state>
<rating>2</rating>
<url>http://www.greatschools.org/city/Dixmoor/IL</url>
<lat>41.6329</lat>
<lon>-87.6672</lon>
<active>1</active>
</city>
<city>
<id>426730</id>
<name>Dixon</name>
<state>IL</state>
<rating>5</rating>
<url>http://www.greatschools.org/city/Dixon/IL</url>
<lat>41.843</lat>
<lon>-89.4788</lon>
<active>1</active>
</city>
<city>
<id>426645</id>
<name>Dolton</name>
<state>IL</state>
<rating>1</rating>
<url>http://www.greatschools.org/city/Dolton/IL</url>
<lat>41.6303</lat>
<lon>-87.5968</lon>
<active>1</active>
</city>
<city>
<id>427397</id>
<name>Dongola</name>
<state>IL</state>
<rating>2</rating>
<url>http://www.greatschools.org/city/Dongola/IL</url>
<lat>37.3571</lat>
<lon>-89.165</lon>
<active>1</active>
</city>
<city>
<id>427396</id>
<name>Donovan</name>
<state>IL</state>
<rating>6</rating>
<url>http://www.greatschools.org/city/Donovan/IL</url>
<lat>40.8851</lat>
<lon>-87.614</lon>
<active>1</active>
</city>
<city>
<id>427018</id>
<name>Dorsey</name>
<state>IL</state>
<rating/>
<url>http://www.greatschools.org/city/Dorsey/IL</url>
<lat>38.9771</lat>
<lon>-89.9741</lon>
<active>1</active>
</city>
<city>
<id>426680</id>
<name>Downers Grove</name>
<state>IL</state>
<rating>9</rating>
<url>http://www.greatschools.org/city/Downers_Grove/IL</url>
<lat>41.795</lat>
<lon>-88.0212</lon>
<active>1</active>
</city>
<city>
<id>427384</id>
<name>Downs</name>
<state>IL</state>
<rating>8</rating>
<url>http://www.greatschools.org/city/Downs/IL</url>
<lat>40.3993</lat>
<lon>-88.8911</lon>
<active>1</active>
</city>
<city>
<id>426978</id>
<name>Du Quoin</name>
<state>IL</state>
<rating>4</rating>
<url>http://www.greatschools.org/city/Du_Quoin/IL</url>
<lat>38.0017</lat>
<lon>-89.2328</lon>
<active>1</active>
</city>
<city>
<id>444958</id>
<name>Dundas</name>
<state>IL</state>
<rating/>
<url>http://www.greatschools.org/city/Dundas/IL</url>
<lat>38.8395</lat>
<lon>-88.151</lon>
<active>1</active>
</city>
<city>
<id>427395</id>
<name>Dunlap</name>
<state>IL</state>
<rating>9</rating>
<url>http://www.greatschools.org/city/Dunlap/IL</url>
<lat>40.8575</lat>
<lon>-89.6788</lon>
<active>1</active>
</city>
<city>
<id>426915</id>
<name>Dupo</name>
<state>IL</state>
<rating>4</rating>
<url>http://www.greatschools.org/city/Dupo/IL</url>
<lat>38.5179</lat>
<lon>-90.2082</lon>
<active>1</active>
</city>
<city>
<id>427394</id>
<name>Durand</name>
<state>IL</state>
<rating>8</rating>
<url>http://www.greatschools.org/city/Durand/IL</url>
<lat>42.4342</lat>
<lon>-89.3265</lon>
<active>1</active>
</city>
<city>
<id>426776</id>
<name>Dwight</name>
<state>IL</state>
<rating>7</rating>
<url>http://www.greatschools.org/city/Dwight/IL</url>
<lat>41.0983</lat>
<lon>-88.4249</lon>
<active>1</active>
</city>
<city>
<id>427365</id>
<name>Earlville</name>
<state>IL</state>
<rating>6</rating>
<url>http://www.greatschools.org/city/Earlville/IL</url>
<lat>41.5881</lat>
<lon>-88.9229</lon>
<active>1</active>
</city>
<city>
<id>426621</id>
<name>East Alton</name>
<state>IL</state>
<rating>2</rating>
<url>http://www.greatschools.org/city/East_Alton/IL</url>
<lat>38.8841</lat>
<lon>-90.1079</lon>
<active>1</active>
</city>
<city>
<id>427043</id>
<name>East Dubuque</name>
<state>IL</state>
<rating>8</rating>
<url>http://www.greatschools.org/city/East_Dubuque/IL</url>
<lat>42.4897</lat>
<lon>-90.631</lon>
<active>1</active>
</city>
<city>
<id>443557</id>
<name>East Dundee</name>
<state>IL</state>
<rating/>
<url>http://www.greatschools.org/city/East_Dundee/IL</url>
<lat>42.0974</lat>
<lon>-88.2477</lon>
<active>1</active>
</city>
<city>
<id>426726</id>
<name>East Moline</name>
<state>IL</state>
<rating>3</rating>
<url>http://www.greatschools.org/city/East_Moline/IL</url>
<lat>41.5198</lat>
<lon>-90.3878</lon>
<active>1</active>
</city>
<city>
<id>426977</id>
<name>East Peoria</name>
<state>IL</state>
<rating>4</rating>
<url>http://www.greatschools.org/city/East_Peoria/IL</url>
<lat>40.6734</lat>
<lon>-89.5418</lon>
<active>1</active>
</city>
<city>
<id>444959</id>
<name>East Saint Lo</name>
<state>IL</state>
<rating/>
<url>http://www.greatschools.org/city/East_Saint_Lo/IL</url>
<lat>38.6005</lat>
<lon>-90.0093</lon>
<active>1</active>
</city>
<city>
<id>446031</id>
<name>East Saint Louis</name>
<state>IL</state>
<rating/>
<url>http://www.greatschools.org/city/East_Saint_Louis/IL</url>
<lat>38.6261</lat>
<lon>-90.1492</lon>
<active>1</active>
</city>
<city>
<id>446032</id>
<name>East St Louis</name>
<state>IL</state>
<rating/>
<url>http://www.greatschools.org/city/East_St_Louis/IL</url>
<lat>38.6223</lat>
<lon>-90.1359</lon>
<active>1</active>
</city>
<city>
<id>426705</id>
<name>East St. Louis</name>
<state>IL</state>
<rating>1</rating>
<url>http://www.greatschools.org/city/East_St._Louis/IL</url>
<lat>38.6159</lat>
<lon>-90.1294</lon>
<active>1</active>
</city>
<city>
<id>427388</id>
<name>Edgewood</name>
<state>IL</state>
<rating/>
<url>http://www.greatschools.org/city/Edgewood/IL</url>
<lat>38.9219</lat>
<lon>-88.6641</lon>
<active>1</active>
</city>
<city>
<id>427393</id>
<name>Edinburg</name>
<state>IL</state>
<rating>4</rating>
<url>http://www.greatschools.org/city/Edinburg/IL</url>
<lat>39.6579</lat>
<lon>-89.3901</lon>
<active>1</active>
</city>
<city>
<id>442297</id>
<name>Edwards</name>
<state>IL</state>
<rating/>
<url>http://www.greatschools.org/city/Edwards/IL</url>
<lat>40.7786</lat>
<lon>-89.7313</lon>
<active>1</active>
</city>
<city>
<id>426824</id>
<name>Edwardsville</name>
<state>IL</state>
<rating>9</rating>
<url>http://www.greatschools.org/city/Edwardsville/IL</url>
<lat>38.7908</lat>
<lon>-89.9886</lon>
<active>1</active>
</city>
<city>
<id>426667</id>
<name>Effingham</name>
<state>IL</state>
<rating>6</rating>
<url>http://www.greatschools.org/city/Effingham/IL</url>
<lat>39.1198</lat>
<lon>-88.5509</lon>
<active>1</active>
</city>
<city>
<id>426847</id>
<name>El Paso</name>
<state>IL</state>
<rating>6</rating>
<url>http://www.greatschools.org/city/El_Paso/IL</url>
<lat>40.7406</lat>
<lon>-89.0181</lon>
<active>1</active>
</city>
<city>
<id>426857</id>
<name>Elburn</name>
<state>IL</state>
<rating>8</rating>
<url>http://www.greatschools.org/city/Elburn/IL</url>
<lat>41.8716</lat>
<lon>-88.4536</lon>
<active>1</active>
</city>
<city>
<id>426765</id>
<name>Eldorado</name>
<state>IL</state>
<rating>2</rating>
<url>http://www.greatschools.org/city/Eldorado/IL</url>
<lat>37.8117</lat>
<lon>-88.4416</lon>
<active>1</active>
</city>
<city>
<id>426758</id>
<name>Elgin</name>
<state>IL</state>
<rating>4</rating>
<url>http://www.greatschools.org/city/Elgin/IL</url>
<lat>42.0396</lat>
<lon>-88.3217</lon>
<active>1</active>
</city>
<city>
<id>427340</id>
<name>Elizabethtown</name>
<state>IL</state>
<rating>3</rating>
<url>http://www.greatschools.org/city/Elizabethtown/IL</url>
<lat>37.4494</lat>
<lon>-88.3041</lon>
<active>1</active>
</city>
<city>
<id>426797</id>
<name>Elk Grove Village</name>
<state>IL</state>
<rating>7</rating>
<url>http://www.greatschools.org/city/Elk_Grove_Village/IL</url>
<lat>42.0058</lat>
<lon>-87.993</lon>
<active>1</active>
</city>
<city>
<id>427386</id>
<name>Elkville</name>
<state>IL</state>
<rating>5</rating>
<url>http://www.greatschools.org/city/Elkville/IL</url>
<lat>37.9094</lat>
<lon>-89.2372</lon>
<active>1</active>
</city>
<city>
<id>426641</id>
<name>Elmhurst</name>
<state>IL</state>
<rating>10</rating>
<url>http://www.greatschools.org/city/Elmhurst/IL</url>
<lat>41.896</lat>
<lon>-87.9437</lon>
<active>1</active>
</city>
<city>
<id>427383</id>
<name>Elmwood</name>
<state>IL</state>
<rating>8</rating>
<url>http://www.greatschools.org/city/Elmwood/IL</url>
<lat>40.7804</lat>
<lon>-89.9656</lon>
<active>1</active>
</city>
<city>
<id>426945</id>
<name>Elmwood Park</name>
<state>IL</state>
<rating>6</rating>
<url>http://www.greatschools.org/city/Elmwood_Park/IL</url>
<lat>41.9225</lat>
<lon>-87.8163</lon>
<active>1</active>
</city>
<city>
<id>427382</id>
<name>Elwood</name>
<state>IL</state>
<rating>7</rating>
<url>http://www.greatschools.org/city/Elwood/IL</url>
<lat>41.4071</lat>
<lon>-88.1273</lon>
<active>1</active>
</city>
<city>
<id>427338</id>
<name>Emden</name>
<state>IL</state>
<rating/>
<url>http://www.greatschools.org/city/Emden/IL</url>
<lat>40.2982</lat>
<lon>-89.485</lon>
<active>1</active>
</city>
<city>
<id>426631</id>
<name>Energy</name>
<state>IL</state>
<rating/>
<url>http://www.greatschools.org/city/Energy/IL</url>
<lat>37.7758</lat>
<lon>-89.0231</lon>
<active>1</active>
</city>
<city>
<id>427527</id>
<name>Enfield</name>
<state>IL</state>
<rating>2</rating>
<url>http://www.greatschools.org/city/Enfield/IL</url>
<lat>38.1019</lat>
<lon>-88.3381</lon>
<active>1</active>
</city>
<city>
<id>427008</id>
<name>Equality</name>
<state>IL</state>
<rating/>
<url>http://www.greatschools.org/city/Equality/IL</url>
<lat>37.7369</lat>
<lon>-88.3422</lon>
<active>1</active>
</city>
<city>
<id>427381</id>
<name>Erie</name>
<state>IL</state>
<rating>6</rating>
<url>http://www.greatschools.org/city/Erie/IL</url>
<lat>41.6586</lat>
<lon>-90.0813</lon>
<active>1</active>
</city>
<city>
<id>426619</id>
<name>Eureka</name>
<state>IL</state>
<rating>8</rating>
<url>http://www.greatschools.org/city/Eureka/IL</url>
<lat>40.714</lat>
<lon>-89.277</lon>
<active>1</active>
</city>
<city>
<id>426808</id>
<name>Evanston</name>
<state>IL</state>
<rating>8</rating>
<url>http://www.greatschools.org/city/Evanston/IL</url>
<lat>42.0464</lat>
<lon>-87.6944</lon>
<active>1</active>
</city>
<city>
<id>426670</id>
<name>Evansville</name>
<state>IL</state>
<rating>6</rating>
<url>http://www.greatschools.org/city/Evansville/IL</url>
<lat>38.089</lat>
<lon>-89.9325</lon>
<active>1</active>
</city>
<city>
<id>426796</id>
<name>Evergreen Park</name>
<state>IL</state>
<rating>6</rating>
<url>http://www.greatschools.org/city/Evergreen_Park/IL</url>
<lat>41.7213</lat>
<lon>-87.7013</lon>
<active>1</active>
</city>
<city>
<id>427377</id>
<name>Ewing</name>
<state>IL</state>
<rating>6</rating>
<url>http://www.greatschools.org/city/Ewing/IL</url>
<lat>38.0894</lat>
<lon>-88.8522</lon>
<active>1</active>
</city>
<city>
<id>427526</id>
<name>Fairbury</name>
<state>IL</state>
<rating>7</rating>
<url>http://www.greatschools.org/city/Fairbury/IL</url>
<lat>40.7457</lat>
<lon>-88.5182</lon>
<active>1</active>
</city>
<city>
<id>427235</id>
<name>Fairfield</name>
<state>IL</state>
<rating>5</rating>
<url>http://www.greatschools.org/city/Fairfield/IL</url>
<lat>38.3792</lat>
<lon>-88.3715</lon>
<active>1</active>
</city>
<city>
<id>427057</id>
<name>Fairview Heights</name>
<state>IL</state>
<rating>5</rating>
<url>http://www.greatschools.org/city/Fairview_Heights/IL</url>
<lat>38.5951</lat>
<lon>-90.0051</lon>
<active>1</active>
</city>
<city>
<id>427509</id>
<name>Farina</name>
<state>IL</state>
<rating>5</rating>
<url>http://www.greatschools.org/city/Farina/IL</url>
<lat>38.8298</lat>
<lon>-88.7809</lon>
<active>1</active>
</city>
<city>
<id>427529</id>
<name>Farmer City</name>
<state>IL</state>
<rating>5</rating>
<url>http://www.greatschools.org/city/Farmer_City/IL</url>
<lat>40.2481</lat>
<lon>-88.6418</lon>
<active>1</active>
</city>
<city>
<id>427041</id>
<name>Farmersville</name>
<state>IL</state>
<rating>8</rating>
<url>http://www.greatschools.org/city/Farmersville/IL</url>
<lat>39.443</lat>
<lon>-89.6522</lon>
<active>1</active>
</city>
<city>
<id>426843</id>
<name>Farmington</name>
<state>IL</state>
<rating>5</rating>
<url>http://www.greatschools.org/city/Farmington/IL</url>
<lat>40.6972</lat>
<lon>-90.0033</lon>
<active>1</active>
</city>
<city>
<id>426957</id>
<name>Findlay</name>
<state>IL</state>
<rating>4</rating>
<url>http://www.greatschools.org/city/Findlay/IL</url>
<lat>39.5223</lat>
<lon>-88.7546</lon>
<active>1</active>
</city>
<city>
<id>427372</id>
<name>Fisher</name>
<state>IL</state>
<rating>5</rating>
<url>http://www.greatschools.org/city/Fisher/IL</url>
<lat>40.3155</lat>
<lon>-88.3497</lon>
<active>1</active>
</city>
<city>
<id>427417</id>
<name>Fithian</name>
<state>IL</state>
<rating>5</rating>
<url>http://www.greatschools.org/city/Fithian/IL</url>
<lat>40.1144</lat>
<lon>-87.875</lon>
<active>1</active>
</city>
<city>
<id>426642</id>
<name>Flanagan</name>
<state>IL</state>
<rating>5</rating>
<url>http://www.greatschools.org/city/Flanagan/IL</url>
<lat>40.8772</lat>
<lon>-88.86</lon>
<active>1</active>
</city>
<city>
<id>443869</id>
<name>Flat Rock</name>
<state>IL</state>
<rating/>
<url>http://www.greatschools.org/city/Flat_Rock/IL</url>
<lat>38.9037</lat>
<lon>-87.6734</lon>
<active>1</active>
</city>
<city>
<id>426881</id>
<name>Flora</name>
<state>IL</state>
<rating>5</rating>
<url>http://www.greatschools.org/city/Flora/IL</url>
<lat>38.6656</lat>
<lon>-88.4738</lon>
<active>1</active>
</city>
<city>
<id>445918</id>
<name>Florissant</name>
<state>IL</state>
<rating/>
<url>http://www.greatschools.org/city/Florissant/IL</url>
<lat>38.8236</lat>
<lon>-90.3593</lon>
<active>1</active>
</city>
<city>
<id>426657</id>
<name>Flossmoor</name>
<state>IL</state>
<rating>6</rating>
<url>http://www.greatschools.org/city/Flossmoor/IL</url>
<lat>41.5391</lat>
<lon>-87.6857</lon>
<active>1</active>
</city>
<city>
<id>427414</id>
<name>Ford Heights</name>
<state>IL</state>
<rating>4</rating>
<url>http://www.greatschools.org/city/Ford_Heights/IL</url>
<lat>41.5109</lat>
<lon>-87.5814</lon>
<active>1</active>
</city>
<city>
<id>426697</id>
<name>Forest Park</name>
<state>IL</state>
<rating>7</rating>
<url>http://www.greatschools.org/city/Forest_Park/IL</url>
<lat>41.8684</lat>
<lon>-87.8157</lon>
<active>1</active>
</city>
<city>
<id>426885</id>
<name>Forrest</name>
<state>IL</state>
<rating>7</rating>
<url>http://www.greatschools.org/city/Forrest/IL</url>
<lat>40.7509</lat>
<lon>-88.4097</lon>
<active>1</active>
</city>
<city>
<id>427369</id>
<name>Forreston</name>
<state>IL</state>
<rating>7</rating>
<url>http://www.greatschools.org/city/Forreston/IL</url>
<lat>42.1265</lat>
<lon>-89.5782</lon>
<active>1</active>
</city>
<city>
<id>427260</id>
<name>Forsyth</name>
<state>IL</state>
<rating>10</rating>
<url>http://www.greatschools.org/city/Forsyth/IL</url>
<lat>39.9261</lat>
<lon>-88.9641</lon>
<active>1</active>
</city>
<city>
<id>427351</id>
<name>Fox Lake</name>
<state>IL</state>
<rating>7</rating>
<url>http://www.greatschools.org/city/Fox_Lake/IL</url>
<lat>42.4264</lat>
<lon>-88.1819</lon>
<active>1</active>
</city>
<city>
<id>427368</id>
<name>Fox River Grove</name>
<state>IL</state>
<rating>8</rating>
<url>http://www.greatschools.org/city/Fox_River_Grove/IL</url>
<lat>42.1954</lat>
<lon>-88.2145</lon>
<active>1</active>
</city>
<city>
<id>426668</id>
<name>Frankfort</name>
<state>IL</state>
<rating>9</rating>
<url>http://www.greatschools.org/city/Frankfort/IL</url>
<lat>41.4913</lat>
<lon>-87.8394</lon>
<active>1</active>
</city>
<city>
<id>427366</id>
<name>Franklin</name>
<state>IL</state>
<rating>5</rating>
<url>http://www.greatschools.org/city/Franklin/IL</url>
<lat>39.6213</lat>
<lon>-90.0478</lon>
<active>1</active>
</city>
<city>
<id>427474</id>
<name>Franklin Grove</name>
<state>IL</state>
<rating>6</rating>
<url>http://www.greatschools.org/city/Franklin_Grove/IL</url>
<lat>41.8409</lat>
<lon>-89.3006</lon>
<active>1</active>
</city>
<city>
<id>427266</id>
<name>Franklin Park</name>
<state>IL</state>
<rating>5</rating>
<url>http://www.greatschools.org/city/Franklin_Park/IL</url>
<lat>41.936</lat>
<lon>-87.8792</lon>
<active>1</active>
</city>
<city>
<id>426893</id>
<name>Freeburg</name>
<state>IL</state>
<rating>8</rating>
<url>http://www.greatschools.org/city/Freeburg/IL</url>
<lat>38.4403</lat>
<lon>-89.9165</lon>
<active>1</active>
</city>
<city>
<id>426898</id>
<name>Freeport</name>
<state>IL</state>
<rating>3</rating>
<url>http://www.greatschools.org/city/Freeport/IL</url>
<lat>42.2895</lat>
<lon>-89.6358</lon>
<active>1</active>
</city>
<city>
<id>426941</id>
<name>Fulton</name>
<state>IL</state>
<rating>7</rating>
<url>http://www.greatschools.org/city/Fulton/IL</url>
<lat>41.8648</lat>
<lon>-90.1571</lon>
<active>1</active>
</city>
<city>
<id>426666</id>
<name>Gages Lake</name>
<state>IL</state>
<rating/>
<url>http://www.greatschools.org/city/Gages_Lake/IL</url>
<lat>42.3516</lat>
<lon>-87.9824</lon>
<active>1</active>
</city>
<city>
<id>427363</id>
<name>Galatia</name>
<state>IL</state>
<rating>3</rating>
<url>http://www.greatschools.org/city/Galatia/IL</url>
<lat>37.842</lat>
<lon>-88.6165</lon>
<active>1</active>
</city>
<city>
<id>426995</id>
<name>Galena</name>
<state>IL</state>
<rating>7</rating>
<url>http://www.greatschools.org/city/Galena/IL</url>
<lat>42.4227</lat>
<lon>-90.4302</lon>
<active>1</active>
</city>
<city>
<id>426828</id>
<name>Galesburg</name>
<state>IL</state>
<rating>4</rating>
<url>http://www.greatschools.org/city/Galesburg/IL</url>
<lat>40.9502</lat>
<lon>-90.3766</lon>
<active>1</active>
</city>
<city>
<id>426997</id>
<name>Galt</name>
<state>IL</state>
<rating/>
<url>http://www.greatschools.org/city/Galt/IL</url>
<lat>41.7857</lat>
<lon>-89.7598</lon>
<active>1</active>
</city>
<city>
<id>427362</id>
<name>Galva</name>
<state>IL</state>
<rating>5</rating>
<url>http://www.greatschools.org/city/Galva/IL</url>
<lat>41.1692</lat>
<lon>-90.0372</lon>
<active>1</active>
</city>
<city>
<id>427457</id>
<name>Garden Prairie</name>
<state>IL</state>
<rating>8</rating>
<url>http://www.greatschools.org/city/Garden_Prairie/IL</url>
<lat>42.2536</lat>
<lon>-88.7129</lon>
<active>1</active>
</city>
<city>
<id>427361</id>
<name>Gardner</name>
<state>IL</state>
<rating>6</rating>
<url>http://www.greatschools.org/city/Gardner/IL</url>
<lat>41.1949</lat>
<lon>-88.3138</lon>
<active>1</active>
</city>
<city>
<id>427002</id>
<name>Gays</name>
<state>IL</state>
<rating/>
<url>http://www.greatschools.org/city/Gays/IL</url>
<lat>39.4582</lat>
<lon>-88.4963</lon>
<active>1</active>
</city>
<city>
<id>426912</id>
<name>Geneseo</name>
<state>IL</state>
<rating>8</rating>
<url>http://www.greatschools.org/city/Geneseo/IL</url>
<lat>41.45</lat>
<lon>-90.1535</lon>
<active>1</active>
</city>
<city>
<id>426709</id>
<name>Geneva</name>
<state>IL</state>
<rating>9</rating>
<url>http://www.greatschools.org/city/Geneva/IL</url>
<lat>41.8821</lat>
<lon>-88.3293</lon>
<active>1</active>
</city>
<city>
<id>426924</id>
<name>Genoa</name>
<state>IL</state>
<rating>5</rating>
<url>http://www.greatschools.org/city/Genoa/IL</url>
<lat>42.091</lat>
<lon>-88.695</lon>
<active>1</active>
</city>
<city>
<id>426722</id>
<name>Georgetown</name>
<state>IL</state>
<rating>2</rating>
<url>http://www.greatschools.org/city/Georgetown/IL</url>
<lat>39.9695</lat>
<lon>-87.6226</lon>
<active>1</active>
</city>
<city>
<id>427358</id>
<name>Germantown</name>
<state>IL</state>
<rating>9</rating>
<url>http://www.greatschools.org/city/Germantown/IL</url>
<lat>38.5552</lat>
<lon>-89.5405</lon>
<active>1</active>
</city>
<city>
<id>443635</id>
<name>Germantown Hills</name>
<state>IL</state>
<rating>9</rating>
<url>http://www.greatschools.org/city/Germantown_Hills/IL</url>
<lat>40.7716</lat>
<lon>-89.4619</lon>
<active>1</active>
</city>
<city>
<id>427523</id>
<name>Gibson City</name>
<state>IL</state>
<rating>6</rating>
<url>http://www.greatschools.org/city/Gibson_City/IL</url>
<lat>40.4668</lat>
<lon>-88.3789</lon>
<active>1</active>
</city>
<city>
<id>427357</id>
<name>Gifford</name>
<state>IL</state>
<rating>7</rating>
<url>http://www.greatschools.org/city/Gifford/IL</url>
<lat>40.3078</lat>
<lon>-88.0213</lon>
<active>1</active>
</city>
<city>
<id>443633</id>
<name>Gilberts</name>
<state>IL</state>
<rating>6</rating>
<url>http://www.greatschools.org/city/Gilberts/IL</url>
<lat>42.1092</lat>
<lon>-88.3722</lon>
<active>1</active>
</city>
<city>
<id>427356</id>
<name>Gillespie</name>
<state>IL</state>
<rating>6</rating>
<url>http://www.greatschools.org/city/Gillespie/IL</url>
<lat>39.1254</lat>
<lon>-89.8173</lon>
<active>1</active>
</city>
<city>
<id>427318</id>
<name>Gilman</name>
<state>IL</state>
<rating>5</rating>
<url>http://www.greatschools.org/city/Gilman/IL</url>
<lat>40.7723</lat>
<lon>-87.9844</lon>
<active>1</active>
</city>
<city>
<id>427354</id>
<name>Girard</name>
<state>IL</state>
<rating>5</rating>
<url>http://www.greatschools.org/city/Girard/IL</url>
<lat>39.4466</lat>
<lon>-89.782</lon>
<active>1</active>
</city>
<city>
<id>426739</id>
<name>Glen Carbon</name>
<state>IL</state>
<rating>9</rating>
<url>http://www.greatschools.org/city/Glen_Carbon/IL</url>
<lat>38.7582</lat>
<lon>-89.9831</lon>
<active>1</active>
</city>
<city>
<id>426770</id>
<name>Glen Ellyn</name>
<state>IL</state>
<rating>9</rating>
<url>http://www.greatschools.org/city/Glen_Ellyn/IL</url>
<lat>41.8667</lat>
<lon>-88.0627</lon>
<active>1</active>
</city>
<city>
<id>427353</id>
<name>Glencoe</name>
<state>IL</state>
<rating>10</rating>
<url>http://www.greatschools.org/city/Glencoe/IL</url>
<lat>42.1345</lat>
<lon>-87.7632</lon>
<active>1</active>
</city>
<city>
<id>426678</id>
<name>Glendale Heights</name>
<state>IL</state>
<rating>5</rating>
<url>http://www.greatschools.org/city/Glendale_Heights/IL</url>
<lat>41.9189</lat>
<lon>-88.0781</lon>
<active>1</active>
</city>
<city>
<id>426673</id>
<name>Glenview</name>
<state>IL</state>
<rating>9</rating>
<url>http://www.greatschools.org/city/Glenview/IL</url>
<lat>42.0849</lat>
<lon>-87.8269</lon>
<active>1</active>
</city>
<city>
<id>427038</id>
<name>Glenwood</name>
<state>IL</state>
<rating>3</rating>
<url>http://www.greatschools.org/city/Glenwood/IL</url>
<lat>41.5407</lat>
<lon>-87.6111</lon>
<active>1</active>
</city>
<city>
<id>426703</id>
<name>Godfrey</name>
<state>IL</state>
<rating>2</rating>
<url>http://www.greatschools.org/city/Godfrey/IL</url>
<lat>38.9529</lat>
<lon>-90.2225</lon>
<active>1</active>
</city>
<city>
<id>444960</id>
<name>Godley</name>
<state>IL</state>
<rating/>
<url>http://www.greatschools.org/city/Godley/IL</url>
<lat>41.2326</lat>
<lon>-88.2451</lon>
<active>1</active>
</city>
<city>
<id>427189</id>
<name>Golconda</name>
<state>IL</state>
<rating>4</rating>
<url>http://www.greatschools.org/city/Golconda/IL</url>
<lat>37.3621</lat>
<lon>-88.4867</lon>
<active>1</active>
</city>
<city>
<id>426929</id>
<name>Good Hope</name>
<state>IL</state>
<rating/>
<url>http://www.greatschools.org/city/Good_Hope/IL</url>
<lat>40.5575</lat>
<lon>-90.6755</lon>
<active>1</active>
</city>
<city>
<id>427378</id>
<name>Goodfield</name>
<state>IL</state>
<rating/>
<url>http://www.greatschools.org/city/Goodfield/IL</url>
<lat>40.6306</lat>
<lon>-89.2577</lon>
<active>1</active>
</city>
<city>
<id>426904</id>
<name>Goreville</name>
<state>IL</state>
<rating>7</rating>
<url>http://www.greatschools.org/city/Goreville/IL</url>
<lat>37.5511</lat>
<lon>-88.9748</lon>
<active>1</active>
</city>
<city>
<id>427307</id>
<name>Grafton</name>
<state>IL</state>
<rating>9</rating>
<url>http://www.greatschools.org/city/Grafton/IL</url>
<lat>38.9765</lat>
<lon>-90.4259</lon>
<active>1</active>
</city>
<city>
<id>426688</id>
<name>Grand Chain</name>
<state>IL</state>
<rating/>
<url>http://www.greatschools.org/city/Grand_Chain/IL</url>
<lat>37.2524</lat>
<lon>-88.9554</lon>
<active>1</active>
</city>
<city>
<id>427352</id>
<name>Grand Ridge</name>
<state>IL</state>
<rating>7</rating>
<url>http://www.greatschools.org/city/Grand_Ridge/IL</url>
<lat>41.2361</lat>
<lon>-88.831</lon>
<active>1</active>
</city>
<city>
<id>427080</id>
<name>Grand Tower</name>
<state>IL</state>
<rating/>
<url>http://www.greatschools.org/city/Grand_Tower/IL</url>
<lat>37.6417</lat>
<lon>-89.5067</lon>
<active>1</active>
</city>
<city>
<id>426741</id>
<name>Granite City</name>
<state>IL</state>
<rating>3</rating>
<url>http://www.greatschools.org/city/Granite_City/IL</url>
<lat>38.7293</lat>
<lon>-90.1255</lon>
<active>1</active>
</city>
<city>
<id>427350</id>
<name>Grant Park</name>
<state>IL</state>
<rating>8</rating>
<url>http://www.greatschools.org/city/Grant_Park/IL</url>
<lat>41.2427</lat>
<lon>-87.6381</lon>
<active>1</active>
</city>
<city>
<id>427181</id>
<name>Granville</name>
<state>IL</state>
<rating>5</rating>
<url>http://www.greatschools.org/city/Granville/IL</url>
<lat>41.2636</lat>
<lon>-89.2302</lon>
<active>1</active>
</city>
<city>
<id>427162</id>
<name>Graymont</name>
<state>IL</state>
<rating/>
<url>http://www.greatschools.org/city/Graymont/IL</url>
<lat>40.8798</lat>
<lon>-88.771</lon>
<active>1</active>
</city>
<city>
<id>426627</id>
<name>Grayslake</name>
<state>IL</state>
<rating>9</rating>
<url>http://www.greatschools.org/city/Grayslake/IL</url>
<lat>42.3416</lat>
<lon>-88.0279</lon>
<active>1</active>
</city>
<city>
<id>427349</id>
<name>Grayville</name>
<state>IL</state>
<rating>3</rating>
<url>http://www.greatschools.org/city/Grayville/IL</url>
<lat>38.2551</lat>
<lon>-87.9969</lon>
<active>1</active>
</city>
<city>
<id>427512</id>
<name>Great Lakes</name>
<state>IL</state>
<rating>4</rating>
<url>http://www.greatschools.org/city/Great_Lakes/IL</url>
<lat>42.3095</lat>
<lon>-87.8464</lon>
<active>1</active>
</city>
<city>
<id>427074</id>
<name>Green Valley</name>
<state>IL</state>
<rating>3</rating>
<url>http://www.greatschools.org/city/Green_Valley/IL</url>
<lat>40.4073</lat>
<lon>-89.6438</lon>
<active>1</active>
</city>
<city>
<id>427348</id>
<name>Greenfield</name>
<state>IL</state>
<rating>6</rating>
<url>http://www.greatschools.org/city/Greenfield/IL</url>
<lat>39.3445</lat>
<lon>-90.2082</lon>
<active>1</active>
</city>
<city>
<id>442296</id>
<name>Greenup</name>
<state>IL</state>
<rating>4</rating>
<url>http://www.greatschools.org/city/Greenup/IL</url>
<lat>39.2479</lat>
<lon>-88.16</lon>
<active>1</active>
</city>
<city>
<id>427347</id>
<name>Greenview</name>
<state>IL</state>
<rating>3</rating>
<url>http://www.greatschools.org/city/Greenview/IL</url>
<lat>40.085</lat>
<lon>-89.7406</lon>
<active>1</active>
</city>
<city>
<id>427346</id>
<name>Greenville</name>
<state>IL</state>
<rating>6</rating>
<url>http://www.greatschools.org/city/Greenville/IL</url>
<lat>38.8867</lat>
<lon>-89.3895</lon>
<active>1</active>
</city>
<city>
<id>426846</id>
<name>Gridley</name>
<state>IL</state>
<rating>6</rating>
<url>http://www.greatschools.org/city/Gridley/IL</url>
<lat>40.7439</lat>
<lon>-88.8806</lon>
<active>1</active>
</city>
<city>
<id>427343</id>
<name>Griggsville</name>
<state>IL</state>
<rating>4</rating>
<url>http://www.greatschools.org/city/Griggsville/IL</url>
<lat>39.7079</lat>
<lon>-90.7273</lon>
<active>1</active>
</city>
<city>
<id>426923</id>
<name>Gurnee</name>
<state>IL</state>
<rating>7</rating>
<url>http://www.greatschools.org/city/Gurnee/IL</url>
<lat>42.3701</lat>
<lon>-87.9374</lon>
<active>1</active>
</city>
<city>
<id>426944</id>
<name>Hainesville</name>
<state>IL</state>
<rating>9</rating>
<url>http://www.greatschools.org/city/Hainesville/IL</url>
<lat>42.3362</lat>
<lon>-88.0734</lon>
<active>1</active>
</city>
<city>
<id>427390</id>
<name>Hamel</name>
<state>IL</state>
<rating/>
<url>http://www.greatschools.org/city/Hamel/IL</url>
<lat>38.8911</lat>
<lon>-89.8409</lon>
<active>1</active>
</city>
<city>
<id>427342</id>
<name>Hamilton</name>
<state>IL</state>
<rating>4</rating>
<url>http://www.greatschools.org/city/Hamilton/IL</url>
<lat>40.3915</lat>
<lon>-91.3613</lon>
<active>1</active>
</city>
<city>
<id>427044</id>
<name>Hampshire</name>
<state>IL</state>
<rating>7</rating>
<url>http://www.greatschools.org/city/Hampshire/IL</url>
<lat>42.1157</lat>
<lon>-88.5052</lon>
<active>1</active>
</city>
<city>
<id>427341</id>
<name>Hampton</name>
<state>IL</state>
<rating>6</rating>
<url>http://www.greatschools.org/city/Hampton/IL</url>
<lat>41.5557</lat>
<lon>-90.4034</lon>
<active>1</active>
</city>
<city>
<id>442295</id>
<name>Hanna City</name>
<state>IL</state>
<rating/>
<url>http://www.greatschools.org/city/Hanna_City/IL</url>
<lat>40.6932</lat>
<lon>-89.7939</lon>
<active>1</active>
</city>
<city>
<id>426686</id>
<name>Hanover</name>
<state>IL</state>
<rating>7</rating>
<url>http://www.greatschools.org/city/Hanover/IL</url>
<lat>42.2548</lat>
<lon>-90.2709</lon>
<active>1</active>
</city>
<city>
<id>427161</id>
<name>Hanover Park</name>
<state>IL</state>
<rating>6</rating>
<url>http://www.greatschools.org/city/Hanover_Park/IL</url>
<lat>41.9814</lat>
<lon>-88.1425</lon>
<active>1</active>
</city>
<city>
<id>426950</id>
<name>Hardin</name>
<state>IL</state>
<rating>7</rating>
<url>http://www.greatschools.org/city/Hardin/IL</url>
<lat>39.159</lat>
<lon>-90.6234</lon>
<active>1</active>
</city>
<city>
<id>426634</id>
<name>Harrisburg</name>
<state>IL</state>
<rating>3</rating>
<url>http://www.greatschools.org/city/Harrisburg/IL</url>
<lat>37.7377</lat>
<lon>-88.5458</lon>
<active>1</active>
</city>
<city>
<id>426852</id>
<name>Harristown</name>
<state>IL</state>
<rating>4</rating>
<url>http://www.greatschools.org/city/Harristown/IL</url>
<lat>39.843</lat>
<lon>-89.0615</lon>
<active>1</active>
</city>
<city>
<id>427077</id>
<name>Hartford</name>
<state>IL</state>
<rating>6</rating>
<url>http://www.greatschools.org/city/Hartford/IL</url>
<lat>38.8131</lat>
<lon>-90.0921</lon>
<active>1</active>
</city>
<city>
<id>427337</id>
<name>Hartsburg</name>
<state>IL</state>
<rating>3</rating>
<url>http://www.greatschools.org/city/Hartsburg/IL</url>
<lat>40.2507</lat>
<lon>-89.4413</lon>
<active>1</active>
</city>
<city>
<id>427045</id>
<name>Harvard</name>
<state>IL</state>
<rating>3</rating>
<url>http://www.greatschools.org/city/Harvard/IL</url>
<lat>42.4308</lat>
<lon>-88.6185</lon>
<active>1</active>
</city>
<city>
<id>426785</id>
<name>Harvey</name>
<state>IL</state>
<rating>2</rating>
<url>http://www.greatschools.org/city/Harvey/IL</url>
<lat>41.6074</lat>
<lon>-87.6523</lon>
<active>1</active>
</city>
<city>
<id>427107</id>
<name>Harwood Heights</name>
<state>IL</state>
<rating>9</rating>
<url>http://www.greatschools.org/city/Harwood_Heights/IL</url>
<lat>41.9663</lat>
<lon>-87.8056</lon>
<active>1</active>
</city>
<city>
<id>427335</id>
<name>Havana</name>
<state>IL</state>
<rating>6</rating>
<url>http://www.greatschools.org/city/Havana/IL</url>
<lat>40.2951</lat>
<lon>-90.0578</lon>
<active>1</active>
</city>
<city>
<id>444962</id>
<name>Hawthorn Wds</name>
<state>IL</state>
<rating/>
<url>http://www.greatschools.org/city/Hawthorn_Wds/IL</url>
<lat>42.197</lat>
<lon>-88.0935</lon>
<active>1</active>
</city>
<city>
<id>426755</id>
<name>Hawthorn Woods</name>
<state>IL</state>
<rating>10</rating>
<url>http://www.greatschools.org/city/Hawthorn_Woods/IL</url>
<lat>42.2441</lat>
<lon>-88.0657</lon>
<active>1</active>
</city>
<city>
<id>426658</id>
<name>Hazel Crest</name>
<state>IL</state>
<rating>2</rating>
<url>http://www.greatschools.org/city/Hazel_Crest/IL</url>
<lat>41.5742</lat>
<lon>-87.6893</lon>
<active>1</active>
</city>
<city>
<id>427489</id>
<name>Hebron</name>
<state>IL</state>
<rating>6</rating>
<url>http://www.greatschools.org/city/Hebron/IL</url>
<lat>42.4651</lat>
<lon>-88.4343</lon>
<active>1</active>
</city>
<city>
<id>427180</id>
<name>Hennepin</name>
<state>IL</state>
<rating>7</rating>
<url>http://www.greatschools.org/city/Hennepin/IL</url>
<lat>41.2469</lat>
<lon>-89.314</lon>
<active>1</active>
</city>
<city>
<id>427507</id>
<name>Henry</name>
<state>IL</state>
<rating>5</rating>
<url>http://www.greatschools.org/city/Henry/IL</url>
<lat>41.1142</lat>
<lon>-89.3621</lon>
<active>1</active>
</city>
<city>
<id>427495</id>
<name>Herrick</name>
<state>IL</state>
<rating>5</rating>
<url>http://www.greatschools.org/city/Herrick/IL</url>
<lat>39.2196</lat>
<lon>-88.9848</lon>
<active>1</active>
</city>
<city>
<id>426832</id>
<name>Herrin</name>
<state>IL</state>
<rating>4</rating>
<url>http://www.greatschools.org/city/Herrin/IL</url>
<lat>37.7984</lat>
<lon>-89.0306</lon>
<active>1</active>
</city>
<city>
<id>427333</id>
<name>Herscher</name>
<state>IL</state>
<rating>8</rating>
<url>http://www.greatschools.org/city/Herscher/IL</url>
<lat>41.0492</lat>
<lon>-88.1003</lon>
<active>1</active>
</city>
<city>
<id>427331</id>
<name>Heyworth</name>
<state>IL</state>
<rating>6</rating>
<url>http://www.greatschools.org/city/Heyworth/IL</url>
<lat>40.3153</lat>
<lon>-88.9777</lon>
<active>1</active>
</city>
<city>
<id>427064</id>
<name>Hickory Hills</name>
<state>IL</state>
<rating>9</rating>
<url>http://www.greatschools.org/city/Hickory_Hills/IL</url>
<lat>41.7248</lat>
<lon>-87.8281</lon>
<active>1</active>
</city>
<city>
<id>426965</id>
<name>Highland</name>
<state>IL</state>
<rating>7</rating>
<url>http://www.greatschools.org/city/Highland/IL</url>
<lat>38.7702</lat>
<lon>-89.6793</lon>
<active>1</active>
</city>
<city>
<id>426672</id>
<name>Highland Park</name>
<state>IL</state>
<rating>8</rating>
<url>http://www.greatschools.org/city/Highland_Park/IL</url>
<lat>42.1826</lat>
<lon>-87.8096</lon>
<active>1</active>
</city>
<city>
<id>427065</id>
<name>Highwood</name>
<state>IL</state>
<rating>7</rating>
<url>http://www.greatschools.org/city/Highwood/IL</url>
<lat>42.206</lat>
<lon>-87.8129</lon>
<active>1</active>
</city>
<city>
<id>426836</id>
<name>Hillsboro</name>
<state>IL</state>
<rating>6</rating>
<url>http://www.greatschools.org/city/Hillsboro/IL</url>
<lat>39.167</lat>
<lon>-89.4736</lon>
<active>1</active>
</city>
<city>
<id>426879</id>
<name>Hillside</name>
<state>IL</state>
<rating>2</rating>
<url>http://www.greatschools.org/city/Hillside/IL</url>
<lat>41.8675</lat>
<lon>-87.9019</lon>
<active>1</active>
</city>
<city>
<id>427325</id>
<name>Hinckley</name>
<state>IL</state>
<rating>9</rating>
<url>http://www.greatschools.org/city/Hinckley/IL</url>
<lat>41.7714</lat>
<lon>-88.639</lon>
<active>1</active>
</city>
<city>
<id>442294</id>
<name>Hines</name>
<state>IL</state>
<rating/>
<url>http://www.greatschools.org/city/Hines/IL</url>
<lat>41.8644</lat>
<lon>-87.8383</lon>
<active>1</active>
</city>
<city>
<id>427011</id>
<name>Hinsdale</name>
<state>IL</state>
<rating>10</rating>
<url>http://www.greatschools.org/city/Hinsdale/IL</url>
<lat>41.8007</lat>
<lon>-87.9282</lon>
<active>1</active>
</city>
<city>
<id>427290</id>
<name>Hodgkins</name>
<state>IL</state>
<rating>2</rating>
<url>http://www.greatschools.org/city/Hodgkins/IL</url>
<lat>41.7661</lat>
<lon>-87.8619</lon>
<active>1</active>
</city>
<city>
<id>427031</id>
<name>Hoffman</name>
<state>IL</state>
<rating/>
<url>http://www.greatschools.org/city/Hoffman/IL</url>
<lat>38.5405</lat>
<lon>-89.2643</lon>
<active>1</active>
</city>
<city>
<id>444963</id>
<name>Hoffman Est</name>
<state>IL</state>
<rating/>
<url>http://www.greatschools.org/city/Hoffman_Est/IL</url>
<lat>42.0578</lat>
<lon>-88.1145</lon>
<active>1</active>
</city>
<city>
<id>426649</id>
<name>Hoffman Estates</name>
<state>IL</state>
<rating>8</rating>
<url>http://www.greatschools.org/city/Hoffman_Estates/IL</url>
<lat>42.0652</lat>
<lon>-88.153</lon>
<active>1</active>
</city>
<city>
<id>427514</id>
<name>Homer</name>
<state>IL</state>
<rating>7</rating>
<url>http://www.greatschools.org/city/Homer/IL</url>
<lat>40.033</lat>
<lon>-87.9578</lon>
<active>1</active>
</city>
<city>
<id>426890</id>
<name>Homer Glen</name>
<state>IL</state>
<rating>8</rating>
<url>http://www.greatschools.org/city/Homer_Glen/IL</url>
<lat>41.6052</lat>
<lon>-87.9524</lon>
<active>1</active>
</city>
<city>
<id>427067</id>
<name>Hometown</name>
<state>IL</state>
<rating>6</rating>
<url>http://www.greatschools.org/city/Hometown/IL</url>
<lat>41.7312</lat>
<lon>-87.7311</lon>
<active>1</active>
</city>
<city>
<id>426654</id>
<name>Homewood</name>
<state>IL</state>
<rating>7</rating>
<url>http://www.greatschools.org/city/Homewood/IL</url>
<lat>41.5594</lat>
<lon>-87.662</lon>
<active>1</active>
</city>
<city>
<id>427324</id>
<name>Hoopeston</name>
<state>IL</state>
<rating>4</rating>
<url>http://www.greatschools.org/city/Hoopeston/IL</url>
<lat>40.4608</lat>
<lon>-87.6636</lon>
<active>1</active>
</city>
<city>
<id>442293</id>
<name>Hopedale</name>
<state>IL</state>
<rating/>
<url>http://www.greatschools.org/city/Hopedale/IL</url>
<lat>40.4225</lat>
<lon>-89.4209</lon>
<active>1</active>
</city>
<city>
<id>427028</id>
<name>Hoyleton</name>
<state>IL</state>
<rating/>
<url>http://www.greatschools.org/city/Hoyleton/IL</url>
<lat>38.4459</lat>
<lon>-89.2722</lon>
<active>1</active>
</city>
<city>
<id>427231</id>
<name>Hudson</name>
<state>IL</state>
<rating>7</rating>
<url>http://www.greatschools.org/city/Hudson/IL</url>
<lat>40.6052</lat>
<lon>-88.989</lon>
<active>1</active>
</city>
<city>
<id>445919</id>
<name>Humboldt</name>
<state>IL</state>
<rating/>
<url>http://www.greatschools.org/city/Humboldt/IL</url>
<lat>39.6042</lat>
<lon>-88.3189</lon>
<active>1</active>
</city>
<city>
<id>427504</id>
<name>Hume</name>
<state>IL</state>
<rating>4</rating>
<url>http://www.greatschools.org/city/Hume/IL</url>
<lat>39.7985</lat>
<lon>-87.8692</lon>
<active>1</active>
</city>
<city>
<id>426964</id>
<name>Huntley</name>
<state>IL</state>
<rating>9</rating>
<url>http://www.greatschools.org/city/Huntley/IL</url>
<lat>42.1602</lat>
<lon>-88.4365</lon>
<active>1</active>
</city>
<city>
<id>427323</id>
<name>Hutsonville</name>
<state>IL</state>
<rating>3</rating>
<url>http://www.greatschools.org/city/Hutsonville/IL</url>
<lat>39.1083</lat>
<lon>-87.6608</lon>
<active>1</active>
</city>
<city>
<id>427168</id>
<name>Illinois City</name>
<state>IL</state>
<rating>6</rating>
<url>http://www.greatschools.org/city/Illinois_City/IL</url>
<lat>41.3863</lat>
<lon>-90.9258</lon>
<active>1</active>
</city>
<city>
<id>426851</id>
<name>Illiopolis</name>
<state>IL</state>
<rating>7</rating>
<url>http://www.greatschools.org/city/Illiopolis/IL</url>
<lat>39.8514</lat>
<lon>-89.2477</lon>
<active>1</active>
</city>
<city>
<id>426763</id>
<name>Ina</name>
<state>IL</state>
<rating>4</rating>
<url>http://www.greatschools.org/city/Ina/IL</url>
<lat>38.1495</lat>
<lon>-88.904</lon>
<active>1</active>
</city>
<city>
<id>426968</id>
<name>Ingleside</name>
<state>IL</state>
<rating>4</rating>
<url>http://www.greatschools.org/city/Ingleside/IL</url>
<lat>42.3673</lat>
<lon>-88.1539</lon>
<active>1</active>
</city>
<city>
<id>426800</id>
<name>Inverness</name>
<state>IL</state>
<rating/>
<url>http://www.greatschools.org/city/Inverness/IL</url>
<lat>42.1151</lat>
<lon>-88.1009</lon>
<active>1</active>
</city>
<city>
<id>427316</id>
<name>Irvington</name>
<state>IL</state>
<rating>1</rating>
<url>http://www.greatschools.org/city/Irvington/IL</url>
<lat>38.4384</lat>
<lon>-89.1603</lon>
<active>1</active>
</city>
<city>
<id>427096</id>
<name>Island Lake</name>
<state>IL</state>
<rating>6</rating>
<url>http://www.greatschools.org/city/Island_Lake/IL</url>
<lat>42.2793</lat>
<lon>-88.1991</lon>
<active>1</active>
</city>
<city>
<id>426771</id>
<name>Itasca</name>
<state>IL</state>
<rating>9</rating>
<url>http://www.greatschools.org/city/Itasca/IL</url>
<lat>41.9766</lat>
<lon>-88.0188</lon>
<active>1</active>
</city>
<city>
<id>427315</id>
<name>Iuka</name>
<state>IL</state>
<rating>6</rating>
<url>http://www.greatschools.org/city/Iuka/IL</url>
<lat>38.6188</lat>
<lon>-88.7882</lon>
<active>1</active>
</city>
<city>
<id>426731</id>
<name>Jacksonville</name>
<state>IL</state>
<rating>5</rating>
<url>http://www.greatschools.org/city/Jacksonville/IL</url>
<lat>39.7292</lat>
<lon>-90.2322</lon>
<active>1</active>
</city>
<city>
<id>427027</id>
<name>Jacob</name>
<state>IL</state>
<rating/>
<url>http://www.greatschools.org/city/Jacob/IL</url>
<lat>37.7504</lat>
<lon>-89.5541</lon>
<active>1</active>
</city>
<city>
<id>426622</id>
<name>Jerseyville</name>
<state>IL</state>
<rating>6</rating>
<url>http://www.greatschools.org/city/Jerseyville/IL</url>
<lat>39.1177</lat>
<lon>-90.327</lon>
<active>1</active>
</city>
<city>
<id>427306</id>
<name>Johnsburg</name>
<state>IL</state>
<rating>7</rating>
<url>http://www.greatschools.org/city/Johnsburg/IL</url>
<lat>42.3849</lat>
<lon>-88.2467</lon>
<active>1</active>
</city>
<city>
<id>427427</id>
<name>Johnsonville</name>
<state>IL</state>
<rating/>
<url>http://www.greatschools.org/city/Johnsonville/IL</url>
<lat>38.5208</lat>
<lon>-88.5383</lon>
<active>1</active>
</city>
<city>
<id>427303</id>
<name>Johnston City</name>
<state>IL</state>
<rating>5</rating>
<url>http://www.greatschools.org/city/Johnston_City/IL</url>
<lat>37.821</lat>
<lon>-88.9293</lon>
<active>1</active>
</city>
<city>
<id>426610</id>
<name>Joliet</name>
<state>IL</state>
<rating>4</rating>
<url>http://www.greatschools.org/city/Joliet/IL</url>
<lat>41.5181</lat>
<lon>-88.1584</lon>
<active>1</active>
</city>
<city>
<id>427302</id>
<name>Jonesboro</name>
<state>IL</state>
<rating>5</rating>
<url>http://www.greatschools.org/city/Jonesboro/IL</url>
<lat>37.451</lat>
<lon>-89.2669</lon>
<active>1</active>
</city>
<city>
<id>426902</id>
<name>Joppa</name>
<state>IL</state>
<rating>7</rating>
<url>http://www.greatschools.org/city/Joppa/IL</url>
<lat>37.2093</lat>
<lon>-88.847</lon>
<active>1</active>
</city>
<city>
<id>427088</id>
<name>Joy</name>
<state>IL</state>
<rating>4</rating>
<url>http://www.greatschools.org/city/Joy/IL</url>
<lat>41.1969</lat>
<lon>-90.8788</lon>
<active>1</active>
</city>
<city>
<id>427522</id>
<name>Junction</name>
<state>IL</state>
<rating>3</rating>
<url>http://www.greatschools.org/city/Junction/IL</url>
<lat>37.721</lat>
<lon>-88.2434</lon>
<active>1</active>
</city>
<city>
<id>426927</id>
<name>Justice</name>
<state>IL</state>
<rating>3</rating>
<url>http://www.greatschools.org/city/Justice/IL</url>
<lat>41.7534</lat>
<lon>-87.8269</lon>
<active>1</active>
</city>
<city>
<id>442292</id>
<name>Kaneville</name>
<state>IL</state>
<rating/>
<url>http://www.greatschools.org/city/Kaneville/IL</url>
<lat>41.8336</lat>
<lon>-88.5217</lon>
<active>1</active>
</city>
<city>
<id>426756</id>
<name>Kankakee</name>
<state>IL</state>
<rating>3</rating>
<url>http://www.greatschools.org/city/Kankakee/IL</url>
<lat>41.1032</lat>
<lon>-87.8672</lon>
<active>1</active>
</city>
<city>
<id>427300</id>
<name>Kansas</name>
<state>IL</state>
<rating>5</rating>
<url>http://www.greatschools.org/city/Kansas/IL</url>
<lat>39.5544</lat>
<lon>-87.9394</lon>
<active>1</active>
</city>
<city>
<id>426981</id>
<name>Keenes</name>
<state>IL</state>
<rating/>
<url>http://www.greatschools.org/city/Keenes/IL</url>
<lat>38.3386</lat>
<lon>-88.6419</lon>
<active>1</active>
</city>
<city>
<id>427299</id>
<name>Kell</name>
<state>IL</state>
<rating>4</rating>
<url>http://www.greatschools.org/city/Kell/IL</url>
<lat>38.4949</lat>
<lon>-88.8988</lon>
<active>1</active>
</city>
<city>
<id>427110</id>
<name>Kempton</name>
<state>IL</state>
<rating/>
<url>http://www.greatschools.org/city/Kempton/IL</url>
<lat>40.9354</lat>
<lon>-88.2354</lon>
<active>1</active>
</city>
<city>
<id>427298</id>
<name>Kenilworth</name>
<state>IL</state>
<rating>10</rating>
<url>http://www.greatschools.org/city/Kenilworth/IL</url>
<lat>42.0888</lat>
<lon>-87.7145</lon>
<active>1</active>
</city>
<city>
<id>426858</id>
<name>Kewanee</name>
<state>IL</state>
<rating>4</rating>
<url>http://www.greatschools.org/city/Kewanee/IL</url>
<lat>41.2391</lat>
<lon>-89.9257</lon>
<active>1</active>
</city>
<city>
<id>427144</id>
<name>Kincaid</name>
<state>IL</state>
<rating>3</rating>
<url>http://www.greatschools.org/city/Kincaid/IL</url>
<lat>39.5868</lat>
<lon>-89.4165</lon>
<active>1</active>
</city>
<city>
<id>427297</id>
<name>Kinderhook</name>
<state>IL</state>
<rating>3</rating>
<url>http://www.greatschools.org/city/Kinderhook/IL</url>
<lat>39.7037</lat>
<lon>-91.1517</lon>
<active>1</active>
</city>
<city>
<id>427359</id>
<name>Kingston</name>
<state>IL</state>
<rating/>
<url>http://www.greatschools.org/city/Kingston/IL</url>
<lat>42.1011</lat>
<lon>-88.7632</lon>
<active>1</active>
</city>
<city>
<id>427508</id>
<name>Kinmundy</name>
<state>IL</state>
<rating>3</rating>
<url>http://www.greatschools.org/city/Kinmundy/IL</url>
<lat>38.7721</lat>
<lon>-88.8534</lon>
<active>1</active>
</city>
<city>
<id>427294</id>
<name>Kirkland</name>
<state>IL</state>
<rating>5</rating>
<url>http://www.greatschools.org/city/Kirkland/IL</url>
<lat>42.0902</lat>
<lon>-88.8486</lon>
<active>1</active>
</city>
<city>
<id>427293</id>
<name>Knoxville</name>
<state>IL</state>
<rating>6</rating>
<url>http://www.greatschools.org/city/Knoxville/IL</url>
<lat>40.9072</lat>
<lon>-90.2857</lon>
<active>1</active>
</city>
<city>
<id>427026</id>
<name>La Grange</name>
<state>IL</state>
<rating>10</rating>
<url>http://www.greatschools.org/city/La_Grange/IL</url>
<lat>41.8072</lat>
<lon>-87.8741</lon>
<active>1</active>
</city>
<city>
<id>443877</id>
<name>La Grange Highlands</name>
<state>IL</state>
<rating>10</rating>
<url>http://www.greatschools.org/city/La_Grange_Highlands/IL</url>
<lat>41.7724</lat>
<lon>-87.8873</lon>
<active>1</active>
</city>
<city>
<id>427066</id>
<name>La Grange Park</name>
<state>IL</state>
<rating>8</rating>
<url>http://www.greatschools.org/city/La_Grange_Park/IL</url>
<lat>41.8308</lat>
<lon>-87.8723</lon>
<active>1</active>
</city>
<city>
<id>427286</id>
<name>La Harpe</name>
<state>IL</state>
<rating>5</rating>
<url>http://www.greatschools.org/city/La_Harpe/IL</url>
<lat>40.5848</lat>
<lon>-90.9696</lon>
<active>1</active>
</city>
<city>
<id>427287</id>
<name>La Moille</name>
<state>IL</state>
<rating>5</rating>
<url>http://www.greatschools.org/city/La_Moille/IL</url>
<lat>41.5302</lat>
<lon>-89.2833</lon>
<active>1</active>
</city>
<city>
<id>427496</id>
<name>Lacon</name>
<state>IL</state>
<rating>7</rating>
<url>http://www.greatschools.org/city/Lacon/IL</url>
<lat>41.0229</lat>
<lon>-89.4063</lon>
<active>1</active>
</city>
<city>
<id>427291</id>
<name>Ladd</name>
<state>IL</state>
<rating>7</rating>
<url>http://www.greatschools.org/city/Ladd/IL</url>
<lat>41.3815</lat>
<lon>-89.2144</lon>
<active>1</active>
</city>
<city>
<id>444964</id>
<name>Lake Barrington</name>
<state>IL</state>
<rating/>
<url>http://www.greatschools.org/city/Lake_Barrington/IL</url>
<lat>42.1848</lat>
<lon>-88.1863</lon>
<active>1</active>
</city>
<city>
<id>426753</id>
<name>Lake Bluff</name>
<state>IL</state>
<rating>9</rating>
<url>http://www.greatschools.org/city/Lake_Bluff/IL</url>
<lat>42.2827</lat>
<lon>-87.8523</lon>
<active>1</active>
</city>
<city>
<id>426713</id>
<name>Lake Forest</name>
<state>IL</state>
<rating>9</rating>
<url>http://www.greatschools.org/city/Lake_Forest/IL</url>
<lat>42.2379</lat>
<lon>-87.8589</lon>
<active>1</active>
</city>
<city>
<id>426844</id>
<name>Lake in the Hills</name>
<state>IL</state>
<rating>8</rating>
<url>http://www.greatschools.org/city/Lake_in_the_Hills/IL</url>
<lat>42.1795</lat>
<lon>-88.3157</lon>
<active>1</active>
</city>
<city>
<id>426746</id>
<name>Lake Villa</name>
<state>IL</state>
<rating>8</rating>
<url>http://www.greatschools.org/city/Lake_Villa/IL</url>
<lat>42.4176</lat>
<lon>-88.0826</lon>
<active>1</active>
</city>
<city>
<id>426749</id>
<name>Lake Zurich</name>
<state>IL</state>
<rating>10</rating>
<url>http://www.greatschools.org/city/Lake_Zurich/IL</url>
<lat>42.1949</lat>
<lon>-88.0878</lon>
<active>1</active>
</city>
<city>
<id>427524</id>
<name>Lanark</name>
<state>IL</state>
<rating>7</rating>
<url>http://www.greatschools.org/city/Lanark/IL</url>
<lat>42.1019</lat>
<lon>-89.8328</lon>
<active>1</active>
</city>
<city>
<id>427009</id>
<name>Lansing</name>
<state>IL</state>
<rating>4</rating>
<url>http://www.greatschools.org/city/Lansing/IL</url>
<lat>41.5675</lat>
<lon>-87.5475</lon>
<active>1</active>
</city>
<city>
<id>444965</id>
<name>LaSalle</name>
<state>IL</state>
<rating>5</rating>
<url>http://www.greatschools.org/city/LaSalle/IL</url>
<lat>41.3704</lat>
<lon>-89.0947</lon>
<active>1</active>
</city>
<city>
<id>426909</id>
<name>Lawrenceville</name>
<state>IL</state>
<rating>3</rating>
<url>http://www.greatschools.org/city/Lawrenceville/IL</url>
<lat>38.7263</lat>
<lon>-87.6874</lon>
<active>1</active>
</city>
<city>
<id>427277</id>
<name>Le Roy</name>
<state>IL</state>
<rating>7</rating>
<url>http://www.greatschools.org/city/Le_Roy/IL</url>
<lat>40.3387</lat>
<lon>-88.7632</lon>
<active>1</active>
</city>
<city>
<id>427283</id>
<name>Lebanon</name>
<state>IL</state>
<rating>5</rating>
<url>http://www.greatschools.org/city/Lebanon/IL</url>
<lat>38.6025</lat>
<lon>-89.813</lon>
<active>1</active>
</city>
<city>
<id>427273</id>
<name>Leland</name>
<state>IL</state>
<rating>7</rating>
<url>http://www.greatschools.org/city/Leland/IL</url>
<lat>41.616</lat>
<lon>-88.7983</lon>
<active>1</active>
</city>
<city>
<id>426926</id>
<name>Lemont</name>
<state>IL</state>
<rating>9</rating>
<url>http://www.greatschools.org/city/Lemont/IL</url>
<lat>41.6673</lat>
<lon>-87.9844</lon>
<active>1</active>
</city>
<city>
<id>427279</id>
<name>Lena</name>
<state>IL</state>
<rating>7</rating>
<url>http://www.greatschools.org/city/Lena/IL</url>
<lat>42.3784</lat>
<lon>-89.8214</lon>
<active>1</active>
</city>
<city>
<id>426831</id>
<name>Lewistown</name>
<state>IL</state>
<rating>3</rating>
<url>http://www.greatschools.org/city/Lewistown/IL</url>
<lat>40.3969</lat>
<lon>-90.1555</lon>
<active>1</active>
</city>
<city>
<id>427276</id>
<name>Lexington</name>
<state>IL</state>
<rating>7</rating>
<url>http://www.greatschools.org/city/Lexington/IL</url>
<lat>40.6403</lat>
<lon>-88.7806</lon>
<active>1</active>
</city>
<city>
<id>427275</id>
<name>Liberty</name>
<state>IL</state>
<rating>5</rating>
<url>http://www.greatschools.org/city/Liberty/IL</url>
<lat>39.8795</lat>
<lon>-91.1067</lon>
<active>1</active>
</city>
<city>
<id>426671</id>
<name>Libertyville</name>
<state>IL</state>
<rating>10</rating>
<url>http://www.greatschools.org/city/Libertyville/IL</url>
<lat>42.2861</lat>
<lon>-87.9642</lon>
<active>1</active>
</city>
<city>
<id>426826</id>
<name>Lincoln</name>
<state>IL</state>
<rating>5</rating>
<url>http://www.greatschools.org/city/Lincoln/IL</url>
<lat>40.1507</lat>
<lon>-89.3719</lon>
<active>1</active>
</city>
<city>
<id>427187</id>
<name>Lincolnshire</name>
<state>IL</state>
<rating>10</rating>
<url>http://www.greatschools.org/city/Lincolnshire/IL</url>
<lat>42.1965</lat>
<lon>-87.9177</lon>
<active>1</active>
</city>
<city>
<id>427272</id>
<name>Lincolnwood</name>
<state>IL</state>
<rating>8</rating>
<url>http://www.greatschools.org/city/Lincolnwood/IL</url>
<lat>42.0054</lat>
<lon>-87.733</lon>
<active>1</active>
</city>
<city>
<id>426628</id>
<name>Lindenhurst</name>
<state>IL</state>
<rating>8</rating>
<url>http://www.greatschools.org/city/Lindenhurst/IL</url>
<lat>42.4171</lat>
<lon>-88.0264</lon>
<active>1</active>
</city>
<city>
<id>427380</id>
<name>Lindenwood</name>
<state>IL</state>
<rating>6</rating>
<url>http://www.greatschools.org/city/Lindenwood/IL</url>
<lat>42.0429</lat>
<lon>-89.0088</lon>
<active>1</active>
</city>
<city>
<id>426639</id>
<name>Lisle</name>
<state>IL</state>
<rating>9</rating>
<url>http://www.greatschools.org/city/Lisle/IL</url>
<lat>41.7921</lat>
<lon>-88.0877</lon>
<active>1</active>
</city>
<city>
<id>427034</id>
<name>Litchfield</name>
<state>IL</state>
<rating>4</rating>
<url>http://www.greatschools.org/city/Litchfield/IL</url>
<lat>39.1771</lat>
<lon>-89.6436</lon>
<active>1</active>
</city>
<city>
<id>426850</id>
<name>Livingston</name>
<state>IL</state>
<rating/>
<url>http://www.greatschools.org/city/Livingston/IL</url>
<lat>38.9684</lat>
<lon>-89.7646</lon>
<active>1</active>
</city>
<city>
<id>444966</id>
<name>Lk In The Hil</name>
<state>IL</state>
<rating/>
<url>http://www.greatschools.org/city/Lk_In_The_Hil/IL</url>
<lat>42.1896</lat>
<lon>-88.3288</lon>
<active>1</active>
</city>
<city>
<id>426718</id>
<name>Lockport</name>
<state>IL</state>
<rating>7</rating>
<url>http://www.greatschools.org/city/Lockport/IL</url>
<lat>41.5897</lat>
<lon>-88.0291</lon>
<active>1</active>
</city>
<city>
<id>426679</id>
<name>Lombard</name>
<state>IL</state>
<rating>7</rating>
<url>http://www.greatschools.org/city/Lombard/IL</url>
<lat>41.8738</lat>
<lon>-88.0155</lon>
<active>1</active>
</city>
<city>
<id>427139</id>
<name>London Mills</name>
<state>IL</state>
<rating>7</rating>
<url>http://www.greatschools.org/city/London_Mills/IL</url>
<lat>40.7106</lat>
<lon>-90.2662</lon>
<active>1</active>
</city>
<city>
<id>426750</id>
<name>Long Grove</name>
<state>IL</state>
<rating>10</rating>
<url>http://www.greatschools.org/city/Long_Grove/IL</url>
<lat>42.1949</lat>
<lon>-88.0103</lon>
<active>1</active>
</city>
<city>
<id>427506</id>
<name>Lostant</name>
<state>IL</state>
<rating>3</rating>
<url>http://www.greatschools.org/city/Lostant/IL</url>
<lat>41.1402</lat>
<lon>-89.0614</lon>
