<?xml version="1.0" encoding="utf-8"?><greatschools-city-feed xmlns:xsi="http://www.w3.org/2001/XMLSchema-instance" xsi:noNamespaceSchemaLocation="http://www.greatschools.org/feeds/greatschools-city2.xsd">
<city>
<id>441421</id>
<name>Abbeville</name>
<state>AL</state>
<rating>3</rating>
<url>http://www.greatschools.org/city/Abbeville/AL</url>
<lat>31.5631</lat>
<lon>-85.2524</lon>
<active>1</active>
</city>
<city>
<id>441456</id>
<name>Adamsville</name>
<state>AL</state>
<rating>3</rating>
<url>http://www.greatschools.org/city/Adamsville/AL</url>
<lat>33.5928</lat>
<lon>-86.9554</lon>
<active>1</active>
</city>
<city>
<id>441541</id>
<name>Addison</name>
<state>AL</state>
<rating>6</rating>
<url>http://www.greatschools.org/city/Addison/AL</url>
<lat>34.2011</lat>
<lon>-87.1794</lon>
<active>1</active>
</city>
<city>
<id>441714</id>
<name>Akron</name>
<state>AL</state>
<rating/>
<url>http://www.greatschools.org/city/Akron/AL</url>
<lat>32.8765</lat>
<lon>-87.7404</lon>
<active>1</active>
</city>
<city>
<id>441542</id>
<name>Alabaster</name>
<state>AL</state>
<rating>6</rating>
<url>http://www.greatschools.org/city/Alabaster/AL</url>
<lat>33.2344</lat>
<lon>-86.8275</lon>
<active>1</active>
</city>
<city>
<id>441597</id>
<name>Alberta</name>
<state>AL</state>
<rating>2</rating>
<url>http://www.greatschools.org/city/Alberta/AL</url>
<lat>32.1493</lat>
<lon>-87.3447</lon>
<active>1</active>
</city>
<city>
<id>441809</id>
<name>Albertville</name>
<state>AL</state>
<rating>6</rating>
<url>http://www.greatschools.org/city/Albertville/AL</url>
<lat>34.2637</lat>
<lon>-86.2075</lon>
<active>1</active>
</city>
<city>
<id>441559</id>
<name>Alexander City</name>
<state>AL</state>
<rating>6</rating>
<url>http://www.greatschools.org/city/Alexander_City/AL</url>
<lat>32.9306</lat>
<lon>-85.9394</lon>
<active>1</active>
</city>
<city>
<id>441784</id>
<name>Alexandria</name>
<state>AL</state>
<rating>7</rating>
<url>http://www.greatschools.org/city/Alexandria/AL</url>
<lat>33.7664</lat>
<lon>-85.8793</lon>
<active>1</active>
</city>
<city>
<id>441641</id>
<name>Aliceville</name>
<state>AL</state>
<rating>3</rating>
<url>http://www.greatschools.org/city/Aliceville/AL</url>
<lat>33.1311</lat>
<lon>-88.1537</lon>
<active>1</active>
</city>
<city>
<id>444683</id>
<name>Allgood</name>
<state>AL</state>
<rating/>
<url>http://www.greatschools.org/city/Allgood/AL</url>
<lat>33.9136</lat>
<lon>-86.5091</lon>
<active>1</active>
</city>
<city>
<id>441623</id>
<name>Alpine</name>
<state>AL</state>
<rating>4</rating>
<url>http://www.greatschools.org/city/Alpine/AL</url>
<lat>33.3543</lat>
<lon>-86.2552</lon>
<active>1</active>
</city>
<city>
<id>441729</id>
<name>Altoona</name>
<state>AL</state>
<rating>5</rating>
<url>http://www.greatschools.org/city/Altoona/AL</url>
<lat>34.0301</lat>
<lon>-86.3215</lon>
<active>1</active>
</city>
<city>
<id>441425</id>
<name>Andalusia</name>
<state>AL</state>
<rating>7</rating>
<url>http://www.greatschools.org/city/Andalusia/AL</url>
<lat>31.3083</lat>
<lon>-86.4815</lon>
<active>1</active>
</city>
<city>
<id>441686</id>
<name>Anderson</name>
<state>AL</state>
<rating>7</rating>
<url>http://www.greatschools.org/city/Anderson/AL</url>
<lat>34.9149</lat>
<lon>-87.271</lon>
<active>1</active>
</city>
<city>
<id>441434</id>
<name>Anniston</name>
<state>AL</state>
<rating>6</rating>
<url>http://www.greatschools.org/city/Anniston/AL</url>
<lat>33.661</lat>
<lon>-85.8183</lon>
<active>1</active>
</city>
<city>
<id>441806</id>
<name>Arab</name>
<state>AL</state>
<rating>8</rating>
<url>http://www.greatschools.org/city/Arab/AL</url>
<lat>34.3274</lat>
<lon>-86.4994</lon>
<active>1</active>
</city>
<city>
<id>441488</id>
<name>Ardmore</name>
<state>AL</state>
<rating>7</rating>
<url>http://www.greatschools.org/city/Ardmore/AL</url>
<lat>34.9852</lat>
<lon>-86.8394</lon>
<active>1</active>
</city>
<city>
<id>441753</id>
<name>Ariton</name>
<state>AL</state>
<rating>7</rating>
<url>http://www.greatschools.org/city/Ariton/AL</url>
<lat>31.5983</lat>
<lon>-85.7148</lon>
<active>1</active>
</city>
<city>
<id>441538</id>
<name>Arley</name>
<state>AL</state>
<rating>6</rating>
<url>http://www.greatschools.org/city/Arley/AL</url>
<lat>34.0889</lat>
<lon>-87.2088</lon>
<active>1</active>
</city>
<city>
<id>441565</id>
<name>Arlington</name>
<state>AL</state>
<rating/>
<url>http://www.greatschools.org/city/Arlington/AL</url>
<lat>32.0761</lat>
<lon>-87.5803</lon>
<active>1</active>
</city>
<city>
<id>441580</id>
<name>Ashford</name>
<state>AL</state>
<rating>6</rating>
<url>http://www.greatschools.org/city/Ashford/AL</url>
<lat>31.1844</lat>
<lon>-85.2353</lon>
<active>1</active>
</city>
<city>
<id>441560</id>
<name>Ashland</name>
<state>AL</state>
<rating>4</rating>
<url>http://www.greatschools.org/city/Ashland/AL</url>
<lat>33.2734</lat>
<lon>-85.8353</lon>
<active>1</active>
</city>
<city>
<id>441508</id>
<name>Ashville</name>
<state>AL</state>
<rating>6</rating>
<url>http://www.greatschools.org/city/Ashville/AL</url>
<lat>33.8334</lat>
<lon>-86.261</lon>
<active>1</active>
</city>
<city>
<id>441476</id>
<name>Athens</name>
<state>AL</state>
<rating>6</rating>
<url>http://www.greatschools.org/city/Athens/AL</url>
<lat>34.7964</lat>
<lon>-86.967</lon>
<active>1</active>
</city>
<city>
<id>441528</id>
<name>Atmore</name>
<state>AL</state>
<rating>3</rating>
<url>http://www.greatschools.org/city/Atmore/AL</url>
<lat>31.0239</lat>
<lon>-87.489</lon>
<active>1</active>
</city>
<city>
<id>441471</id>
<name>Attalla</name>
<state>AL</state>
<rating>5</rating>
<url>http://www.greatschools.org/city/Attalla/AL</url>
<lat>33.9911</lat>
<lon>-86.1051</lon>
<active>1</active>
</city>
<city>
<id>445945</id>
<name>Attlla</name>
<state>AL</state>
<rating/>
<url>http://www.greatschools.org/city/Attlla/AL</url>
<lat>33.9963</lat>
<lon>-86.1049</lon>
<active>1</active>
</city>
<city>
<id>441469</id>
<name>Auburn</name>
<state>AL</state>
<rating>8</rating>
<url>http://www.greatschools.org/city/Auburn/AL</url>
<lat>32.6024</lat>
<lon>-85.4817</lon>
<active>1</active>
</city>
<city>
<id>441552</id>
<name>Autaugaville</name>
<state>AL</state>
<rating>3</rating>
<url>http://www.greatschools.org/city/Autaugaville/AL</url>
<lat>32.435</lat>
<lon>-86.6574</lon>
<active>1</active>
</city>
<city>
<id>441758</id>
<name>Baileyton</name>
<state>AL</state>
<rating>8</rating>
<url>http://www.greatschools.org/city/Baileyton/AL</url>
<lat>34.2628</lat>
<lon>-86.6093</lon>
<active>1</active>
</city>
<city>
<id>441638</id>
<name>Banks</name>
<state>AL</state>
<rating>7</rating>
<url>http://www.greatschools.org/city/Banks/AL</url>
<lat>31.8156</lat>
<lon>-85.841</lon>
<active>1</active>
</city>
<city>
<id>441454</id>
<name>Bay Minette</name>
<state>AL</state>
<rating>5</rating>
<url>http://www.greatschools.org/city/Bay_Minette/AL</url>
<lat>30.8805</lat>
<lon>-87.7769</lon>
<active>1</active>
</city>
<city>
<id>441660</id>
<name>Bayou La Batre</name>
<state>AL</state>
<rating>7</rating>
<url>http://www.greatschools.org/city/Bayou_La_Batre/AL</url>
<lat>30.4039</lat>
<lon>-88.2461</lon>
<active>1</active>
</city>
<city>
<id>441543</id>
<name>Bear Creek</name>
<state>AL</state>
<rating>6</rating>
<url>http://www.greatschools.org/city/Bear_Creek/AL</url>
<lat>34.2702</lat>
<lon>-87.7086</lon>
<active>1</active>
</city>
<city>
<id>441655</id>
<name>Beatrice</name>
<state>AL</state>
<rating>5</rating>
<url>http://www.greatschools.org/city/Beatrice/AL</url>
<lat>31.7319</lat>
<lon>-87.206</lon>
<active>1</active>
</city>
<city>
<id>442001</id>
<name>Bellamy</name>
<state>AL</state>
<rating/>
<url>http://www.greatschools.org/city/Bellamy/AL</url>
<lat>32.4826</lat>
<lon>-88.2649</lon>
<active>1</active>
</city>
<city>
<id>441465</id>
<name>Berry</name>
<state>AL</state>
<rating>5</rating>
<url>http://www.greatschools.org/city/Berry/AL</url>
<lat>33.6586</lat>
<lon>-87.6063</lon>
<active>1</active>
</city>
<city>
<id>441463</id>
<name>Bessemer</name>
<state>AL</state>
<rating>4</rating>
<url>http://www.greatschools.org/city/Bessemer/AL</url>
<lat>33.3907</lat>
<lon>-86.9575</lon>
<active>1</active>
</city>
<city>
<id>444368</id>
<name>Big Cove</name>
<state>AL</state>
<rating>9</rating>
<url>http://www.greatschools.org/city/Big_Cove/AL</url>
<lat>34.641</lat>
<lon>-86.4843</lon>
<active>1</active>
</city>
<city>
<id>441805</id>
<name>Billingsley</name>
<state>AL</state>
<rating>7</rating>
<url>http://www.greatschools.org/city/Billingsley/AL</url>
<lat>32.6621</lat>
<lon>-86.7104</lon>
<active>1</active>
</city>
<city>
<id>441412</id>
<name>Birmingham</name>
<state>AL</state>
<rating>4</rating>
<url>http://www.greatschools.org/city/Birmingham/AL</url>
<lat>33.5268</lat>
<lon>-86.8046</lon>
<active>1</active>
</city>
<city>
<id>441496</id>
<name>Blountsville</name>
<state>AL</state>
<rating>5</rating>
<url>http://www.greatschools.org/city/Blountsville/AL</url>
<lat>34.0814</lat>
<lon>-86.5891</lon>
<active>1</active>
</city>
<city>
<id>441437</id>
<name>Boaz</name>
<state>AL</state>
<rating>7</rating>
<url>http://www.greatschools.org/city/Boaz/AL</url>
<lat>34.2031</lat>
<lon>-86.1616</lon>
<active>1</active>
</city>
<city>
<id>441717</id>
<name>Boligee</name>
<state>AL</state>
<rating>3</rating>
<url>http://www.greatschools.org/city/Boligee/AL</url>
<lat>32.7698</lat>
<lon>-88.0265</lon>
<active>1</active>
</city>
<city>
<id>441800</id>
<name>Bon Secour</name>
<state>AL</state>
<rating>7</rating>
<url>http://www.greatschools.org/city/Bon_Secour/AL</url>
<lat>30.3141</lat>
<lon>-87.7406</lon>
<active>1</active>
</city>
<city>
<id>441760</id>
<name>Brantley</name>
<state>AL</state>
<rating>6</rating>
<url>http://www.greatschools.org/city/Brantley/AL</url>
<lat>31.5859</lat>
<lon>-86.2564</lon>
<active>1</active>
</city>
<city>
<id>441757</id>
<name>Bremen</name>
<state>AL</state>
<rating>8</rating>
<url>http://www.greatschools.org/city/Bremen/AL</url>
<lat>33.9603</lat>
<lon>-87.0214</lon>
<active>1</active>
</city>
<city>
<id>441794</id>
<name>Brent</name>
<state>AL</state>
<rating>4</rating>
<url>http://www.greatschools.org/city/Brent/AL</url>
<lat>32.9421</lat>
<lon>-87.1707</lon>
<active>1</active>
</city>
<city>
<id>441733</id>
<name>Brewton</name>
<state>AL</state>
<rating>8</rating>
<url>http://www.greatschools.org/city/Brewton/AL</url>
<lat>31.1226</lat>
<lon>-87.0701</lon>
<active>1</active>
</city>
<city>
<id>441707</id>
<name>Bridgeport</name>
<state>AL</state>
<rating>4</rating>
<url>http://www.greatschools.org/city/Bridgeport/AL</url>
<lat>34.9461</lat>
<lon>-85.7196</lon>
<active>1</active>
</city>
<city>
<id>441697</id>
<name>Brighton</name>
<state>AL</state>
<rating>4</rating>
<url>http://www.greatschools.org/city/Brighton/AL</url>
<lat>33.4391</lat>
<lon>-86.9442</lon>
<active>1</active>
</city>
<city>
<id>441664</id>
<name>Brilliant</name>
<state>AL</state>
<rating>7</rating>
<url>http://www.greatschools.org/city/Brilliant/AL</url>
<lat>34.0194</lat>
<lon>-87.7637</lon>
<active>1</active>
</city>
<city>
<id>441616</id>
<name>Brookwood</name>
<state>AL</state>
<rating>5</rating>
<url>http://www.greatschools.org/city/Brookwood/AL</url>
<lat>33.2386</lat>
<lon>-87.3229</lon>
<active>1</active>
</city>
<city>
<id>444685</id>
<name>Brownsboro</name>
<state>AL</state>
<rating/>
<url>http://www.greatschools.org/city/Brownsboro/AL</url>
<lat>34.7425</lat>
<lon>-86.4441</lon>
<active>1</active>
</city>
<city>
<id>441636</id>
<name>Brundidge</name>
<state>AL</state>
<rating>5</rating>
<url>http://www.greatschools.org/city/Brundidge/AL</url>
<lat>31.7241</lat>
<lon>-85.8185</lon>
<active>1</active>
</city>
<city>
<id>441512</id>
<name>Bryant</name>
<state>AL</state>
<rating>7</rating>
<url>http://www.greatschools.org/city/Bryant/AL</url>
<lat>34.9148</lat>
<lon>-85.6295</lon>
<active>1</active>
</city>
<city>
<id>441615</id>
<name>Buhl</name>
<state>AL</state>
<rating>5</rating>
<url>http://www.greatschools.org/city/Buhl/AL</url>
<lat>33.2107</lat>
<lon>-87.7514</lon>
<active>1</active>
</city>
<city>
<id>444686</id>
<name>Burkville</name>
<state>AL</state>
<rating/>
<url>http://www.greatschools.org/city/Burkville/AL</url>
<lat>32.2889</lat>
<lon>-86.641</lon>
<active>1</active>
</city>
<city>
<id>441451</id>
<name>Butler</name>
<state>AL</state>
<rating>2</rating>
<url>http://www.greatschools.org/city/Butler/AL</url>
<lat>32.0931</lat>
<lon>-88.2186</lon>
<active>1</active>
</city>
<city>
<id>441414</id>
<name>Calera</name>
<state>AL</state>
<rating>6</rating>
<url>http://www.greatschools.org/city/Calera/AL</url>
<lat>33.1085</lat>
<lon>-86.7533</lon>
<active>1</active>
</city>
<city>
<id>441548</id>
<name>Camden</name>
<state>AL</state>
<rating>2</rating>
<url>http://www.greatschools.org/city/Camden/AL</url>
<lat>32.001</lat>
<lon>-87.3024</lon>
<active>1</active>
</city>
<city>
<id>441585</id>
<name>Camp Hill</name>
<state>AL</state>
<rating/>
<url>http://www.greatschools.org/city/Camp_Hill/AL</url>
<lat>32.8011</lat>
<lon>-85.6517</lon>
<active>1</active>
</city>
<city>
<id>441610</id>
<name>Carbon Hill</name>
<state>AL</state>
<rating>6</rating>
<url>http://www.greatschools.org/city/Carbon_Hill/AL</url>
<lat>33.8932</lat>
<lon>-87.5221</lon>
<active>1</active>
</city>
<city>
<id>441583</id>
<name>Carrollton</name>
<state>AL</state>
<rating/>
<url>http://www.greatschools.org/city/Carrollton/AL</url>
<lat>33.2617</lat>
<lon>-88.096</lon>
<active>1</active>
</city>
<city>
<id>441765</id>
<name>Castleberry</name>
<state>AL</state>
<rating>7</rating>
<url>http://www.greatschools.org/city/Castleberry/AL</url>
<lat>31.2987</lat>
<lon>-87.0264</lon>
<active>1</active>
</city>
<city>
<id>441579</id>
<name>Cecil</name>
<state>AL</state>
<rating/>
<url>http://www.greatschools.org/city/Cecil/AL</url>
<lat>32.2897</lat>
<lon>-86.0201</lon>
<active>1</active>
</city>
<city>
<id>441782</id>
<name>Cedar Bluff</name>
<state>AL</state>
<rating>7</rating>
<url>http://www.greatschools.org/city/Cedar_Bluff/AL</url>
<lat>34.2207</lat>
<lon>-85.5935</lon>
<active>1</active>
</city>
<city>
<id>444509</id>
<name>Center Point</name>
<state>AL</state>
<rating/>
<url>http://www.greatschools.org/city/Center_Point/AL</url>
<lat>33.6439</lat>
<lon>-86.6846</lon>
<active>1</active>
</city>
<city>
<id>441778</id>
<name>Centre</name>
<state>AL</state>
<rating>6</rating>
<url>http://www.greatschools.org/city/Centre/AL</url>
<lat>34.1537</lat>
<lon>-85.6699</lon>
<active>1</active>
</city>
<city>
<id>441547</id>
<name>Centreville</name>
<state>AL</state>
<rating>3</rating>
<url>http://www.greatschools.org/city/Centreville/AL</url>
<lat>32.952</lat>
<lon>-87.1351</lon>
<active>1</active>
</city>
<city>
<id>441602</id>
<name>Chatom</name>
<state>AL</state>
<rating>6</rating>
<url>http://www.greatschools.org/city/Chatom/AL</url>
<lat>31.4641</lat>
<lon>-88.2526</lon>
<active>1</active>
</city>
<city>
<id>441413</id>
<name>Chelsea</name>
<state>AL</state>
<rating>7</rating>
<url>http://www.greatschools.org/city/Chelsea/AL</url>
<lat>33.3386</lat>
<lon>-86.6295</lon>
<active>1</active>
</city>
<city>
<id>441767</id>
<name>Cherokee</name>
<state>AL</state>
<rating>6</rating>
<url>http://www.greatschools.org/city/Cherokee/AL</url>
<lat>34.7589</lat>
<lon>-87.9648</lon>
<active>1</active>
</city>
<city>
<id>441513</id>
<name>Chickasaw</name>
<state>AL</state>
<rating>9</rating>
<url>http://www.greatschools.org/city/Chickasaw/AL</url>
<lat>30.7673</lat>
<lon>-88.0852</lon>
<active>1</active>
</city>
<city>
<id>441518</id>
<name>Childersburg</name>
<state>AL</state>
<rating>5</rating>
<url>http://www.greatschools.org/city/Childersburg/AL</url>
<lat>33.2788</lat>
<lon>-86.3538</lon>
<active>1</active>
</city>
<city>
<id>441532</id>
<name>Citronelle</name>
<state>AL</state>
<rating>7</rating>
<url>http://www.greatschools.org/city/Citronelle/AL</url>
<lat>31.0938</lat>
<lon>-88.2419</lon>
<active>1</active>
</city>
<city>
<id>441534</id>
<name>Clanton</name>
<state>AL</state>
<rating/>
<url>http://www.greatschools.org/city/Clanton/AL</url>
<lat>32.8424</lat>
<lon>-86.6308</lon>
<active>1</active>
</city>
<city>
<id>441520</id>
<name>Clay</name>
<state>AL</state>
<rating>6</rating>
<url>http://www.greatschools.org/city/Clay/AL</url>
<lat>33.702</lat>
<lon>-86.6182</lon>
<active>1</active>
</city>
<city>
<id>441795</id>
<name>Clayton</name>
<state>AL</state>
<rating/>
<url>http://www.greatschools.org/city/Clayton/AL</url>
<lat>31.8798</lat>
<lon>-85.4522</lon>
<active>1</active>
</city>
<city>
<id>441546</id>
<name>Cleveland</name>
<state>AL</state>
<rating>6</rating>
<url>http://www.greatschools.org/city/Cleveland/AL</url>
<lat>33.997</lat>
<lon>-86.5763</lon>
<active>1</active>
</city>
<city>
<id>441473</id>
<name>Coffee Springs</name>
<state>AL</state>
<rating/>
<url>http://www.greatschools.org/city/Coffee_Springs/AL</url>
<lat>31.1684</lat>
<lon>-85.9114</lon>
<active>1</active>
</city>
<city>
<id>441773</id>
<name>Coffeeville</name>
<state>AL</state>
<rating/>
<url>http://www.greatschools.org/city/Coffeeville/AL</url>
<lat>31.7591</lat>
<lon>-88.0846</lon>
<active>1</active>
</city>
<city>
<id>441611</id>
<name>Coker</name>
<state>AL</state>
<rating>8</rating>
<url>http://www.greatschools.org/city/Coker/AL</url>
<lat>33.2438</lat>
<lon>-87.6808</lon>
<active>1</active>
</city>
<city>
<id>441745</id>
<name>Collinsville</name>
<state>AL</state>
<rating>3</rating>
<url>http://www.greatschools.org/city/Collinsville/AL</url>
<lat>34.2662</lat>
<lon>-85.8619</lon>
<active>1</active>
</city>
<city>
<id>441710</id>
<name>Columbia</name>
<state>AL</state>
<rating>6</rating>
<url>http://www.greatschools.org/city/Columbia/AL</url>
<lat>31.2945</lat>
<lon>-85.1106</lon>
<active>1</active>
</city>
<city>
<id>441562</id>
<name>Columbiana</name>
<state>AL</state>
<rating>6</rating>
<url>http://www.greatschools.org/city/Columbiana/AL</url>
<lat>33.1765</lat>
<lon>-86.6042</lon>
<active>1</active>
</city>
<city>
<id>441827</id>
<name>Concord</name>
<state>AL</state>
<rating/>
<url>http://www.greatschools.org/city/Concord/AL</url>
<lat>33.467</lat>
<lon>-87.0371</lon>
<active>1</active>
</city>
<city>
<id>442000</id>
<name>Coosada</name>
<state>AL</state>
<rating>6</rating>
<url>http://www.greatschools.org/city/Coosada/AL</url>
<lat>32.5047</lat>
<lon>-86.3344</lon>
<active>1</active>
</city>
<city>
<id>441609</id>
<name>Cordova</name>
<state>AL</state>
<rating>6</rating>
<url>http://www.greatschools.org/city/Cordova/AL</url>
<lat>33.7619</lat>
<lon>-87.1853</lon>
<active>1</active>
</city>
<city>
<id>441483</id>
<name>Cottondale</name>
<state>AL</state>
<rating>3</rating>
<url>http://www.greatschools.org/city/Cottondale/AL</url>
<lat>33.1752</lat>
<lon>-87.4144</lon>
<active>1</active>
</city>
<city>
<id>441711</id>
<name>Cottonwood</name>
<state>AL</state>
<rating>7</rating>
<url>http://www.greatschools.org/city/Cottonwood/AL</url>
<lat>31.0567</lat>
<lon>-85.3009</lon>
<active>1</active>
</city>
<city>
<id>441569</id>
<name>Courtland</name>
<state>AL</state>
<rating>4</rating>
<url>http://www.greatschools.org/city/Courtland/AL</url>
<lat>34.6687</lat>
<lon>-87.3137</lon>
<active>1</active>
</city>
<city>
<id>441999</id>
<name>Cowarts</name>
<state>AL</state>
<rating/>
<url>http://www.greatschools.org/city/Cowarts/AL</url>
<lat>31.2005</lat>
<lon>-85.3045</lon>
<active>1</active>
</city>
<city>
<id>441509</id>
<name>Cropwell</name>
<state>AL</state>
<rating>9</rating>
<url>http://www.greatschools.org/city/Cropwell/AL</url>
<lat>33.5032</lat>
<lon>-86.3125</lon>
<active>1</active>
</city>
<city>
<id>441450</id>
<name>Crossville</name>
<state>AL</state>
<rating>3</rating>
<url>http://www.greatschools.org/city/Crossville/AL</url>
<lat>34.2865</lat>
<lon>-85.9919</lon>
<active>1</active>
</city>
<city>
<id>441624</id>
<name>Cuba</name>
<state>AL</state>
<rating>2</rating>
<url>http://www.greatschools.org/city/Cuba/AL</url>
<lat>32.4336</lat>
<lon>-88.3753</lon>
<active>1</active>
</city>
<city>
<id>441430</id>
<name>Cullman</name>
<state>AL</state>
<rating>7</rating>
<url>http://www.greatschools.org/city/Cullman/AL</url>
<lat>34.1763</lat>
<lon>-86.8453</lon>
<active>1</active>
</city>
<city>
<id>441438</id>
<name>Dadeville</name>
<state>AL</state>
<rating>3</rating>
<url>http://www.greatschools.org/city/Dadeville/AL</url>
<lat>32.8305</lat>
<lon>-85.7631</lon>
<active>1</active>
</city>
<city>
<id>441749</id>
<name>Daleville</name>
<state>AL</state>
<rating>6</rating>
<url>http://www.greatschools.org/city/Daleville/AL</url>
<lat>31.3031</lat>
<lon>-85.71</lon>
<active>1</active>
</city>
<city>
<id>441650</id>
<name>Danville</name>
<state>AL</state>
<rating>7</rating>
<url>http://www.greatschools.org/city/Danville/AL</url>
<lat>34.4308</lat>
<lon>-87.1096</lon>
<active>1</active>
</city>
<city>
<id>441481</id>
<name>Daphne</name>
<state>AL</state>
<rating>7</rating>
<url>http://www.greatschools.org/city/Daphne/AL</url>
<lat>30.6307</lat>
<lon>-87.8929</lon>
<active>1</active>
</city>
<city>
<id>441659</id>
<name>Dauphin Island</name>
<state>AL</state>
<rating>8</rating>
<url>http://www.greatschools.org/city/Dauphin_Island/AL</url>
<lat>30.2516</lat>
<lon>-88.1167</lon>
<active>1</active>
</city>
<city>
<id>441545</id>
<name>Deatsville</name>
<state>AL</state>
<rating>7</rating>
<url>http://www.greatschools.org/city/Deatsville/AL</url>
<lat>32.5953</lat>
<lon>-86.3968</lon>
<active>1</active>
</city>
<city>
<id>441416</id>
<name>Decatur</name>
<state>AL</state>
<rating>6</rating>
<url>http://www.greatschools.org/city/Decatur/AL</url>
<lat>34.5749</lat>
<lon>-86.9925</lon>
<active>1</active>
</city>
<city>
<id>441563</id>
<name>Demopolis</name>
<state>AL</state>
<rating>6</rating>
<url>http://www.greatschools.org/city/Demopolis/AL</url>
<lat>32.5056</lat>
<lon>-87.8363</lon>
<active>1</active>
</city>
<city>
<id>441666</id>
<name>Dixons Mills</name>
<state>AL</state>
<rating>3</rating>
<url>http://www.greatschools.org/city/Dixons_Mills/AL</url>
<lat>32.073</lat>
<lon>-87.7816</lon>
<active>1</active>
</city>
<city>
<id>441998</id>
<name>Dolomite</name>
<state>AL</state>
<rating/>
<url>http://www.greatschools.org/city/Dolomite/AL</url>
<lat>33.4676</lat>
<lon>-86.96</lon>
<active>1</active>
</city>
<city>
<id>441604</id>
<name>Dora</name>
<state>AL</state>
<rating>6</rating>
<url>http://www.greatschools.org/city/Dora/AL</url>
<lat>33.7316</lat>
<lon>-87.0868</lon>
<active>1</active>
</city>
<city>
<id>441436</id>
<name>Dothan</name>
<state>AL</state>
<rating>6</rating>
<url>http://www.greatschools.org/city/Dothan/AL</url>
<lat>31.2258</lat>
<lon>-85.4135</lon>
<active>1</active>
</city>
<city>
<id>441540</id>
<name>Double Springs</name>
<state>AL</state>
<rating>3</rating>
<url>http://www.greatschools.org/city/Double_Springs/AL</url>
<lat>34.1469</lat>
<lon>-87.4016</lon>
<active>1</active>
</city>
<city>
<id>441553</id>
<name>Douglas</name>
<state>AL</state>
<rating>7</rating>
<url>http://www.greatschools.org/city/Douglas/AL</url>
<lat>34.1716</lat>
<lon>-86.322</lon>
<active>1</active>
</city>
<city>
<id>441613</id>
<name>Duncanville</name>
<state>AL</state>
<rating>6</rating>
<url>http://www.greatschools.org/city/Duncanville/AL</url>
<lat>33.091</lat>
<lon>-87.466</lon>
<active>1</active>
</city>
<city>
<id>441706</id>
<name>Dutton</name>
<state>AL</state>
<rating>8</rating>
<url>http://www.greatschools.org/city/Dutton/AL</url>
<lat>34.6081</lat>
<lon>-85.9158</lon>
<active>1</active>
</city>
<city>
<id>441732</id>
<name>East Brewton</name>
<state>AL</state>
<rating>7</rating>
<url>http://www.greatschools.org/city/East_Brewton/AL</url>
<lat>31.0904</lat>
<lon>-87.0555</lon>
<active>1</active>
</city>
<city>
<id>444085</id>
<name>East Gadsden</name>
<state>AL</state>
<rating/>
<url>http://www.greatschools.org/city/East_Gadsden/AL</url>
<lat>34.001</lat>
<lon>-85.9713</lon>
<active>1</active>
</city>
<city>
<id>441997</id>
<name>Eastaboga</name>
<state>AL</state>
<rating/>
<url>http://www.greatschools.org/city/Eastaboga/AL</url>
<lat>33.5963</lat>
<lon>-85.9785</lon>
<active>1</active>
</city>
<city>
<id>441533</id>
<name>Eclectic</name>
<state>AL</state>
<rating>6</rating>
<url>http://www.greatschools.org/city/Eclectic/AL</url>
<lat>32.6334</lat>
<lon>-86.0376</lon>
<active>1</active>
</city>
<city>
<id>441500</id>
<name>Eight Mile</name>
<state>AL</state>
<rating>6</rating>
<url>http://www.greatschools.org/city/Eight_Mile/AL</url>
<lat>30.7911</lat>
<lon>-88.1797</lon>
<active>1</active>
</city>
<city>
<id>441736</id>
<name>Elba</name>
<state>AL</state>
<rating>5</rating>
<url>http://www.greatschools.org/city/Elba/AL</url>
<lat>31.4198</lat>
<lon>-86.0766</lon>
<active>1</active>
</city>
<city>
<id>441475</id>
<name>Elberta</name>
<state>AL</state>
<rating>8</rating>
<url>http://www.greatschools.org/city/Elberta/AL</url>
<lat>30.4131</lat>
<lon>-87.599</lon>
<active>1</active>
</city>
<city>
<id>441674</id>
<name>Elkmont</name>
<state>AL</state>
<rating>5</rating>
<url>http://www.greatschools.org/city/Elkmont/AL</url>
<lat>34.9297</lat>
<lon>-86.9762</lon>
<active>1</active>
</city>
<city>
<id>441587</id>
<name>Elmore</name>
<state>AL</state>
<rating/>
<url>http://www.greatschools.org/city/Elmore/AL</url>
<lat>32.5411</lat>
<lon>-86.3144</lon>
<active>1</active>
</city>
<city>
<id>444510</id>
<name>Emelle</name>
<state>AL</state>
<rating/>
<url>http://www.greatschools.org/city/Emelle/AL</url>
<lat>32.7287</lat>
<lon>-88.3165</lon>
<active>1</active>
</city>
<city>
<id>441461</id>
<name>Empire</name>
<state>AL</state>
<rating/>
<url>http://www.greatschools.org/city/Empire/AL</url>
<lat>33.8129</lat>
<lon>-87.023</lon>
<active>1</active>
</city>
<city>
<id>441791</id>
<name>Ensley</name>
<state>AL</state>
<rating/>
<url>http://www.greatschools.org/city/Ensley/AL</url>
<lat>33.5209</lat>
<lon>-86.8892</lon>
<active>1</active>
</city>
<city>
<id>441411</id>
<name>Enterprise</name>
<state>AL</state>
<rating>8</rating>
<url>http://www.greatschools.org/city/Enterprise/AL</url>
<lat>31.3274</lat>
<lon>-85.8404</lon>
<active>1</active>
</city>
<city>
<id>441410</id>
<name>Eufaula</name>
<state>AL</state>
<rating>4</rating>
<url>http://www.greatschools.org/city/Eufaula/AL</url>
<lat>31.8849</lat>
<lon>-85.1589</lon>
<active>1</active>
</city>
<city>
<id>441544</id>
<name>Eutaw</name>
<state>AL</state>
<rating>4</rating>
<url>http://www.greatschools.org/city/Eutaw/AL</url>
<lat>32.8397</lat>
<lon>-87.8882</lon>
<active>1</active>
</city>
<city>
<id>441649</id>
<name>Eva</name>
<state>AL</state>
<rating>8</rating>
<url>http://www.greatschools.org/city/Eva/AL</url>
<lat>34.3305</lat>
<lon>-86.7558</lon>
<active>1</active>
</city>
<city>
<id>441582</id>
<name>Evergreen</name>
<state>AL</state>
<rating>5</rating>
<url>http://www.greatschools.org/city/Evergreen/AL</url>
<lat>31.4337</lat>
<lon>-86.954</lon>
<active>1</active>
</city>
<city>
<id>441657</id>
<name>Excel</name>
<state>AL</state>
<rating>5</rating>
<url>http://www.greatschools.org/city/Excel/AL</url>
<lat>31.4284</lat>
<lon>-87.3435</lon>
<active>1</active>
</city>
<city>
<id>441511</id>
<name>Fairfield</name>
<state>AL</state>
<rating>3</rating>
<url>http://www.greatschools.org/city/Fairfield/AL</url>
<lat>33.4739</lat>
<lon>-86.9183</lon>
<active>1</active>
</city>
<city>
<id>441457</id>
<name>Fairhope</name>
<state>AL</state>
<rating>9</rating>
<url>http://www.greatschools.org/city/Fairhope/AL</url>
<lat>30.5274</lat>
<lon>-87.8896</lon>
<active>1</active>
</city>
<city>
<id>441648</id>
<name>Falkville</name>
<state>AL</state>
<rating>6</rating>
<url>http://www.greatschools.org/city/Falkville/AL</url>
<lat>34.3724</lat>
<lon>-86.9089</lon>
<active>1</active>
</city>
<city>
<id>441725</id>
<name>Fayette</name>
<state>AL</state>
<rating>6</rating>
<url>http://www.greatschools.org/city/Fayette/AL</url>
<lat>33.6944</lat>
<lon>-87.8322</lon>
<active>1</active>
</city>
<city>
<id>441783</id>
<name>Five Points</name>
<state>AL</state>
<rating>5</rating>
<url>http://www.greatschools.org/city/Five_Points/AL</url>
<lat>33.0175</lat>
<lon>-85.3515</lon>
<active>1</active>
</city>
<city>
<id>441705</id>
<name>Flat Rock</name>
<state>AL</state>
<rating>5</rating>
<url>http://www.greatschools.org/city/Flat_Rock/AL</url>
<lat>34.7959</lat>
<lon>-85.6739</lon>
<active>1</active>
</city>
<city>
<id>441551</id>
<name>Flomaton</name>
<state>AL</state>
<rating>7</rating>
<url>http://www.greatschools.org/city/Flomaton/AL</url>
<lat>31.0099</lat>
<lon>-87.2579</lon>
<active>1</active>
</city>
<city>
<id>441763</id>
<name>Florala</name>
<state>AL</state>
<rating>5</rating>
<url>http://www.greatschools.org/city/Florala/AL</url>
<lat>31.0077</lat>
<lon>-86.3243</lon>
<active>1</active>
</city>
<city>
<id>441435</id>
<name>Florence</name>
<state>AL</state>
<rating>7</rating>
<url>http://www.greatschools.org/city/Florence/AL</url>
<lat>34.8261</lat>
<lon>-87.6674</lon>
<active>1</active>
</city>
<city>
<id>441564</id>
<name>Foley</name>
<state>AL</state>
<rating>6</rating>
<url>http://www.greatschools.org/city/Foley/AL</url>
<lat>30.4046</lat>
<lon>-87.6824</lon>
<active>1</active>
</city>
<city>
<id>441995</id>
<name>Forest Home</name>
<state>AL</state>
<rating/>
<url>http://www.greatschools.org/city/Forest_Home/AL</url>
<lat>31.8711</lat>
<lon>-86.8234</lon>
<active>1</active>
</city>
<city>
<id>441673</id>
<name>Fort Deposit</name>
<state>AL</state>
<rating>1</rating>
<url>http://www.greatschools.org/city/Fort_Deposit/AL</url>
<lat>31.9879</lat>
<lon>-86.5721</lon>
<active>1</active>
</city>
<city>
<id>444370</id>
<name>Fort Mitchell</name>
<state>AL</state>
<rating/>
<url>http://www.greatschools.org/city/Fort_Mitchell/AL</url>
<lat>32.2847</lat>
<lon>-85.0017</lon>
<active>1</active>
</city>
<city>
<id>441724</id>
<name>Fort Payne</name>
<state>AL</state>
<rating>5</rating>
<url>http://www.greatschools.org/city/Fort_Payne/AL</url>
<lat>34.4561</lat>
<lon>-85.7024</lon>
<active>1</active>
</city>
<city>
<id>441994</id>
<name>Fort Rucker</name>
<state>AL</state>
<rating/>
<url>http://www.greatschools.org/city/Fort_Rucker/AL</url>
<lat>31.3491</lat>
<lon>-85.7198</lon>
<active>1</active>
</city>
<city>
<id>441612</id>
<name>Fosters</name>
<state>AL</state>
<rating>3</rating>
<url>http://www.greatschools.org/city/Fosters/AL</url>
<lat>33.0768</lat>
<lon>-87.709</lon>
<active>1</active>
</city>
<city>
<id>441601</id>
<name>Fruitdale</name>
<state>AL</state>
<rating>4</rating>
<url>http://www.greatschools.org/city/Fruitdale/AL</url>
<lat>31.3494</lat>
<lon>-88.3738</lon>
<active>1</active>
</city>
<city>
<id>441771</id>
<name>Fruithurst</name>
<state>AL</state>
<rating>8</rating>
<url>http://www.greatschools.org/city/Fruithurst/AL</url>
<lat>33.7318</lat>
<lon>-85.4324</lon>
<active>1</active>
</city>
<city>
<id>444687</id>
<name>Fulton</name>
<state>AL</state>
<rating/>
<url>http://www.greatschools.org/city/Fulton/AL</url>
<lat>31.789</lat>
<lon>-87.721</lon>
<active>1</active>
</city>
<city>
<id>441695</id>
<name>Fultondale</name>
<state>AL</state>
<rating>5</rating>
<url>http://www.greatschools.org/city/Fultondale/AL</url>
<lat>33.6125</lat>
<lon>-86.8078</lon>
<active>1</active>
</city>
<city>
<id>441744</id>
<name>Fyffe</name>
<state>AL</state>
<rating>6</rating>
<url>http://www.greatschools.org/city/Fyffe/AL</url>
<lat>34.4449</lat>
<lon>-85.904</lon>
<active>1</active>
</city>
<city>
<id>441409</id>
<name>Gadsden</name>
<state>AL</state>
<rating>4</rating>
<url>http://www.greatschools.org/city/Gadsden/AL</url>
<lat>34.0112</lat>
<lon>-86.0079</lon>
<active>1</active>
</city>
<city>
<id>441992</id>
<name>Gainesville</name>
<state>AL</state>
<rating/>
<url>http://www.greatschools.org/city/Gainesville/AL</url>
<lat>32.8174</lat>
<lon>-88.1587</lon>
<active>1</active>
</city>
<city>
<id>441756</id>
<name>Garden City</name>
<state>AL</state>
<rating>7</rating>
<url>http://www.greatschools.org/city/Garden_City/AL</url>
<lat>34.0134</lat>
<lon>-86.7497</lon>
<active>1</active>
</city>
<city>
<id>441516</id>
<name>Gardendale</name>
<state>AL</state>
<rating>7</rating>
<url>http://www.greatschools.org/city/Gardendale/AL</url>
<lat>33.6599</lat>
<lon>-86.8118</lon>
<active>1</active>
</city>
<city>
<id>441781</id>
<name>Gaylesville</name>
<state>AL</state>
<rating>5</rating>
<url>http://www.greatschools.org/city/Gaylesville/AL</url>
<lat>34.2688</lat>
<lon>-85.5562</lon>
<active>1</active>
</city>
<city>
<id>441721</id>
<name>Geneva</name>
<state>AL</state>
<rating>6</rating>
<url>http://www.greatschools.org/city/Geneva/AL</url>
<lat>31.0384</lat>
<lon>-85.8795</lon>
<active>1</active>
</city>
<city>
<id>441786</id>
<name>Georgiana</name>
<state>AL</state>
<rating>3</rating>
<url>http://www.greatschools.org/city/Georgiana/AL</url>
<lat>31.6376</lat>
<lon>-86.7372</lon>
<active>1</active>
</city>
<city>
<id>441743</id>
<name>Geraldine</name>
<state>AL</state>
<rating>5</rating>
<url>http://www.greatschools.org/city/Geraldine/AL</url>
<lat>34.3565</lat>
<lon>-86.003</lon>
<active>1</active>
</city>
<city>
<id>441774</id>
<name>Gilbertown</name>
<state>AL</state>
<rating>6</rating>
<url>http://www.greatschools.org/city/Gilbertown/AL</url>
<lat>31.8745</lat>
<lon>-88.3187</lon>
<active>1</active>
</city>
<city>
<id>441728</id>
<name>Glencoe</name>
<state>AL</state>
<rating>9</rating>
<url>http://www.greatschools.org/city/Glencoe/AL</url>
<lat>33.9574</lat>
<lon>-85.9337</lon>
<active>1</active>
</city>
<city>
<id>441991</id>
<name>Goodwater</name>
<state>AL</state>
<rating/>
<url>http://www.greatschools.org/city/Goodwater/AL</url>
<lat>33.0622</lat>
<lon>-86.0556</lon>
<active>1</active>
</city>
<city>
<id>441640</id>
<name>Gordo</name>
<state>AL</state>
<rating>5</rating>
<url>http://www.greatschools.org/city/Gordo/AL</url>
<lat>33.3221</lat>
<lon>-87.9046</lon>
<active>1</active>
</city>
<city>
<id>441637</id>
<name>Goshen</name>
<state>AL</state>
<rating>6</rating>
<url>http://www.greatschools.org/city/Goshen/AL</url>
<lat>31.7187</lat>
<lon>-86.1254</lon>
<active>1</active>
</city>
<city>
<id>441590</id>
<name>Grady</name>
<state>AL</state>
<rating/>
<url>http://www.greatschools.org/city/Grady/AL</url>
<lat>31.9746</lat>
<lon>-86.1714</lon>
<active>1</active>
</city>
<city>
<id>441487</id>
<name>Grand Bay</name>
<state>AL</state>
<rating>6</rating>
<url>http://www.greatschools.org/city/Grand_Bay/AL</url>
<lat>30.4711</lat>
<lon>-88.3435</lon>
<active>1</active>
</city>
<city>
<id>441807</id>
<name>Grant</name>
<state>AL</state>
<rating>6</rating>
<url>http://www.greatschools.org/city/Grant/AL</url>
<lat>34.5237</lat>
<lon>-86.2522</lon>
<active>1</active>
</city>
<city>
<id>441696</id>
<name>Graysville</name>
<state>AL</state>
<rating>5</rating>
<url>http://www.greatschools.org/city/Graysville/AL</url>
<lat>33.6257</lat>
<lon>-86.963</lon>
<active>1</active>
</city>
<city>
<id>441573</id>
<name>Green Pond</name>
<state>AL</state>
<rating/>
<url>http://www.greatschools.org/city/Green_Pond/AL</url>
<lat>33.2839</lat>
<lon>-87.0921</lon>
<active>1</active>
</city>
<city>
<id>441525</id>
<name>Greensboro</name>
<state>AL</state>
<rating>3</rating>
<url>http://www.greatschools.org/city/Greensboro/AL</url>
<lat>32.703</lat>
<lon>-87.5939</lon>
<active>1</active>
</city>
<city>
<id>441474</id>
<name>Greenville</name>
<state>AL</state>
<rating>3</rating>
<url>http://www.greatschools.org/city/Greenville/AL</url>
<lat>31.8312</lat>
<lon>-86.6283</lon>
<active>1</active>
</city>
<city>
<id>441502</id>
<name>Grove Hill</name>
<state>AL</state>
<rating>3</rating>
<url>http://www.greatschools.org/city/Grove_Hill/AL</url>
<lat>31.7059</lat>
<lon>-87.7734</lon>
<active>1</active>
</city>
<city>
<id>441578</id>
<name>Guin</name>
<state>AL</state>
<rating>9</rating>
<url>http://www.greatschools.org/city/Guin/AL</url>
<lat>33.9707</lat>
<lon>-87.9124</lon>
<active>1</active>
</city>
<city>
<id>441797</id>
<name>Gulf Shores</name>
<state>AL</state>
<rating>7</rating>
<url>http://www.greatschools.org/city/Gulf_Shores/AL</url>
<lat>30.2676</lat>
<lon>-87.699</lon>
<active>1</active>
</city>
<city>
<id>441444</id>
<name>Guntersville</name>
<state>AL</state>
<rating>8</rating>
<url>http://www.greatschools.org/city/Guntersville/AL</url>
<lat>34.3333</lat>
<lon>-86.3066</lon>
<active>1</active>
</city>
<city>
<id>441671</id>
<name>Gurley</name>
<state>AL</state>
<rating>7</rating>
<url>http://www.greatschools.org/city/Gurley/AL</url>
<lat>34.698</lat>
<lon>-86.3757</lon>
<active>1</active>
</city>
<city>
<id>441663</id>
<name>Hackleburg</name>
<state>AL</state>
<rating>7</rating>
<url>http://www.greatschools.org/city/Hackleburg/AL</url>
<lat>34.2718</lat>
<lon>-87.8328</lon>
<active>1</active>
</city>
<city>
<id>441713</id>
<name>Haleyville</name>
<state>AL</state>
<rating>7</rating>
<url>http://www.greatschools.org/city/Haleyville/AL</url>
<lat>34.2335</lat>
<lon>-87.6176</lon>
<active>1</active>
</city>
<city>
<id>441662</id>
<name>Hamilton</name>
<state>AL</state>
<rating>8</rating>
<url>http://www.greatschools.org/city/Hamilton/AL</url>
<lat>34.142</lat>
<lon>-87.9922</lon>
<active>1</active>
</city>
<city>
<id>441489</id>
<name>Hampton Cove</name>
<state>AL</state>
<rating>10</rating>
<url>http://www.greatschools.org/city/Hampton_Cove/AL</url>
<lat>34.6597</lat>
<lon>-86.4763</lon>
<active>1</active>
</city>
<city>
<id>441755</id>
<name>Hanceville</name>
<state>AL</state>
<rating>6</rating>
<url>http://www.greatschools.org/city/Hanceville/AL</url>
<lat>34.0663</lat>
<lon>-86.765</lon>
<active>1</active>
</city>
<city>
<id>441588</id>
<name>Harpersville</name>
<state>AL</state>
<rating/>
<url>http://www.greatschools.org/city/Harpersville/AL</url>
<lat>33.3367</lat>
<lon>-86.4299</lon>
<active>1</active>
</city>
<city>
<id>441719</id>
<name>Hartford</name>
<state>AL</state>
<rating>6</rating>
<url>http://www.greatschools.org/city/Hartford/AL</url>
<lat>31.1056</lat>
<lon>-85.6937</lon>
<active>1</active>
</city>
<city>
<id>441574</id>
<name>Hartselle</name>
<state>AL</state>
<rating>7</rating>
<url>http://www.greatschools.org/city/Hartselle/AL</url>
<lat>34.4399</lat>
<lon>-86.9434</lon>
<active>1</active>
</city>
<city>
<id>441417</id>
<name>Harvest</name>
<state>AL</state>
<rating>7</rating>
<url>http://www.greatschools.org/city/Harvest/AL</url>
<lat>34.854</lat>
<lon>-86.7448</lon>
<active>1</active>
</city>
<city>
<id>441427</id>
<name>Hayden</name>
<state>AL</state>
<rating>7</rating>
<url>http://www.greatschools.org/city/Hayden/AL</url>
<lat>33.8955</lat>
<lon>-86.7542</lon>
<active>1</active>
</city>
<city>
<id>441447</id>
<name>Hayneville</name>
<state>AL</state>
<rating>3</rating>
<url>http://www.greatschools.org/city/Hayneville/AL</url>
<lat>32.1792</lat>
<lon>-86.5779</lon>
<active>1</active>
</city>
<city>
<id>441550</id>
<name>Hazel Green</name>
<state>AL</state>
<rating>7</rating>
<url>http://www.greatschools.org/city/Hazel_Green/AL</url>
<lat>34.9265</lat>
<lon>-86.5696</lon>
<active>1</active>
</city>
<city>
<id>441420</id>
<name>Headland</name>
<state>AL</state>
<rating>5</rating>
<url>http://www.greatschools.org/city/Headland/AL</url>
<lat>31.3497</lat>
<lon>-85.3399</lon>
<active>1</active>
</city>
<city>
<id>441426</id>
<name>Heflin</name>
<state>AL</state>
<rating>6</rating>
<url>http://www.greatschools.org/city/Heflin/AL</url>
<lat>33.643</lat>
<lon>-85.5847</lon>
<active>1</active>
</city>
<city>
<id>441529</id>
<name>Helena</name>
<state>AL</state>
<rating/>
<url>http://www.greatschools.org/city/Helena/AL</url>
<lat>33.2783</lat>
<lon>-86.848</lon>
<active>1</active>
</city>
<city>
<id>441742</id>
<name>Henagar</name>
<state>AL</state>
<rating>8</rating>
<url>http://www.greatschools.org/city/Henagar/AL</url>
<lat>34.635</lat>
<lon>-85.7397</lon>
<active>1</active>
</city>
<city>
<id>441704</id>
<name>Higdon</name>
<state>AL</state>
<rating>7</rating>
<url>http://www.greatschools.org/city/Higdon/AL</url>
<lat>34.828</lat>
<lon>-85.6075</lon>
<active>1</active>
</city>
<city>
<id>441759</id>
<name>Highland Home</name>
<state>AL</state>
<rating>7</rating>
<url>http://www.greatschools.org/city/Highland_Home/AL</url>
<lat>31.918</lat>
<lon>-86.3146</lon>
<active>1</active>
</city>
<city>
<id>441990</id>
<name>Hillsboro</name>
<state>AL</state>
<rating/>
<url>http://www.greatschools.org/city/Hillsboro/AL</url>
<lat>34.6388</lat>
<lon>-87.1848</lon>
<active>1</active>
</city>
<city>
<id>441726</id>
<name>Hokes Bluff</name>
<state>AL</state>
<rating>7</rating>
<url>http://www.greatschools.org/city/Hokes_Bluff/AL</url>
<lat>33.993</lat>
<lon>-85.8717</lon>
<active>1</active>
</city>
<city>
<id>441754</id>
<name>Holly Pond</name>
<state>AL</state>
<rating>7</rating>
<url>http://www.greatschools.org/city/Holly_Pond/AL</url>
<lat>34.1774</lat>
<lon>-86.6152</lon>
<active>1</active>
</city>
<city>
<id>441701</id>
<name>Hollywood</name>
<state>AL</state>
<rating/>
<url>http://www.greatschools.org/city/Hollywood/AL</url>
<lat>34.7167</lat>
<lon>-85.9657</lon>
<active>1</active>
</city>
<city>
<id>441614</id>
<name>Holt</name>
<state>AL</state>
<rating>2</rating>
<url>http://www.greatschools.org/city/Holt/AL</url>
<lat>33.2279</lat>
<lon>-87.4852</lon>
<active>1</active>
</city>
<city>
<id>441712</id>
<name>Homewood</name>
<state>AL</state>
<rating>9</rating>
<url>http://www.greatschools.org/city/Homewood/AL</url>
<lat>33.4657</lat>
<lon>-86.8066</lon>
<active>1</active>
</city>
<city>
<id>441408</id>
<name>Hoover</name>
<state>AL</state>
<rating>8</rating>
<url>http://www.greatschools.org/city/Hoover/AL</url>
<lat>33.3603</lat>
<lon>-86.8434</lon>
<active>1</active>
</city>
<city>
<id>441586</id>
<name>Hope Hull</name>
<state>AL</state>
<rating>3</rating>
<url>http://www.greatschools.org/city/Hope_Hull/AL</url>
<lat>32.2175</lat>
<lon>-86.4108</lon>
<active>1</active>
</city>
<city>
<id>441989</id>
<name>Horton</name>
<state>AL</state>
<rating/>
<url>http://www.greatschools.org/city/Horton/AL</url>
<lat>34.189</lat>
<lon>-86.3573</lon>
<active>1</active>
</city>
<city>
<id>441448</id>
<name>Hueytown</name>
<state>AL</state>
<rating>5</rating>
<url>http://www.greatschools.org/city/Hueytown/AL</url>
<lat>33.4393</lat>
<lon>-86.9961</lon>
<active>1</active>
</city>
<city>
<id>441428</id>
<name>Huntsville</name>
<state>AL</state>
<rating>6</rating>
<url>http://www.greatschools.org/city/Huntsville/AL</url>
<lat>34.71</lat>
<lon>-86.591</lon>
<active>1</active>
</city>
<city>
<id>441988</id>
<name>Hurtsboro</name>
<state>AL</state>
<rating/>
<url>http://www.greatschools.org/city/Hurtsboro/AL</url>
<lat>32.2397</lat>
<lon>-85.4156</lon>
<active>1</active>
</city>
<city>
<id>441734</id>
<name>Huxford</name>
<state>AL</state>
<rating>7</rating>
<url>http://www.greatschools.org/city/Huxford/AL</url>
<lat>31.3046</lat>
<lon>-87.3179</lon>
<active>1</active>
</city>
<city>
<id>441741</id>
<name>Ider</name>
<state>AL</state>
<rating>6</rating>
<url>http://www.greatschools.org/city/Ider/AL</url>
<lat>34.705</lat>
<lon>-85.6722</lon>
<active>1</active>
</city>
<city>
<id>445946</id>
<name>Indian Springs Village</name>
<state>AL</state>
<rating/>
<url>http://www.greatschools.org/city/Indian_Springs_Village/AL</url>
<lat>33.3404</lat>
<lon>-86.7698</lon>
<active>1</active>
</city>
<city>
<id>441419</id>
<name>Irondale</name>
<state>AL</state>
<rating>5</rating>
<url>http://www.greatschools.org/city/Irondale/AL</url>
<lat>33.5298</lat>
<lon>-86.6874</lon>
<active>1</active>
</city>
<city>
<id>441441</id>
<name>Irvington</name>
<state>AL</state>
<rating>7</rating>
<url>http://www.greatschools.org/city/Irvington/AL</url>
<lat>30.4785</lat>
<lon>-88.227</lon>
<active>1</active>
</city>
<city>
<id>441768</id>
<name>Jack</name>
<state>AL</state>
<rating>7</rating>
<url>http://www.greatschools.org/city/Jack/AL</url>
<lat>31.5454</lat>
<lon>-85.9488</lon>
<active>1</active>
</city>
<city>
<id>441527</id>
<name>Jackson</name>
<state>AL</state>
<rating>4</rating>
<url>http://www.greatschools.org/city/Jackson/AL</url>
<lat>31.523</lat>
<lon>-87.8911</lon>
<active>1</active>
</city>
<city>
<id>441535</id>
<name>Jacksonville</name>
<state>AL</state>
<rating>7</rating>
<url>http://www.greatschools.org/city/Jacksonville/AL</url>
<lat>33.8141</lat>
<lon>-85.7607</lon>
<active>1</active>
</city>
<city>
<id>441462</id>
<name>Jasper</name>
<state>AL</state>
<rating>7</rating>
<url>http://www.greatschools.org/city/Jasper/AL</url>
<lat>33.85</lat>
<lon>-87.2712</lon>
<active>1</active>
</city>
<city>
<id>441568</id>
<name>Jemison</name>
<state>AL</state>
<rating>7</rating>
<url>http://www.greatschools.org/city/Jemison/AL</url>
<lat>32.9587</lat>
<lon>-86.7446</lon>
<active>1</active>
</city>
<city>
<id>441646</id>
<name>Joppa</name>
<state>AL</state>
<rating/>
<url>http://www.greatschools.org/city/Joppa/AL</url>
<lat>34.3078</lat>
<lon>-86.5828</lon>
<active>1</active>
</city>
<city>
<id>441987</id>
<name>Kellyton</name>
<state>AL</state>
<rating/>
<url>http://www.greatschools.org/city/Kellyton/AL</url>
<lat>32.9612</lat>
<lon>-86.044</lon>
<active>1</active>
</city>
<city>
<id>441682</id>
<name>Killen</name>
<state>AL</state>
<rating>8</rating>
<url>http://www.greatschools.org/city/Killen/AL</url>
<lat>34.8595</lat>
<lon>-87.5282</lon>
<active>1</active>
</city>
<city>
<id>441479</id>
<name>Kimberly</name>
<state>AL</state>
<rating>8</rating>
<url>http://www.greatschools.org/city/Kimberly/AL</url>
<lat>33.7718</lat>
<lon>-86.7991</lon>
<active>1</active>
</city>
<city>
<id>441769</id>
<name>Kinston</name>
<state>AL</state>
<rating>6</rating>
<url>http://www.greatschools.org/city/Kinston/AL</url>
<lat>31.219</lat>
<lon>-86.1702</lon>
<active>1</active>
</city>
<city>
<id>444688</id>
<name>La Fayette</name>
<state>AL</state>
<rating/>
<url>http://www.greatschools.org/city/La_Fayette/AL</url>
<lat>32.8403</lat>
<lon>-85.5248</lon>
<active>1</active>
</city>
<city>
<id>441647</id>
<name>Laceys Spring</name>
<state>AL</state>
<rating>6</rating>
<url>http://www.greatschools.org/city/Laceys_Spring/AL</url>
<lat>34.519</lat>
<lon>-86.6099</lon>
<active>1</active>
</city>
<city>
<id>441589</id>
<name>Lafayette</name>
<state>AL</state>
<rating>2</rating>
<url>http://www.greatschools.org/city/Lafayette/AL</url>
<lat>32.9084</lat>
<lon>-85.4322</lon>
<active>1</active>
</city>
<city>
<id>441581</id>
<name>Lanett</name>
<state>AL</state>
<rating>4</rating>
<url>http://www.greatschools.org/city/Lanett/AL</url>
<lat>32.8632</lat>
<lon>-85.1996</lon>
<active>1</active>
</city>
<city>
<id>441492</id>
<name>Leeds</name>
<state>AL</state>
<rating>5</rating>
<url>http://www.greatschools.org/city/Leeds/AL</url>
<lat>33.5438</lat>
<lon>-86.5572</lon>
<active>1</active>
</city>
<city>
<id>441986</id>
<name>Leesburg</name>
<state>AL</state>
<rating/>
<url>http://www.greatschools.org/city/Leesburg/AL</url>
<lat>34.1817</lat>
<lon>-85.7704</lon>
<active>1</active>
</city>
<city>
<id>441766</id>
<name>Leighton</name>
<state>AL</state>
<rating>6</rating>
<url>http://www.greatschools.org/city/Leighton/AL</url>
<lat>34.7008</lat>
<lon>-87.5304</lon>
<active>1</active>
</city>
<city>
<id>441600</id>
<name>Leroy</name>
<state>AL</state>
<rating>5</rating>
<url>http://www.greatschools.org/city/Leroy/AL</url>
<lat>31.4932</lat>
<lon>-87.9683</lon>
<active>1</active>
</city>
<city>
<id>441675</id>
<name>Lester</name>
<state>AL</state>
<rating>6</rating>
<url>http://www.greatschools.org/city/Lester/AL</url>
<lat>34.9884</lat>
<lon>-87.1549</lon>
<active>1</active>
</city>
<city>
<id>441506</id>
<name>Letohatchee</name>
<state>AL</state>
<rating>3</rating>
<url>http://www.greatschools.org/city/Letohatchee/AL</url>
<lat>32.0798</lat>
<lon>-86.4802</lon>
<active>1</active>
</city>
<city>
<id>441684</id>
<name>Lexington</name>
<state>AL</state>
<rating>7</rating>
<url>http://www.greatschools.org/city/Lexington/AL</url>
<lat>34.9671</lat>
<lon>-87.3744</lon>
<active>1</active>
</city>
<city>
<id>441621</id>
<name>Lincoln</name>
<state>AL</state>
<rating>6</rating>
<url>http://www.greatschools.org/city/Lincoln/AL</url>
<lat>33.5979</lat>
<lon>-86.1133</lon>
<active>1</active>
</city>
<city>
<id>441445</id>
<name>Linden</name>
<state>AL</state>
<rating>3</rating>
<url>http://www.greatschools.org/city/Linden/AL</url>
<lat>32.3023</lat>
<lon>-87.7934</lon>
<active>1</active>
</city>
<city>
<id>441772</id>
<name>Lineville</name>
<state>AL</state>
<rating/>
<url>http://www.greatschools.org/city/Lineville/AL</url>
<lat>33.312</lat>
<lon>-85.7495</lon>
<active>1</active>
</city>
<city>
<id>441694</id>
<name>Lipscomb</name>
<state>AL</state>
<rating>5</rating>
<url>http://www.greatschools.org/city/Lipscomb/AL</url>
<lat>33.4274</lat>
<lon>-86.9258</lon>
<active>1</active>
</city>
<city>
<id>441985</id>
<name>Lisman</name>
<state>AL</state>
<rating/>
<url>http://www.greatschools.org/city/Lisman/AL</url>
<lat>32.1717</lat>
<lon>-88.2914</lon>
<active>1</active>
</city>
<city>
<id>441625</id>
<name>Livingston</name>
<state>AL</state>
<rating/>
<url>http://www.greatschools.org/city/Livingston/AL</url>
<lat>32.5965</lat>
<lon>-88.1884</lon>
<active>1</active>
</city>
<city>
<id>441679</id>
<name>Loachapoka</name>
<state>AL</state>
<rating>4</rating>
<url>http://www.greatschools.org/city/Loachapoka/AL</url>
<lat>32.6029</lat>
<lon>-85.594</lon>
<active>1</active>
</city>
<city>
<id>441761</id>
<name>Lockhart</name>
<state>AL</state>
<rating>7</rating>
<url>http://www.greatschools.org/city/Lockhart/AL</url>
<lat>31.0134</lat>
<lon>-86.3532</lon>
<active>1</active>
</city>
<city>
<id>441537</id>
<name>Locust Fork</name>
<state>AL</state>
<rating>6</rating>
<url>http://www.greatschools.org/city/Locust_Fork/AL</url>
<lat>33.8973</lat>
<lon>-86.6282</lon>
<active>1</active>
</city>
<city>
<id>441424</id>
<name>Logan</name>
<state>AL</state>
<rating>6</rating>
<url>http://www.greatschools.org/city/Logan/AL</url>
<lat>34.1306</lat>
<lon>-87.0382</lon>
<active>1</active>
</city>
<city>
<id>441453</id>
<name>Louisville</name>
<state>AL</state>
<rating>1</rating>
<url>http://www.greatschools.org/city/Louisville/AL</url>
<lat>31.7813</lat>
<lon>-85.5581</lon>
<active>1</active>
</city>
<city>
<id>441653</id>
<name>Lower Peachtree</name>
<state>AL</state>
<rating>9</rating>
<url>http://www.greatschools.org/city/Lower_Peachtree/AL</url>
<lat>31.8438</lat>
<lon>-87.5374</lon>
<active>1</active>
</city>
<city>
<id>441593</id>
<name>Lowndesboro</name>
<state>AL</state>
<rating/>
<url>http://www.greatschools.org/city/Lowndesboro/AL</url>
<lat>32.279</lat>
<lon>-86.6097</lon>
<active>1</active>
</city>
<city>
<id>441796</id>
<name>Loxley</name>
<state>AL</state>
<rating>5</rating>
<url>http://www.greatschools.org/city/Loxley/AL</url>
<lat>30.6204</lat>
<lon>-87.7532</lon>
<active>1</active>
</city>
<city>
<id>441472</id>
<name>Luverne</name>
<state>AL</state>
<rating>6</rating>
<url>http://www.greatschools.org/city/Luverne/AL</url>
<lat>31.7123</lat>
<lon>-86.2627</lon>
<active>1</active>
</city>
<city>
<id>441539</id>
<name>Lynn</name>
<state>AL</state>
<rating>6</rating>
<url>http://www.greatschools.org/city/Lynn/AL</url>
<lat>34.0451</lat>
<lon>-87.5469</lon>
<active>1</active>
</city>
<city>
<id>441418</id>
<name>Madison</name>
<state>AL</state>
<rating>9</rating>
<url>http://www.greatschools.org/city/Madison/AL</url>
<lat>34.7148</lat>
<lon>-86.7418</lon>
<active>1</active>
</city>
<city>
<id>441984</id>
<name>Malvern</name>
<state>AL</state>
<rating/>
<url>http://www.greatschools.org/city/Malvern/AL</url>
<lat>31.1432</lat>
<lon>-85.5208</lon>
<active>1</active>
</city>
<city>
<id>441777</id>
<name>Maplesville</name>
<state>AL</state>
<rating>4</rating>
<url>http://www.greatschools.org/city/Maplesville/AL</url>
<lat>32.7855</lat>
<lon>-86.8764</lon>
<active>1</active>
</city>
<city>
<id>441804</id>
<name>Marbury</name>
<state>AL</state>
<rating>6</rating>
<url>http://www.greatschools.org/city/Marbury/AL</url>
<lat>32.687</lat>
<lon>-86.4936</lon>
<active>1</active>
</city>
<city>
<id>441566</id>
<name>Marion</name>
<state>AL</state>
<rating>4</rating>
<url>http://www.greatschools.org/city/Marion/AL</url>
<lat>32.6302</lat>
<lon>-87.3189</lon>
<active>1</active>
</city>
<city>
<id>444084</id>
<name>Maxwell AFB</name>
<state>AL</state>
<rating/>
<url>http://www.greatschools.org/city/Maxwell_AFB/AL</url>
<lat>32.3785</lat>
<lon>-86.343</lon>
<active>1</active>
</city>
<city>
<id>441629</id>
<name>Maylene</name>
<state>AL</state>
<rating>7</rating>
<url>http://www.greatschools.org/city/Maylene/AL</url>
<lat>33.2229</lat>
<lon>-86.8585</lon>
<active>1</active>
</city>
<city>
<id>441501</id>
<name>McCalla</name>
<state>AL</state>
<rating>6</rating>
<url>http://www.greatschools.org/city/McCalla/AL</url>
<lat>33.2839</lat>
<lon>-87.0921</lon>
<active>1</active>
</city>
<city>
<id>441584</id>
<name>McIntosh</name>
<state>AL</state>
<rating>2</rating>
<url>http://www.greatschools.org/city/McIntosh/AL</url>
<lat>31.2673</lat>
<lon>-88.0269</lon>
<active>1</active>
</city>
<city>
<id>441787</id>
<name>McKenzie</name>
<state>AL</state>
<rating>6</rating>
<url>http://www.greatschools.org/city/McKenzie/AL</url>
<lat>31.5419</lat>
<lon>-86.7182</lon>
<active>1</active>
</city>
<city>
<id>441740</id>
<name>Mentone</name>
<state>AL</state>
<rating>9</rating>
<url>http://www.greatschools.org/city/Mentone/AL</url>
<lat>34.5716</lat>
<lon>-85.5827</lon>
<active>1</active>
</city>
<city>
<id>441668</id>
<name>Meridianville</name>
<state>AL</state>
<rating>8</rating>
<url>http://www.greatschools.org/city/Meridianville/AL</url>
<lat>34.8624</lat>
<lon>-86.5801</lon>
<active>1</active>
</city>
<city>
<id>441661</id>
<name>Midfield</name>
<state>AL</state>
<rating>3</rating>
<url>http://www.greatschools.org/city/Midfield/AL</url>
<lat>33.4564</lat>
<lon>-86.9257</lon>
<active>1</active>
</city>
<city>
<id>441751</id>
<name>Midland City</name>
<state>AL</state>
<rating>7</rating>
<url>http://www.greatschools.org/city/Midland_City/AL</url>
<lat>31.3136</lat>
<lon>-85.4901</lon>
<active>1</active>
</city>
<city>
<id>441789</id>
<name>Midway</name>
<state>AL</state>
<rating/>
<url>http://www.greatschools.org/city/Midway/AL</url>
<lat>32.075</lat>
<lon>-85.5227</lon>
<active>1</active>
</city>
<city>
<id>441575</id>
<name>Millbrook</name>
<state>AL</state>
<rating>6</rating>
<url>http://www.greatschools.org/city/Millbrook/AL</url>
<lat>32.5118</lat>
<lon>-86.3702</lon>
<active>1</active>
</city>
<city>
<id>441687</id>
<name>Millport</name>
<state>AL</state>
<rating>6</rating>
<url>http://www.greatschools.org/city/Millport/AL</url>
<lat>33.5576</lat>
<lon>-88.0821</lon>
<active>1</active>
</city>
<city>
<id>441599</id>
<name>Millry</name>
<state>AL</state>
<rating>4</rating>
<url>http://www.greatschools.org/city/Millry/AL</url>
<lat>31.6301</lat>
<lon>-88.3192</lon>
<active>1</active>
</city>
<city>
<id>441440</id>
<name>Mobile</name>
<state>AL</state>
<rating>6</rating>
<url>http://www.greatschools.org/city/Mobile/AL</url>
<lat>30.6724</lat>
<lon>-88.1246</lon>
<active>1</active>
</city>
<city>
<id>445947</id>
<name>Mobile County</name>
<state>AL</state>
<rating/>
<url>http://www.greatschools.org/city/Mobile_County/AL</url>
<lat>30.6863</lat>
<lon>-88.2171</lon>
<active>1</active>
</city>
<city>
<id>441557</id>
<name>Monroeville</name>
<state>AL</state>
<rating>3</rating>
<url>http://www.greatschools.org/city/Monroeville/AL</url>
<lat>31.5203</lat>
<lon>-87.3299</lon>
<active>1</active>
</city>
<city>
<id>441498</id>
<name>Montevallo</name>
<state>AL</state>
<rating>5</rating>
<url>http://www.greatschools.org/city/Montevallo/AL</url>
<lat>33.1036</lat>
<lon>-86.8604</lon>
<active>1</active>
</city>
<city>
<id>444082</id>
<name>Montgmomery</name>
<state>AL</state>
<rating/>
<url>http://www.greatschools.org/city/Montgmomery/AL</url>
<lat>32.3617</lat>
<lon>-86.2441</lon>
<active>1</active>
</city>
<city>
<id>441429</id>
<name>Montgomery</name>
<state>AL</state>
<rating>4</rating>
<url>http://www.greatschools.org/city/Montgomery/AL</url>
<lat>32.3571</lat>
<lon>-86.264</lon>
<active>1</active>
</city>
<city>
<id>441522</id>
<name>Moody</name>
<state>AL</state>
<rating>5</rating>
<url>http://www.greatschools.org/city/Moody/AL</url>
<lat>33.594</lat>
<lon>-86.5004</lon>
<active>1</active>
</city>
<city>
<id>441693</id>
<name>Morris</name>
<state>AL</state>
<rating>8</rating>
<url>http://www.greatschools.org/city/Morris/AL</url>
<lat>33.7484</lat>
<lon>-86.8021</lon>
<active>1</active>
</city>
<city>
<id>441517</id>
<name>Moulton</name>
<state>AL</state>
<rating>6</rating>
<url>http://www.greatschools.org/city/Moulton/AL</url>
<lat>34.4823</lat>
<lon>-87.2848</lon>
<active>1</active>
</city>
<city>
<id>441716</id>
<name>Moundville</name>
<state>AL</state>
<rating>7</rating>
<url>http://www.greatschools.org/city/Moundville/AL</url>
<lat>32.9974</lat>
<lon>-87.6232</lon>
<active>1</active>
</city>
<city>
<id>444081</id>
<name>Mount Meigs</name>
<state>AL</state>
<rating/>
<url>http://www.greatschools.org/city/Mount_Meigs/AL</url>
<lat>32.3225</lat>
<lon>-86.0868</lon>
<active>1</active>
</city>
<city>
<id>441692</id>
<name>Mount Olive</name>
<state>AL</state>
<rating>7</rating>
<url>http://www.greatschools.org/city/Mount_Olive/AL</url>
<lat>33.6759</lat>
<lon>-86.8672</lon>
<active>1</active>
</city>
<city>
<id>441658</id>
<name>Mount Vernon</name>
<state>AL</state>
<rating>4</rating>
<url>http://www.greatschools.org/city/Mount_Vernon/AL</url>
<lat>31.09</lat>
<lon>-88.0091</lon>
<active>1</active>
</city>
<city>
<id>441644</id>
<name>Mountain Brook</name>
<state>AL</state>
<rating>8</rating>
<url>http://www.greatschools.org/city/Mountain_Brook/AL</url>
<lat>33.4916</lat>
<lon>-86.7415</lon>
<active>1</active>
</city>
<city>
<id>445948</id>
<name>Mt Hope</name>
<state>AL</state>
<rating>7</rating>
<url>http://www.greatschools.org/city/Mt_Hope/AL</url>
<lat>34.4465</lat>
<lon>-87.4828</lon>
<active>1</active>
</city>
<city>
<id>445949</id>
<name>Mt Meigs</name>
<state>AL</state>
<rating/>
<url>http://www.greatschools.org/city/Mt_Meigs/AL</url>
<lat>32.3878</lat>
<lon>-86.1007</lon>
<active>1</active>
</city>
<city>
<id>444689</id>
<name>Mtgy</name>
<state>AL</state>
<rating/>
<url>http://www.greatschools.org/city/Mtgy/AL</url>
<lat>32.2659</lat>
<lon>-86.226</lon>
<active>1</active>
</city>
<city>
<id>441478</id>
<name>Munford</name>
<state>AL</state>
<rating>6</rating>
<url>http://www.greatschools.org/city/Munford/AL</url>
<lat>33.5342</lat>
<lon>-85.9561</lon>
<active>1</active>
</city>
<city>
<id>441514</id>
<name>Muscle Shoals</name>
<state>AL</state>
<rating>9</rating>
<url>http://www.greatschools.org/city/Muscle_Shoals/AL</url>
<lat>34.7465</lat>
<lon>-87.6484</lon>
<active>1</active>
</city>
<city>
<id>441608</id>
<name>Nauvoo</name>
<state>AL</state>
<rating>8</rating>
<url>http://www.greatschools.org/city/Nauvoo/AL</url>
<lat>33.9878</lat>
<lon>-87.4875</lon>
<active>1</active>
</city>
<city>
<id>441458</id>
<name>New Brockton</name>
<state>AL</state>
<rating>6</rating>
<url>http://www.greatschools.org/city/New_Brockton/AL</url>
<lat>31.3817</lat>
<lon>-85.9252</lon>
<active>1</active>
</city>
<city>
<id>441670</id>
<name>New Hope</name>
<state>AL</state>
<rating>7</rating>
<url>http://www.greatschools.org/city/New_Hope/AL</url>
<lat>34.542</lat>
<lon>-86.4158</lon>
<active>1</active>
</city>
<city>
<id>441669</id>
<name>New Market</name>
<state>AL</state>
<rating>8</rating>
<url>http://www.greatschools.org/city/New_Market/AL</url>
<lat>34.8963</lat>
<lon>-86.4279</lon>
<active>1</active>
</city>
<city>
<id>441620</id>
<name>New Site</name>
<state>AL</state>
<rating>5</rating>
<url>http://www.greatschools.org/city/New_Site/AL</url>
<lat>33.0281</lat>
<lon>-85.7851</lon>
<active>1</active>
</city>
<city>
<id>441715</id>
<name>Newbern</name>
<state>AL</state>
<rating>4</rating>
<url>http://www.greatschools.org/city/Newbern/AL</url>
<lat>32.5913</lat>
<lon>-87.5334</lon>
<active>1</active>
</city>
<city>
<id>441708</id>
<name>Newton</name>
<state>AL</state>
<rating>6</rating>
<url>http://www.greatschools.org/city/Newton/AL</url>
<lat>31.3379</lat>
<lon>-85.5982</lon>
<active>1</active>
</city>
<city>
<id>444086</id>
<name>Newville</name>
<state>AL</state>
<rating/>
<url>http://www.greatschools.org/city/Newville/AL</url>
<lat>31.4214</lat>
<lon>-85.3379</lon>
<active>1</active>
</city>
<city>
<id>441484</id>
<name>Northport</name>
<state>AL</state>
<rating>6</rating>
<url>http://www.greatschools.org/city/Northport/AL</url>
<lat>33.2469</lat>
<lon>-87.5847</lon>
<active>1</active>
</city>
<city>
<id>441515</id>
<name>Notasulga</name>
<state>AL</state>
<rating>4</rating>
<url>http://www.greatschools.org/city/Notasulga/AL</url>
<lat>32.5567</lat>
<lon>-85.6737</lon>
<active>1</active>
</city>
<city>
<id>441607</id>
<name>Oakman</name>
<state>AL</state>
<rating>6</rating>
<url>http://www.greatschools.org/city/Oakman/AL</url>
<lat>33.7176</lat>
<lon>-87.3856</lon>
<active>1</active>
</city>
<city>
<id>441415</id>
<name>Odenville</name>
<state>AL</state>
<rating>6</rating>
<url>http://www.greatschools.org/city/Odenville/AL</url>
<lat>33.6833</lat>
<lon>-86.3998</lon>
<active>1</active>
</city>
<city>
<id>441536</id>
<name>Ohatchee</name>
<state>AL</state>
<rating>8</rating>
<url>http://www.greatschools.org/city/Ohatchee/AL</url>
<lat>33.7934</lat>
<lon>-86.0238</lon>
<active>1</active>
</city>
<city>
<id>444690</id>
<name>Old Fort</name>
<state>AL</state>
<rating/>
<url>http://www.greatschools.org/city/Old_Fort/AL</url>
<lat>35.6193</lat>
<lon>-82.2059</lon>
<active>1</active>
</city>
<city>
<id>441556</id>
<name>Oneonta</name>
<state>AL</state>
<rating>7</rating>
<url>http://www.greatschools.org/city/Oneonta/AL</url>
<lat>33.9471</lat>
<lon>-86.4688</lon>
<active>1</active>
</city>
<city>
<id>441486</id>
<name>Opelika</name>
<state>AL</state>
<rating>6</rating>
<url>http://www.greatschools.org/city/Opelika/AL</url>
<lat>32.6456</lat>
<lon>-85.3862</lon>
<active>1</active>
</city>
<city>
<id>441643</id>
<name>Opp</name>
<state>AL</state>
<rating>6</rating>
<url>http://www.greatschools.org/city/Opp/AL</url>
<lat>31.2804</lat>
<lon>-86.2556</lon>
<active>1</active>
</city>
<city>
<id>441799</id>
<name>Orange Beach</name>
<state>AL</state>
<rating>8</rating>
<url>http://www.greatschools.org/city/Orange_Beach/AL</url>
<lat>30.2913</lat>
<lon>-87.5692</lon>
<active>1</active>
</city>
<city>
<id>441747</id>
<name>Orrville</name>
<state>AL</state>
<rating>2</rating>
<url>http://www.greatschools.org/city/Orrville/AL</url>
<lat>32.3043</lat>
<lon>-87.2454</lon>
<active>1</active>
</city>
<city>
<id>441554</id>
<name>Owens Cross Roads</name>
<state>AL</state>
<rating>8</rating>
<url>http://www.greatschools.org/city/Owens_Cross_Roads/AL</url>
<lat>34.5859</lat>
<lon>-86.4544</lon>
<active>1</active>
</city>
<city>
<id>444511</id>
<name>Owens Crossroads</name>
<state>AL</state>
<rating/>
<url>http://www.greatschools.org/city/Owens_Crossroads/AL</url>
<lat>34.5802</lat>
<lon>-86.4404</lon>
<active>1</active>
</city>
<city>
<id>441495</id>
<name>Oxford</name>
<state>AL</state>
<rating>7</rating>
<url>http://www.greatschools.org/city/Oxford/AL</url>
<lat>33.6004</lat>
<lon>-85.8297</lon>
<active>1</active>
</city>
<city>
<id>441452</id>
<name>Ozark</name>
<state>AL</state>
<rating>6</rating>
<url>http://www.greatschools.org/city/Ozark/AL</url>
<lat>31.4382</lat>
<lon>-85.6487</lon>
<active>1</active>
</city>
<city>
<id>441626</id>
<name>Panola</name>
<state>AL</state>
<rating>4</rating>
<url>http://www.greatschools.org/city/Panola/AL</url>
<lat>32.8846</lat>
<lon>-88.2506</lon>
<active>1</active>
</city>
<city>
<id>441606</id>
<name>Parrish</name>
<state>AL</state>
<rating>6</rating>
<url>http://www.greatschools.org/city/Parrish/AL</url>
<lat>33.7326</lat>
<lon>-87.279</lon>
<active>1</active>
</city>
<city>
<id>441460</id>
<name>Pelham</name>
<state>AL</state>
<rating>8</rating>
<url>http://www.greatschools.org/city/Pelham/AL</url>
<lat>33.3101</lat>
<lon>-86.802</lon>
<active>1</active>
</city>
<city>
<id>441499</id>
<name>Pell City</name>
<state>AL</state>
<rating>7</rating>
<url>http://www.greatschools.org/city/Pell_City/AL</url>
<lat>33.5677</lat>
<lon>-86.269</lon>
<active>1</active>
</city>
<city>
<id>441803</id>
<name>Perdido</name>
<state>AL</state>
<rating>5</rating>
<url>http://www.greatschools.org/city/Perdido/AL</url>
<lat>31.0225</lat>
<lon>-87.6442</lon>
<active>1</active>
</city>
<city>
<id>441433</id>
<name>Phenix City</name>
<state>AL</state>
<rating>4</rating>
<url>http://www.greatschools.org/city/Phenix_City/AL</url>
<lat>32.4714</lat>
<lon>-85.017</lon>
<active>1</active>
</city>
<city>
<id>441449</id>
<name>Phil Campbell</name>
<state>AL</state>
<rating>6</rating>
<url>http://www.greatschools.org/city/Phil_Campbell/AL</url>
<lat>34.3516</lat>
<lon>-87.706</lon>
<active>1</active>
</city>
<city>
<id>441505</id>
<name>Piedmont</name>
<state>AL</state>
<rating>6</rating>
<url>http://www.greatschools.org/city/Piedmont/AL</url>
<lat>33.9257</lat>
<lon>-85.612</lon>
<active>1</active>
</city>
<city>
<id>441651</id>
<name>Pike Road</name>
<state>AL</state>
<rating>2</rating>
<url>http://www.greatschools.org/city/Pike_Road/AL</url>
<lat>32.2734</lat>
<lon>-86.1469</lon>
<active>1</active>
</city>
<city>
<id>441750</id>
<name>Pinckard</name>
<state>AL</state>
<rating>5</rating>
<url>http://www.greatschools.org/city/Pinckard/AL</url>
<lat>31.3132</lat>
<lon>-85.5485</lon>
<active>1</active>
</city>
<city>
<id>441596</id>
<name>Pine Apple</name>
<state>AL</state>
<rating/>
<url>http://www.greatschools.org/city/Pine_Apple/AL</url>
<lat>31.8697</lat>
<lon>-86.9878</lon>
<active>1</active>
</city>
<city>
<id>441598</id>
<name>Pine Hill</name>
<state>AL</state>
<rating>4</rating>
<url>http://www.greatschools.org/city/Pine_Hill/AL</url>
<lat>31.9848</lat>
<lon>-87.585</lon>
<active>1</active>
</city>
<city>
<id>441459</id>
<name>Pinson</name>
<state>AL</state>
<rating>5</rating>
<url>http://www.greatschools.org/city/Pinson/AL</url>
<lat>33.689</lat>
<lon>-86.6735</lon>
<active>1</active>
</city>
<city>
<id>441700</id>
<name>Pisgah</name>
<state>AL</state>
<rating>7</rating>
<url>http://www.greatschools.org/city/Pisgah/AL</url>
<lat>34.6838</lat>
<lon>-85.8452</lon>
<active>1</active>
</city>
<city>
<id>441748</id>
<name>Plantersville</name>
<state>AL</state>
<rating>3</rating>
<url>http://www.greatschools.org/city/Plantersville/AL</url>
<lat>32.6391</lat>
<lon>-86.9084</lon>
<active>1</active>
</city>
<city>
<id>441691</id>
<name>Pleasant Grove</name>
<state>AL</state>
<rating>6</rating>
<url>http://www.greatschools.org/city/Pleasant_Grove/AL</url>
<lat>33.4877</lat>
<lon>-86.9771</lon>
<active>1</active>
</city>
<city>
<id>441455</id>
<name>Prattville</name>
<state>AL</state>
<rating>7</rating>
<url>http://www.greatschools.org/city/Prattville/AL</url>
<lat>32.4618</lat>
<lon>-86.4492</lon>
<active>1</active>
</city>
<city>
<id>441531</id>
<name>Priceville</name>
<state>AL</state>
<rating>7</rating>
<url>http://www.greatschools.org/city/Priceville/AL</url>
<lat>34.5231</lat>
<lon>-86.8836</lon>
<active>1</active>
</city>
<city>
<id>441504</id>
<name>Prichard</name>
<state>AL</state>
<rating>4</rating>
<url>http://www.greatschools.org/city/Prichard/AL</url>
<lat>30.749</lat>
<lon>-88.1053</lon>
<active>1</active>
</city>
<city>
<id>441703</id>
<name>Princeton</name>
<state>AL</state>
<rating/>
<url>http://www.greatschools.org/city/Princeton/AL</url>
<lat>34.8524</lat>
<lon>-86.25</lon>
<active>1</active>
</city>
<city>
<id>441689</id>
<name>Quinton</name>
<state>AL</state>
<rating>9</rating>
<url>http://www.greatschools.org/city/Quinton/AL</url>
<lat>33.6589</lat>
<lon>-87.11</lon>
<active>1</active>
</city>
<city>
<id>441628</id>
<name>Ragland</name>
<state>AL</state>
<rating>4</rating>
<url>http://www.greatschools.org/city/Ragland/AL</url>
<lat>33.7477</lat>
<lon>-86.1442</lon>
<active>1</active>
</city>
<city>
<id>441592</id>
<name>Rainbow City</name>
<state>AL</state>
<rating>8</rating>
<url>http://www.greatschools.org/city/Rainbow_City/AL</url>
<lat>33.9445</lat>
<lon>-86.06</lon>
<active>1</active>
</city>
<city>
<id>441737</id>
<name>Rainsville</name>
<state>AL</state>
<rating/>
<url>http://www.greatschools.org/city/Rainsville/AL</url>
<lat>34.4961</lat>
<lon>-85.8456</lon>
<active>1</active>
</city>
<city>
<id>441652</id>
<name>Ramer</name>
<state>AL</state>
<rating>2</rating>
<url>http://www.greatschools.org/city/Ramer/AL</url>
<lat>32.0736</lat>
<lon>-86.1939</lon>
<active>1</active>
</city>
<city>
<id>441770</id>
<name>Ranburne</name>
<state>AL</state>
<rating>6</rating>
<url>http://www.greatschools.org/city/Ranburne/AL</url>
<lat>33.5251</lat>
<lon>-85.3418</lon>
<active>1</active>
</city>
<city>
<id>441793</id>
<name>Randolph</name>
<state>AL</state>
<rating>3</rating>
<url>http://www.greatschools.org/city/Randolph/AL</url>
<lat>32.9459</lat>
<lon>-86.8904</lon>
<active>1</active>
</city>
<city>
<id>441723</id>
<name>Red Bay</name>
<state>AL</state>
<rating>8</rating>
<url>http://www.greatschools.org/city/Red_Bay/AL</url>
<lat>34.4421</lat>
<lon>-88.1381</lon>
<active>1</active>
</city>
<city>
<id>441762</id>
<name>Red Level</name>
<state>AL</state>
<rating>6</rating>
<url>http://www.greatschools.org/city/Red_Level/AL</url>
<lat>31.4064</lat>
<lon>-86.6101</lon>
<active>1</active>
</city>
<city>
<id>444691</id>
<name>Redstone Cent</name>
<state>AL</state>
<rating/>
<url>http://www.greatschools.org/city/Redstone_Cent/AL</url>
<lat>34.63</lat>
<lon>-86.65</lon>
<active>1</active>
</city>
<city>
<id>441639</id>
<name>Reform</name>
<state>AL</state>
<rating>3</rating>
<url>http://www.greatschools.org/city/Reform/AL</url>
<lat>33.3788</lat>
<lon>-88.0181</lon>
<active>1</active>
</city>
<city>
<id>441490</id>
<name>Rehobeth</name>
<state>AL</state>
<rating>7</rating>
<url>http://www.greatschools.org/city/Rehobeth/AL</url>
<lat>31.1293</lat>
<lon>-85.4405</lon>
<active>1</active>
</city>
<city>
<id>441790</id>
<name>Remlap</name>
<state>AL</state>
<rating>7</rating>
<url>http://www.greatschools.org/city/Remlap/AL</url>
<lat>33.8205</lat>
<lon>-86.6216</lon>
<active>1</active>
</city>
<city>
<id>441764</id>
<name>Repton</name>
<state>AL</state>
<rating>7</rating>
<url>http://www.greatschools.org/city/Repton/AL</url>
<lat>31.4093</lat>
<lon>-87.2406</lon>
<active>1</active>
</city>
<city>
<id>441981</id>
<name>Riverside</name>
<state>AL</state>
<rating/>
<url>http://www.greatschools.org/city/Riverside/AL</url>
<lat>33.6171</lat>
<lon>-86.1981</lon>
<active>1</active>
</city>
<city>
<id>441494</id>
<name>Roanoke</name>
<state>AL</state>
<rating>6</rating>
<url>http://www.greatschools.org/city/Roanoke/AL</url>
<lat>33.1469</lat>
<lon>-85.3693</lon>
<active>1</active>
</city>
<city>
<id>441561</id>
<name>Robertsdale</name>
<state>AL</state>
<rating>6</rating>
<url>http://www.greatschools.org/city/Robertsdale/AL</url>
<lat>30.5556</lat>
<lon>-87.703</lon>
<active>1</active>
</city>
<city>
<id>441567</id>
<name>Rock Creek</name>
<state>AL</state>
<rating/>
<url>http://www.greatschools.org/city/Rock_Creek/AL</url>
<lat>33.4766</lat>
<lon>-87.0782</lon>
<active>1</active>
</city>
<city>
<id>441491</id>
<name>Rockford</name>
<state>AL</state>
<rating>4</rating>
<url>http://www.greatschools.org/city/Rockford/AL</url>
<lat>32.8897</lat>
<lon>-86.2154</lon>
<active>1</active>
</city>
<city>
<id>441685</id>
<name>Rogersville</name>
<state>AL</state>
<rating>7</rating>
<url>http://www.greatschools.org/city/Rogersville/AL</url>
<lat>34.8264</lat>
<lon>-87.2886</lon>
<active>1</active>
</city>
<city>
<id>441422</id>
<name>Russellville</name>
<state>AL</state>
<rating>5</rating>
<url>http://www.greatschools.org/city/Russellville/AL</url>
<lat>34.5105</lat>
<lon>-87.7295</lon>
<active>1</active>
</city>
<city>
<id>441677</id>
<name>Salem</name>
<state>AL</state>
<rating>6</rating>
<url>http://www.greatschools.org/city/Salem/AL</url>
<lat>32.5529</lat>
<lon>-85.2</lon>
<active>1</active>
</city>
<city>
<id>441720</id>
<name>Samson</name>
<state>AL</state>
<rating>3</rating>
<url>http://www.greatschools.org/city/Samson/AL</url>
<lat>31.1107</lat>
<lon>-86.0482</lon>
<active>1</active>
</city>
<city>
<id>441780</id>
<name>Sand Rock</name>
<state>AL</state>
<rating>6</rating>
<url>http://www.greatschools.org/city/Sand_Rock/AL</url>
<lat>34.2312</lat>
<lon>-85.7719</lon>
<active>1</active>
</city>
<city>
<id>441570</id>
<name>Saraland</name>
<state>AL</state>
<rating>8</rating>
<url>http://www.greatschools.org/city/Saraland/AL</url>
<lat>30.8241</lat>
<lon>-88.0934</lon>
<active>1</active>
</city>
<city>
<id>441746</id>
<name>Sardis</name>
<state>AL</state>
<rating>3</rating>
<url>http://www.greatschools.org/city/Sardis/AL</url>
<lat>32.2633</lat>
<lon>-87.0178</lon>
<active>1</active>
</city>
<city>
<id>441731</id>
<name>Sardis City</name>
<state>AL</state>
<rating>5</rating>
<url>http://www.greatschools.org/city/Sardis_City/AL</url>
<lat>34.1767</lat>
<lon>-86.1178</lon>
<active>1</active>
</city>
<city>
<id>441442</id>
<name>Satsuma</name>
<state>AL</state>
<rating/>
<url>http://www.greatschools.org/city/Satsuma/AL</url>
<lat>30.8569</lat>
<lon>-88.0515</lon>
<active>1</active>
</city>
<city>
<id>441477</id>
<name>Scottsboro</name>
<state>AL</state>
<rating>6</rating>
<url>http://www.greatschools.org/city/Scottsboro/AL</url>
<lat>34.6524</lat>
<lon>-86.037</lon>
<active>1</active>
</city>
<city>
<id>441530</id>
<name>Seale</name>
<state>AL</state>
<rating>5</rating>
<url>http://www.greatschools.org/city/Seale/AL</url>
<lat>32.3183</lat>
<lon>-85.1312</lon>
<active>1</active>
</city>
<city>
<id>441699</id>
<name>Section</name>
<state>AL</state>
<rating>7</rating>
<url>http://www.greatschools.org/city/Section/AL</url>
<lat>34.5801</lat>
<lon>-85.9897</lon>
<active>1</active>
</city>
<city>
<id>441503</id>
<name>Selma</name>
<state>AL</state>
<rating>3</rating>
<url>http://www.greatschools.org/city/Selma/AL</url>
<lat>32.4196</lat>
<lon>-87.0303</lon>
<active>1</active>
</city>
<city>
<id>441507</id>
<name>Seminole</name>
<state>AL</state>
<rating/>
<url>http://www.greatschools.org/city/Seminole/AL</url>
<lat>30.5093</lat>
<lon>-87.4733</lon>
<active>1</active>
</city>
<city>
<id>441443</id>
<name>Semmes</name>
<state>AL</state>
<rating>6</rating>
<url>http://www.greatschools.org/city/Semmes/AL</url>
<lat>30.7618</lat>
<lon>-88.2659</lon>
<active>1</active>
</city>
<city>
<id>441633</id>
<name>Sheffield</name>
<state>AL</state>
<rating>5</rating>
<url>http://www.greatschools.org/city/Sheffield/AL</url>
<lat>34.7588</lat>
<lon>-87.696</lon>
<active>1</active>
</city>
<city>
<id>441632</id>
<name>Shelby</name>
<state>AL</state>
<rating>8</rating>
<url>http://www.greatschools.org/city/Shelby/AL</url>
<lat>33.0834</lat>
<lon>-86.541</lon>
<active>1</active>
</city>
<city>
<id>441672</id>
<name>Shorter</name>
<state>AL</state>
<rating>3</rating>
<url>http://www.greatschools.org/city/Shorter/AL</url>
<lat>32.3994</lat>
<lon>-85.9366</lon>
<active>1</active>
</city>
<city>
<id>441980</id>
<name>Silas</name>
<state>AL</state>
<rating/>
<url>http://www.greatschools.org/city/Silas/AL</url>
<lat>31.7702</lat>
<lon>-88.3287</lon>
<active>1</active>
</city>
<city>
<id>441464</id>
<name>Silverhill</name>
<state>AL</state>
<rating>6</rating>
<url>http://www.greatschools.org/city/Silverhill/AL</url>
<lat>30.5455</lat>
<lon>-87.7505</lon>
<active>1</active>
</city>
<city>
<id>441605</id>
<name>Sipsey</name>
<state>AL</state>
<rating>5</rating>
<url>http://www.greatschools.org/city/Sipsey/AL</url>
<lat>33.8236</lat>
<lon>-87.0855</lon>
<active>1</active>
</city>
<city>
<id>441752</id>
<name>Skipperville</name>
<state>AL</state>
<rating>7</rating>
<url>http://www.greatschools.org/city/Skipperville/AL</url>
<lat>31.5806</lat>
<lon>-85.5395</lon>
<active>1</active>
</city>
<city>
<id>441718</id>
<name>Slocomb</name>
<state>AL</state>
<rating>5</rating>
<url>http://www.greatschools.org/city/Slocomb/AL</url>
<lat>31.1078</lat>
<lon>-85.5954</lon>
<active>1</active>
</city>
<city>
<id>441678</id>
<name>Smiths Station</name>
<state>AL</state>
<rating>7</rating>
<url>http://www.greatschools.org/city/Smiths_Station/AL</url>
<lat>32.5327</lat>
<lon>-85.1002</lon>
<active>1</active>
</city>
<city>
<id>441466</id>
<name>Snead</name>
<state>AL</state>
<rating/>
<url>http://www.greatschools.org/city/Snead/AL</url>
<lat>34.115</lat>
<lon>-86.3884</lon>
<active>1</active>
</city>
<city>
<id>441645</id>
<name>Somerville</name>
<state>AL</state>
<rating>7</rating>
<url>http://www.greatschools.org/city/Somerville/AL</url>
<lat>34.4695</lat>
<lon>-86.7979</lon>
<active>1</active>
</city>
<city>
<id>441727</id>
<name>Southside</name>
<state>AL</state>
<rating>8</rating>
<url>http://www.greatschools.org/city/Southside/AL</url>
<lat>33.9027</lat>
<lon>-86.0266</lon>
<active>1</active>
</city>
<city>
<id>441480</id>
<name>Spanish Fort</name>
<state>AL</state>
<rating>9</rating>
<url>http://www.greatschools.org/city/Spanish_Fort/AL</url>
<lat>30.6763</lat>
<lon>-87.9007</lon>
<active>1</active>
</city>
<city>
<id>441779</id>
<name>Spring Garden</name>
<state>AL</state>
<rating>4</rating>
<url>http://www.greatschools.org/city/Spring_Garden/AL</url>
<lat>33.9399</lat>
<lon>-85.6359</lon>
<active>1</active>
</city>
<city>
<id>441555</id>
<name>Springville</name>
<state>AL</state>
<rating>7</rating>
<url>http://www.greatschools.org/city/Springville/AL</url>
<lat>33.7735</lat>
<lon>-86.4751</lon>
<active>1</active>
</city>
<city>
<id>441802</id>
<name>Stapleton</name>
<state>AL</state>
<rating>8</rating>
<url>http://www.greatschools.org/city/Stapleton/AL</url>
<lat>30.742</lat>
<lon>-87.7743</lon>
<active>1</active>
</city>
<city>
<id>441627</id>
<name>Steele</name>
<state>AL</state>
<rating>8</rating>
<url>http://www.greatschools.org/city/Steele/AL</url>
<lat>33.9404</lat>
<lon>-86.2037</lon>
<active>1</active>
</city>
<city>
<id>441698</id>
<name>Stevenson</name>
<state>AL</state>
<rating>6</rating>
<url>http://www.greatschools.org/city/Stevenson/AL</url>
<lat>34.8718</lat>
<lon>-85.8295</lon>
<active>1</active>
</city>
<city>
<id>441688</id>
<name>Sulligent</name>
<state>AL</state>
<rating>6</rating>
<url>http://www.greatschools.org/city/Sulligent/AL</url>
<lat>33.8914</lat>
<lon>-88.1345</lon>
<active>1</active>
</city>
<city>
<id>441571</id>
<name>Sumiton</name>
<state>AL</state>
<rating>7</rating>
<url>http://www.greatschools.org/city/Sumiton/AL</url>
<lat>33.7505</lat>
<lon>-87.0475</lon>
<active>1</active>
</city>
<city>
<id>441801</id>
<name>Summerdale</name>
<state>AL</state>
<rating>6</rating>
<url>http://www.greatschools.org/city/Summerdale/AL</url>
<lat>30.49</lat>
<lon>-87.7002</lon>
<active>1</active>
</city>
<city>
<id>441665</id>
<name>Sweet Water</name>
<state>AL</state>
<rating>8</rating>
<url>http://www.greatschools.org/city/Sweet_Water/AL</url>
<lat>32.1018</lat>
<lon>-87.8655</lon>
<active>1</active>
</city>
<city>
<id>441622</id>
<name>Sycamore</name>
<state>AL</state>
<rating>9</rating>
<url>http://www.greatschools.org/city/Sycamore/AL</url>
<lat>33.3543</lat>
<lon>-86.2552</lon>
<active>1</active>
</city>
<city>
<id>441485</id>
<name>Sylacauga</name>
<state>AL</state>
<rating>6</rating>
<url>http://www.greatschools.org/city/Sylacauga/AL</url>
<lat>33.1756</lat>
<lon>-86.2526</lon>
<active>1</active>
</city>
<city>
<id>441739</id>
<name>Sylvania</name>
<state>AL</state>
<rating>4</rating>
<url>http://www.greatschools.org/city/Sylvania/AL</url>
<lat>34.5619</lat>
<lon>-85.806</lon>
<active>1</active>
</city>
<city>
<id>441497</id>
<name>Talladega</name>
<state>AL</state>
<rating>3</rating>
<url>http://www.greatschools.org/city/Talladega/AL</url>
<lat>33.4355</lat>
<lon>-86.0983</lon>
<active>1</active>
</city>
<city>
<id>441619</id>
<name>Tallassee</name>
<state>AL</state>
<rating>5</rating>
<url>http://www.greatschools.org/city/Tallassee/AL</url>
<lat>32.5438</lat>
<lon>-85.8969</lon>
<active>1</active>
</city>
<city>
<id>441676</id>
<name>Tanner</name>
<state>AL</state>
<rating>6</rating>
<url>http://www.greatschools.org/city/Tanner/AL</url>
<lat>34.7011</lat>
<lon>-86.9572</lon>
<active>1</active>
</city>
<city>
<id>441618</id>
<name>Tarrant</name>
<state>AL</state>
<rating>4</rating>
<url>http://www.greatschools.org/city/Tarrant/AL</url>
<lat>33.5846</lat>
<lon>-86.7663</lon>
<active>1</active>
</city>
<city>
<id>444693</id>
<name>Taylor</name>
<state>AL</state>
<rating/>
<url>http://www.greatschools.org/city/Taylor/AL</url>
<lat>31.1649</lat>
<lon>-85.4683</lon>
<active>1</active>
</city>
<city>
<id>441519</id>
<name>Theodore</name>
<state>AL</state>
<rating>5</rating>
<url>http://www.greatschools.org/city/Theodore/AL</url>
<lat>30.5437</lat>
<lon>-88.1825</lon>
<active>1</active>
</city>
<city>
<id>441667</id>
<name>Thomaston</name>
<state>AL</state>
<rating>4</rating>
<url>http://www.greatschools.org/city/Thomaston/AL</url>
<lat>32.2708</lat>
<lon>-87.6257</lon>
<active>1</active>
</city>
<city>
<id>441617</id>
<name>Thomasville</name>
<state>AL</state>
<rating>5</rating>
<url>http://www.greatschools.org/city/Thomasville/AL</url>
<lat>31.9071</lat>
<lon>-87.7407</lon>
<active>1</active>
</city>
<city>
<id>441776</id>
<name>Thorsby</name>
<state>AL</state>
<rating>5</rating>
<url>http://www.greatschools.org/city/Thorsby/AL</url>
<lat>32.916</lat>
<lon>-86.7129</lon>
<active>1</active>
</city>
<city>
<id>441549</id>
<name>Toney</name>
<state>AL</state>
<rating>7</rating>
<url>http://www.greatschools.org/city/Toney/AL</url>
<lat>34.8836</lat>
<lon>-86.7341</lon>
<active>1</active>
</city>
<city>
<id>441681</id>
<name>Town Creek</name>
<state>AL</state>
<rating>6</rating>
<url>http://www.greatschools.org/city/Town_Creek/AL</url>
<lat>34.6774</lat>
<lon>-87.407</lon>
<active>1</active>
</city>
<city>
<id>441603</id>
<name>Townley</name>
<state>AL</state>
<rating/>
<url>http://www.greatschools.org/city/Townley/AL</url>
<lat>33.8157</lat>
<lon>-87.4404</lon>
<active>1</active>
</city>
<city>
<id>441577</id>
<name>Toxey</name>
<state>AL</state>
<rating/>
<url>http://www.greatschools.org/city/Toxey/AL</url>
<lat>31.911</lat>
<lon>-88.309</lon>
<active>1</active>
</city>
<city>
<id>441439</id>
<name>Trinity</name>
<state>AL</state>
<rating>6</rating>
<url>http://www.greatschools.org/city/Trinity/AL</url>
<lat>34.5992</lat>
<lon>-87.0846</lon>
<active>1</active>
</city>
<city>
<id>441526</id>
<name>Troy</name>
<state>AL</state>
<rating/>
<url>http://www.greatschools.org/city/Troy/AL</url>
<lat>31.8006</lat>
<lon>-85.9655</lon>
<active>1</active>
</city>
<city>
<id>441431</id>
<name>Trussville</name>
<state>AL</state>
<rating>8</rating>
<url>http://www.greatschools.org/city/Trussville/AL</url>
<lat>33.6232</lat>
<lon>-86.5993</lon>
<active>1</active>
</city>
<city>
<id>441470</id>
<name>Tuscaloosa</name>
<state>AL</state>
<rating>5</rating>
<url>http://www.greatschools.org/city/Tuscaloosa/AL</url>
<lat>33.1979</lat>
<lon>-87.5344</lon>
<active>1</active>
</city>
<city>
<id>441432</id>
<name>Tuscumbia</name>
<state>AL</state>
<rating>6</rating>
<url>http://www.greatschools.org/city/Tuscumbia/AL</url>
<lat>34.7296</lat>
<lon>-87.7023</lon>
<active>1</active>
</city>
<city>
<id>441446</id>
<name>Tuskegee</name>
<state>AL</state>
<rating>3</rating>
<url>http://www.greatschools.org/city/Tuskegee/AL</url>
<lat>32.4217</lat>
<lon>-85.7038</lon>
<active>1</active>
</city>
<city>
<id>444694</id>
<name>TUSKEGEE INST</name>
<state>AL</state>
<rating/>
<url>http://www.greatschools.org/city/TUSKEGEE_INST/AL</url>
<lat>32.4245</lat>
<lon>-85.7137</lon>
<active>1</active>
</city>
<city>
<id>445950</id>
<name>Tuskegee Institute</name>
<state>AL</state>
<rating>2</rating>
<url>http://www.greatschools.org/city/Tuskegee_Institute/AL</url>
<lat>32.4318</lat>
<lon>-85.7184</lon>
<active>1</active>
</city>
<city>
<id>441808</id>
<name>Union Grove</name>
<state>AL</state>
<rating/>
<url>http://www.greatschools.org/city/Union_Grove/AL</url>
<lat>34.4033</lat>
<lon>-86.4491</lon>
<active>1</active>
</city>
<city>
<id>441788</id>
<name>Union Springs</name>
<state>AL</state>
<rating>3</rating>
<url>http://www.greatschools.org/city/Union_Springs/AL</url>
<lat>32.14</lat>
<lon>-85.7136</lon>
<active>1</active>
</city>
<city>
<id>441642</id>
<name>Uniontown</name>
<state>AL</state>
<rating>3</rating>
<url>http://www.greatschools.org/city/Uniontown/AL</url>
<lat>32.449</lat>
<lon>-87.5112</lon>
<active>1</active>
</city>
<city>
<id>441654</id>
<name>Uriah</name>
<state>AL</state>
<rating>6</rating>
<url>http://www.greatschools.org/city/Uriah/AL</url>
<lat>31.315</lat>
<lon>-87.5877</lon>
<active>1</active>
</city>
<city>
<id>441576</id>
<name>Valley</name>
<state>AL</state>
<rating>5</rating>
<url>http://www.greatschools.org/city/Valley/AL</url>
<lat>32.8108</lat>
<lon>-85.1768</lon>
<active>1</active>
</city>
<city>
<id>441738</id>
<name>Valley Head</name>
<state>AL</state>
<rating>4</rating>
<url>http://www.greatschools.org/city/Valley_Head/AL</url>
<lat>34.5633</lat>
<lon>-85.6168</lon>
<active>1</active>
</city>
<city>
<id>441521</id>
<name>Vance</name>
<state>AL</state>
<rating>5</rating>
<url>http://www.greatschools.org/city/Vance/AL</url>
<lat>33.1692</lat>
<lon>-87.2423</lon>
<active>1</active>
</city>
<city>
<id>441775</id>
<name>Verbena</name>
<state>AL</state>
<rating>4</rating>
<url>http://www.greatschools.org/city/Verbena/AL</url>
<lat>32.7562</lat>
<lon>-86.5349</lon>
<active>1</active>
</city>
<city>
<id>441524</id>
<name>Vernon</name>
<state>AL</state>
<rating>6</rating>
<url>http://www.greatschools.org/city/Vernon/AL</url>
<lat>33.7587</lat>
<lon>-88.1158</lon>
<active>1</active>
</city>
<city>
<id>441482</id>
<name>Vestavia Hills</name>
<state>AL</state>
<rating>8</rating>
<url>http://www.greatschools.org/city/Vestavia_Hills/AL</url>
<lat>33.4334</lat>
<lon>-86.7819</lon>
<active>1</active>
</city>
<city>
<id>441722</id>
<name>Vina</name>
<state>AL</state>
<rating>7</rating>
<url>http://www.greatschools.org/city/Vina/AL</url>
<lat>34.3716</lat>
<lon>-88.0567</lon>
<active>1</active>
</city>
<city>
<id>441631</id>
<name>Vincent</name>
<state>AL</state>
<rating>5</rating>
<url>http://www.greatschools.org/city/Vincent/AL</url>
<lat>33.3887</lat>
<lon>-86.4162</lon>
<active>1</active>
</city>
<city>
<id>441423</id>
<name>Vinemont</name>
<state>AL</state>
<rating>7</rating>
<url>http://www.greatschools.org/city/Vinemont/AL</url>
<lat>34.2644</lat>
<lon>-86.9201</lon>
<active>1</active>
</city>
<city>
<id>441635</id>
<name>Wadley</name>
<state>AL</state>
<rating>5</rating>
<url>http://www.greatschools.org/city/Wadley/AL</url>
<lat>33.1248</lat>
<lon>-85.5704</lon>
<active>1</active>
</city>
<city>
<id>441730</id>
<name>Walnut Grove</name>
<state>AL</state>
<rating>5</rating>
<url>http://www.greatschools.org/city/Walnut_Grove/AL</url>
<lat>34.0653</lat>
<lon>-86.2933</lon>
<active>1</active>
</city>
<city>
<id>441690</id>
<name>Warrior</name>
<state>AL</state>
<rating>6</rating>
<url>http://www.greatschools.org/city/Warrior/AL</url>
<lat>33.8129</lat>
<lon>-86.8122</lon>
<active>1</active>
</city>
<city>
<id>441683</id>
<name>Waterloo</name>
<state>AL</state>
<rating>4</rating>
<url>http://www.greatschools.org/city/Waterloo/AL</url>
<lat>34.917</lat>
<lon>-88.0649</lon>
<active>1</active>
</city>
<city>
<id>441785</id>
<name>Weaver</name>
<state>AL</state>
<rating>6</rating>
<url>http://www.greatschools.org/city/Weaver/AL</url>
<lat>33.7563</lat>
<lon>-85.8118</lon>
<active>1</active>
</city>
<city>
<id>441709</id>
<name>Webb</name>
<state>AL</state>
<rating>6</rating>
<url>http://www.greatschools.org/city/Webb/AL</url>
<lat>31.2574</lat>
<lon>-85.2853</lon>
<active>1</active>
</city>
<city>
<id>441558</id>
<name>Wedowee</name>
<state>AL</state>
<rating/>
<url>http://www.greatschools.org/city/Wedowee/AL</url>
<lat>33.307</lat>
<lon>-85.4851</lon>
<active>1</active>
</city>
<city>
<id>441467</id>
<name>West Blocton</name>
<state>AL</state>
<rating>6</rating>
<url>http://www.greatschools.org/city/West_Blocton/AL</url>
<lat>33.1208</lat>
<lon>-87.1249</lon>
<active>1</active>
</city>
<city>
<id>441735</id>
<name>Wetumpka</name>
<state>AL</state>
<rating>7</rating>
<url>http://www.greatschools.org/city/Wetumpka/AL</url>
<lat>32.5464</lat>
<lon>-86.2058</lon>
<active>1</active>
</city>
<city>
<id>441977</id>
<name>Whistler</name>
<state>AL</state>
<rating/>
<url>http://www.greatschools.org/city/Whistler/AL</url>
<lat>30.756</lat>
<lon>-88.1035</lon>
<active>1</active>
</city>
<city>
<id>441523</id>
<name>Wilmer</name>
<state>AL</state>
<rating>8</rating>
<url>http://www.greatschools.org/city/Wilmer/AL</url>
<lat>30.8162</lat>
<lon>-88.3291</lon>
<active>1</active>
</city>
<city>
<id>441630</id>
<name>Wilsonville</name>
<state>AL</state>
<rating>7</rating>
<url>http://www.greatschools.org/city/Wilsonville/AL</url>
<lat>33.2283</lat>
<lon>-86.486</lon>
<active>1</active>
</city>
<city>
<id>441595</id>
<name>Winfield</name>
<state>AL</state>
<rating>9</rating>
<url>http://www.greatschools.org/city/Winfield/AL</url>
<lat>33.9292</lat>
<lon>-87.8109</lon>
<active>1</active>
</city>
<city>
<id>441634</id>
<name>Woodland</name>
<state>AL</state>
<rating>4</rating>
<url>http://www.greatschools.org/city/Woodland/AL</url>
<lat>33.3743</lat>
<lon>-85.3974</lon>
<active>1</active>
</city>
<city>
<id>441792</id>
<name>Woodstock</name>
<state>AL</state>
<rating>5</rating>
<url>http://www.greatschools.org/city/Woodstock/AL</url>
<lat>33.1888</lat>
<lon>-87.1525</lon>
<active>1</active>
</city>
<city>
<id>441702</id>
<name>Woodville</name>
<state>AL</state>
<rating>5</rating>
<url>http://www.greatschools.org/city/Woodville/AL</url>
<lat>34.6257</lat>
<lon>-86.2757</lon>
<active>1</active>
</city>
<city>
<id>441594</id>
<name>York</name>
<state>AL</state>
<rating>2</rating>
<url>http://www.greatschools.org/city/York/AL</url>
<lat>32.4923</lat>
<lon>-88.2985</lon>
<active>1</active>
</city>
</greatschools-city-feed>
