<?xml version="1.0" encoding="utf-8"?><greatschools-city-feed xmlns:xsi="http://www.w3.org/2001/XMLSchema-instance" xsi:noNamespaceSchemaLocation="http://www.greatschools.org/feeds/greatschools-city2.xsd">
<city>
<id>409988</id>
<name>Abington</name>
<state>MA</state>
<rating>5</rating>
<url>http://www.greatschools.org/city/Abington/MA</url>
<lat>42.1174</lat>
<lon>-70.9545</lon>
<active>1</active>
</city>
<city>
<id>410045</id>
<name>Acton</name>
<state>MA</state>
<rating>9</rating>
<url>http://www.greatschools.org/city/Acton/MA</url>
<lat>42.48</lat>
<lon>-71.4431</lon>
<active>1</active>
</city>
<city>
<id>409991</id>
<name>Acushnet</name>
<state>MA</state>
<rating>7</rating>
<url>http://www.greatschools.org/city/Acushnet/MA</url>
<lat>41.7012</lat>
<lon>-70.9074</lon>
<active>1</active>
</city>
<city>
<id>409958</id>
<name>Adams</name>
<state>MA</state>
<rating>4</rating>
<url>http://www.greatschools.org/city/Adams/MA</url>
<lat>42.626</lat>
<lon>-73.1168</lon>
<active>1</active>
</city>
<city>
<id>410337</id>
<name>Agawam</name>
<state>MA</state>
<rating>4</rating>
<url>http://www.greatschools.org/city/Agawam/MA</url>
<lat>42.0701</lat>
<lon>-72.6444</lon>
<active>1</active>
</city>
<city>
<id>410138</id>
<name>Allston</name>
<state>MA</state>
<rating>2</rating>
<url>http://www.greatschools.org/city/Allston/MA</url>
<lat>42.3533</lat>
<lon>-71.1323</lon>
<active>1</active>
</city>
<city>
<id>410128</id>
<name>Amesbury</name>
<state>MA</state>
<rating>7</rating>
<url>http://www.greatschools.org/city/Amesbury/MA</url>
<lat>42.8577</lat>
<lon>-70.9311</lon>
<active>1</active>
</city>
<city>
<id>410041</id>
<name>Amherst</name>
<state>MA</state>
<rating>7</rating>
<url>http://www.greatschools.org/city/Amherst/MA</url>
<lat>42.3751</lat>
<lon>-72.5135</lon>
<active>1</active>
</city>
<city>
<id>410073</id>
<name>Andover</name>
<state>MA</state>
<rating>8</rating>
<url>http://www.greatschools.org/city/Andover/MA</url>
<lat>42.6585</lat>
<lon>-71.1406</lon>
<active>1</active>
</city>
<city>
<id>410001</id>
<name>Arlington</name>
<state>MA</state>
<rating>8</rating>
<url>http://www.greatschools.org/city/Arlington/MA</url>
<lat>42.4171</lat>
<lon>-71.162</lon>
<active>1</active>
</city>
<city>
<id>410210</id>
<name>Ashburnham</name>
<state>MA</state>
<rating>6</rating>
<url>http://www.greatschools.org/city/Ashburnham/MA</url>
<lat>42.6505</lat>
<lon>-71.9277</lon>
<active>1</active>
</city>
<city>
<id>410112</id>
<name>Ashby</name>
<state>MA</state>
<rating>6</rating>
<url>http://www.greatschools.org/city/Ashby/MA</url>
<lat>42.6744</lat>
<lon>-71.8161</lon>
<active>1</active>
</city>
<city>
<id>410276</id>
<name>Ashfield</name>
<state>MA</state>
<rating>4</rating>
<url>http://www.greatschools.org/city/Ashfield/MA</url>
<lat>42.524</lat>
<lon>-72.8088</lon>
<active>1</active>
</city>
<city>
<id>410018</id>
<name>Ashland</name>
<state>MA</state>
<rating>8</rating>
<url>http://www.greatschools.org/city/Ashland/MA</url>
<lat>42.2546</lat>
<lon>-71.4576</lon>
<active>1</active>
</city>
<city>
<id>442438</id>
<name>Assonet</name>
<state>MA</state>
<rating/>
<url>http://www.greatschools.org/city/Assonet/MA</url>
<lat>41.7967</lat>
<lon>-71.0615</lon>
<active>1</active>
</city>
<city>
<id>410336</id>
<name>Athol</name>
<state>MA</state>
<rating>3</rating>
<url>http://www.greatschools.org/city/Athol/MA</url>
<lat>42.5927</lat>
<lon>-72.2275</lon>
<active>1</active>
</city>
<city>
<id>410022</id>
<name>Attleboro</name>
<state>MA</state>
<rating>6</rating>
<url>http://www.greatschools.org/city/Attleboro/MA</url>
<lat>41.929</lat>
<lon>-71.3017</lon>
<active>1</active>
</city>
<city>
<id>410153</id>
<name>Auburn</name>
<state>MA</state>
<rating>6</rating>
<url>http://www.greatschools.org/city/Auburn/MA</url>
<lat>42.2048</lat>
<lon>-71.8387</lon>
<active>1</active>
</city>
<city>
<id>410269</id>
<name>Auburndale</name>
<state>MA</state>
<rating>10</rating>
<url>http://www.greatschools.org/city/Auburndale/MA</url>
<lat>42.3462</lat>
<lon>-71.2466</lon>
<active>1</active>
</city>
<city>
<id>410105</id>
<name>Avon</name>
<state>MA</state>
<rating>6</rating>
<url>http://www.greatschools.org/city/Avon/MA</url>
<lat>42.1254</lat>
<lon>-71.0428</lon>
<active>1</active>
</city>
<city>
<id>410334</id>
<name>Ayer</name>
<state>MA</state>
<rating/>
<url>http://www.greatschools.org/city/Ayer/MA</url>
<lat>42.561</lat>
<lon>-71.5848</lon>
<active>1</active>
</city>
<city>
<id>410055</id>
<name>Baldwinville</name>
<state>MA</state>
<rating>5</rating>
<url>http://www.greatschools.org/city/Baldwinville/MA</url>
<lat>42.609</lat>
<lon>-72.0756</lon>
<active>1</active>
</city>
<city>
<id>410208</id>
<name>Barnstable</name>
<state>MA</state>
<rating/>
<url>http://www.greatschools.org/city/Barnstable/MA</url>
<lat>41.6997</lat>
<lon>-70.2945</lon>
<active>1</active>
</city>
<city>
<id>446071</id>
<name>Barnstable County</name>
<state>MA</state>
<rating/>
<url>http://www.greatschools.org/city/Barnstable_County/MA</url>
<lat>41.7438</lat>
<lon>-70.5354</lon>
<active>1</active>
</city>
<city>
<id>409948</id>
<name>Barre</name>
<state>MA</state>
<rating>6</rating>
<url>http://www.greatschools.org/city/Barre/MA</url>
<lat>42.4229</lat>
<lon>-72.1046</lon>
<active>1</active>
</city>
<city>
<id>410323</id>
<name>Becket</name>
<state>MA</state>
<rating>8</rating>
<url>http://www.greatschools.org/city/Becket/MA</url>
<lat>42.3375</lat>
<lon>-73.0989</lon>
<active>1</active>
</city>
<city>
<id>410142</id>
<name>Bedford</name>
<state>MA</state>
<rating>8</rating>
<url>http://www.greatschools.org/city/Bedford/MA</url>
<lat>42.4955</lat>
<lon>-71.2772</lon>
<active>1</active>
</city>
<city>
<id>409977</id>
<name>Belchertown</name>
<state>MA</state>
<rating>6</rating>
<url>http://www.greatschools.org/city/Belchertown/MA</url>
<lat>42.28</lat>
<lon>-72.4052</lon>
<active>1</active>
</city>
<city>
<id>410136</id>
<name>Bellingham</name>
<state>MA</state>
<rating>5</rating>
<url>http://www.greatschools.org/city/Bellingham/MA</url>
<lat>42.0955</lat>
<lon>-71.4775</lon>
<active>1</active>
</city>
<city>
<id>410066</id>
<name>Belmont</name>
<state>MA</state>
<rating>9</rating>
<url>http://www.greatschools.org/city/Belmont/MA</url>
<lat>42.3899</lat>
<lon>-71.1741</lon>
<active>1</active>
</city>
<city>
<id>410111</id>
<name>Berkley</name>
<state>MA</state>
<rating>3</rating>
<url>http://www.greatschools.org/city/Berkley/MA</url>
<lat>41.8358</lat>
<lon>-71.079</lon>
<active>1</active>
</city>
<city>
<id>410331</id>
<name>Berlin</name>
<state>MA</state>
<rating>4</rating>
<url>http://www.greatschools.org/city/Berlin/MA</url>
<lat>42.384</lat>
<lon>-71.636</lon>
<active>1</active>
</city>
<city>
<id>410119</id>
<name>Bernardston</name>
<state>MA</state>
<rating>5</rating>
<url>http://www.greatschools.org/city/Bernardston/MA</url>
<lat>42.6852</lat>
<lon>-72.5669</lon>
<active>1</active>
</city>
<city>
<id>409999</id>
<name>Beverly</name>
<state>MA</state>
<rating>6</rating>
<url>http://www.greatschools.org/city/Beverly/MA</url>
<lat>42.5616</lat>
<lon>-70.8745</lon>
<active>1</active>
</city>
<city>
<id>410247</id>
<name>Billerica</name>
<state>MA</state>
<rating>5</rating>
<url>http://www.greatschools.org/city/Billerica/MA</url>
<lat>42.5515</lat>
<lon>-71.2515</lon>
<active>1</active>
</city>
<city>
<id>410329</id>
<name>Blackstone</name>
<state>MA</state>
<rating>5</rating>
<url>http://www.greatschools.org/city/Blackstone/MA</url>
<lat>42.0299</lat>
<lon>-71.5275</lon>
<active>1</active>
</city>
<city>
<id>410306</id>
<name>Blandford</name>
<state>MA</state>
<rating/>
<url>http://www.greatschools.org/city/Blandford/MA</url>
<lat>42.1789</lat>
<lon>-72.9383</lon>
<active>1</active>
</city>
<city>
<id>410272</id>
<name>Bolton</name>
<state>MA</state>
<rating>7</rating>
<url>http://www.greatschools.org/city/Bolton/MA</url>
<lat>42.4375</lat>
<lon>-71.6069</lon>
<active>1</active>
</city>
<city>
<id>409978</id>
<name>Boston</name>
<state>MA</state>
<rating>4</rating>
<url>http://www.greatschools.org/city/Boston/MA</url>
<lat>42.3217</lat>
<lon>-71.0904</lon>
<active>1</active>
</city>
<city>
<id>410165</id>
<name>Bourne</name>
<state>MA</state>
<rating>5</rating>
<url>http://www.greatschools.org/city/Bourne/MA</url>
<lat>41.7362</lat>
<lon>-70.6066</lon>
<active>1</active>
</city>
<city>
<id>444296</id>
<name>Bournedale</name>
<state>MA</state>
<rating>5</rating>
<url>http://www.greatschools.org/city/Bournedale/MA</url>
<lat>41.7754</lat>
<lon>-70.5623</lon>
<active>1</active>
</city>
<city>
<id>410328</id>
<name>Boxborough</name>
<state>MA</state>
<rating>10</rating>
<url>http://www.greatschools.org/city/Boxborough/MA</url>
<lat>42.4857</lat>
<lon>-71.5172</lon>
<active>1</active>
</city>
<city>
<id>410185</id>
<name>Boxford</name>
<state>MA</state>
<rating>9</rating>
<url>http://www.greatschools.org/city/Boxford/MA</url>
<lat>42.6711</lat>
<lon>-70.9852</lon>
<active>1</active>
</city>
<city>
<id>410327</id>
<name>Boylston</name>
<state>MA</state>
<rating>8</rating>
<url>http://www.greatschools.org/city/Boylston/MA</url>
<lat>42.3394</lat>
<lon>-71.7285</lon>
<active>1</active>
</city>
<city>
<id>410100</id>
<name>Bradford</name>
<state>MA</state>
<rating>8</rating>
<url>http://www.greatschools.org/city/Bradford/MA</url>
<lat>42.7641</lat>
<lon>-71.0891</lon>
<active>1</active>
</city>
<city>
<id>410067</id>
<name>Braintree</name>
<state>MA</state>
<rating>8</rating>
<url>http://www.greatschools.org/city/Braintree/MA</url>
<lat>42.2087</lat>
<lon>-70.9956</lon>
<active>1</active>
</city>
<city>
<id>409997</id>
<name>Brewster</name>
<state>MA</state>
<rating>7</rating>
<url>http://www.greatschools.org/city/Brewster/MA</url>
<lat>41.7607</lat>
<lon>-70.0816</lon>
<active>1</active>
</city>
<city>
<id>410178</id>
<name>Bridgewater</name>
<state>MA</state>
<rating>6</rating>
<url>http://www.greatschools.org/city/Bridgewater/MA</url>
<lat>41.9899</lat>
<lon>-70.971</lon>
<active>1</active>
</city>
<city>
<id>410114</id>
<name>Brighton</name>
<state>MA</state>
<rating>4</rating>
<url>http://www.greatschools.org/city/Brighton/MA</url>
<lat>42.347</lat>
<lon>-71.1527</lon>
<active>1</active>
</city>
<city>
<id>410326</id>
<name>Brimfield</name>
<state>MA</state>
<rating>8</rating>
<url>http://www.greatschools.org/city/Brimfield/MA</url>
<lat>42.1315</lat>
<lon>-72.2025</lon>
<active>1</active>
</city>
<city>
<id>409974</id>
<name>Brockton</name>
<state>MA</state>
<rating>4</rating>
<url>http://www.greatschools.org/city/Brockton/MA</url>
<lat>42.0839</lat>
<lon>-71.0223</lon>
<active>1</active>
</city>
<city>
<id>410325</id>
<name>Brookfield</name>
<state>MA</state>
<rating>8</rating>
<url>http://www.greatschools.org/city/Brookfield/MA</url>
<lat>42.1968</lat>
<lon>-72.101</lon>
<active>1</active>
</city>
<city>
<id>409998</id>
<name>Brookline</name>
<state>MA</state>
<rating>8</rating>
<url>http://www.greatschools.org/city/Brookline/MA</url>
<lat>42.3352</lat>
<lon>-71.1286</lon>
<active>1</active>
</city>
<city>
<id>410023</id>
<name>Burlington</name>
<state>MA</state>
<rating>6</rating>
<url>http://www.greatschools.org/city/Burlington/MA</url>
<lat>42.5092</lat>
<lon>-71.1998</lon>
<active>1</active>
</city>
<city>
<id>410181</id>
<name>Buzzards Bay</name>
<state>MA</state>
<rating/>
<url>http://www.greatschools.org/city/Buzzards_Bay/MA</url>
<lat>41.7511</lat>
<lon>-70.6143</lon>
<active>1</active>
</city>
<city>
<id>410167</id>
<name>Byfield</name>
<state>MA</state>
<rating>6</rating>
<url>http://www.greatschools.org/city/Byfield/MA</url>
<lat>42.7563</lat>
<lon>-70.9291</lon>
<active>1</active>
</city>
<city>
<id>409946</id>
<name>Cambridge</name>
<state>MA</state>
<rating>6</rating>
<url>http://www.greatschools.org/city/Cambridge/MA</url>
<lat>42.3742</lat>
<lon>-71.1129</lon>
<active>1</active>
</city>
<city>
<id>410017</id>
<name>Canton</name>
<state>MA</state>
<rating>7</rating>
<url>http://www.greatschools.org/city/Canton/MA</url>
<lat>42.1652</lat>
<lon>-71.1331</lon>
<active>1</active>
</city>
<city>
<id>410324</id>
<name>Carlisle</name>
<state>MA</state>
<rating>10</rating>
<url>http://www.greatschools.org/city/Carlisle/MA</url>
<lat>42.5297</lat>
<lon>-71.352</lon>
<active>1</active>
</city>
<city>
<id>410028</id>
<name>Carver</name>
<state>MA</state>
<rating>4</rating>
<url>http://www.greatschools.org/city/Carver/MA</url>
<lat>41.8861</lat>
<lon>-70.7676</lon>
<active>1</active>
</city>
<city>
<id>410333</id>
<name>Centerville</name>
<state>MA</state>
<rating>6</rating>
<url>http://www.greatschools.org/city/Centerville/MA</url>
<lat>41.6608</lat>
<lon>-70.3496</lon>
<active>1</active>
</city>
<city>
<id>410195</id>
<name>Charlemont</name>
<state>MA</state>
<rating>2</rating>
<url>http://www.greatschools.org/city/Charlemont/MA</url>
<lat>42.6219</lat>
<lon>-72.8775</lon>
<active>1</active>
</city>
<city>
<id>410038</id>
<name>Charlestown</name>
<state>MA</state>
<rating>3</rating>
<url>http://www.greatschools.org/city/Charlestown/MA</url>
<lat>42.3778</lat>
<lon>-71.0615</lon>
<active>1</active>
</city>
<city>
<id>410163</id>
<name>Charlton</name>
<state>MA</state>
<rating>6</rating>
<url>http://www.greatschools.org/city/Charlton/MA</url>
<lat>42.1385</lat>
<lon>-71.9635</lon>
<active>1</active>
</city>
<city>
<id>410097</id>
<name>Chatham</name>
<state>MA</state>
<rating/>
<url>http://www.greatschools.org/city/Chatham/MA</url>
<lat>41.6837</lat>
<lon>-69.9621</lon>
<active>1</active>
</city>
<city>
<id>410109</id>
<name>Chelmsford</name>
<state>MA</state>
<rating>8</rating>
<url>http://www.greatschools.org/city/Chelmsford/MA</url>
<lat>42.5934</lat>
<lon>-71.3571</lon>
<active>1</active>
</city>
<city>
<id>409951</id>
<name>Chelsea</name>
<state>MA</state>
<rating>2</rating>
<url>http://www.greatschools.org/city/Chelsea/MA</url>
<lat>42.3962</lat>
<lon>-71.0318</lon>
<active>1</active>
</city>
<city>
<id>445065</id>
<name>Chepachet</name>
<state>MA</state>
<rating/>
<url>http://www.greatschools.org/city/Chepachet/MA</url>
<lat>41.8728</lat>
<lon>-71.7396</lon>
<active>1</active>
</city>
<city>
<id>442435</id>
<name>Cherry Valley</name>
<state>MA</state>
<rating/>
<url>http://www.greatschools.org/city/Cherry_Valley/MA</url>
<lat>42.2365</lat>
<lon>-71.8738</lon>
<active>1</active>
</city>
<city>
<id>410338</id>
<name>Cheshire</name>
<state>MA</state>
<rating>3</rating>
<url>http://www.greatschools.org/city/Cheshire/MA</url>
<lat>42.5622</lat>
<lon>-73.1541</lon>
<active>1</active>
</city>
<city>
<id>410305</id>
<name>Chester</name>
<state>MA</state>
<rating>3</rating>
<url>http://www.greatschools.org/city/Chester/MA</url>
<lat>42.2753</lat>
<lon>-73.0081</lon>
<active>1</active>
</city>
<city>
<id>410341</id>
<name>Chesterfield</name>
<state>MA</state>
<rating>8</rating>
<url>http://www.greatschools.org/city/Chesterfield/MA</url>
<lat>42.372</lat>
<lon>-72.8312</lon>
<active>1</active>
</city>
<city>
<id>410099</id>
<name>Chestnut Hill</name>
<state>MA</state>
<rating>10</rating>
<url>http://www.greatschools.org/city/Chestnut_Hill/MA</url>
<lat>42.3182</lat>
<lon>-71.1639</lon>
<active>1</active>
</city>
<city>
<id>410044</id>
<name>Chicopee</name>
<state>MA</state>
<rating>3</rating>
<url>http://www.greatschools.org/city/Chicopee/MA</url>
<lat>42.1711</lat>
<lon>-72.5885</lon>
<active>1</active>
</city>
<city>
<id>410339</id>
<name>Chilmark</name>
<state>MA</state>
<rating/>
<url>http://www.greatschools.org/city/Chilmark/MA</url>
<lat>41.3551</lat>
<lon>-70.7481</lon>
<active>1</active>
</city>
<city>
<id>410321</id>
<name>Clarksburg</name>
<state>MA</state>
<rating>3</rating>
<url>http://www.greatschools.org/city/Clarksburg/MA</url>
<lat>42.7411</lat>
<lon>-73.1163</lon>
<active>1</active>
</city>
<city>
<id>410213</id>
<name>Clinton</name>
<state>MA</state>
<rating>4</rating>
<url>http://www.greatschools.org/city/Clinton/MA</url>
<lat>42.419</lat>
<lon>-71.6847</lon>
<active>1</active>
</city>
<city>
<id>410014</id>
<name>Cohasset</name>
<state>MA</state>
<rating>8</rating>
<url>http://www.greatschools.org/city/Cohasset/MA</url>
<lat>42.2396</lat>
<lon>-70.8124</lon>
<active>1</active>
</city>
<city>
<id>410278</id>
<name>Colrain</name>
<state>MA</state>
<rating>1</rating>
<url>http://www.greatschools.org/city/Colrain/MA</url>
<lat>42.6813</lat>
<lon>-72.7252</lon>
<active>1</active>
</city>
<city>
<id>410202</id>
<name>Concord</name>
<state>MA</state>
<rating>9</rating>
<url>http://www.greatschools.org/city/Concord/MA</url>
<lat>42.4575</lat>
<lon>-71.3741</lon>
<active>1</active>
</city>
<city>
<id>410320</id>
<name>Conway</name>
<state>MA</state>
<rating>4</rating>
<url>http://www.greatschools.org/city/Conway/MA</url>
<lat>42.5113</lat>
<lon>-72.699</lon>
<active>1</active>
</city>
<city>
<id>410332</id>
<name>Cotuit</name>
<state>MA</state>
<rating/>
<url>http://www.greatschools.org/city/Cotuit/MA</url>
<lat>41.6291</lat>
<lon>-70.4393</lon>
<active>1</active>
</city>
<city>
<id>410091</id>
<name>Cummington</name>
<state>MA</state>
<rating>2</rating>
<url>http://www.greatschools.org/city/Cummington/MA</url>
<lat>42.4541</lat>
<lon>-72.9048</lon>
<active>1</active>
</city>
<city>
<id>410298</id>
<name>Cuttyhunk</name>
<state>MA</state>
<rating/>
<url>http://www.greatschools.org/city/Cuttyhunk/MA</url>
<lat>41.4798</lat>
<lon>-70.7575</lon>
<active>1</active>
</city>
<city>
<id>410217</id>
<name>Dalton</name>
<state>MA</state>
<rating>6</rating>
<url>http://www.greatschools.org/city/Dalton/MA</url>
<lat>42.4724</lat>
<lon>-73.1626</lon>
<active>1</active>
</city>
<city>
<id>410134</id>
<name>Danvers</name>
<state>MA</state>
<rating>5</rating>
<url>http://www.greatschools.org/city/Danvers/MA</url>
<lat>42.5698</lat>
<lon>-70.9423</lon>
<active>1</active>
</city>
<city>
<id>410064</id>
<name>Dartmouth</name>
<state>MA</state>
<rating>5</rating>
<url>http://www.greatschools.org/city/Dartmouth/MA</url>
<lat>41.5584</lat>
<lon>-70.9813</lon>
<active>1</active>
</city>
<city>
<id>410149</id>
<name>Dedham</name>
<state>MA</state>
<rating>6</rating>
<url>http://www.greatschools.org/city/Dedham/MA</url>
<lat>42.2446</lat>
<lon>-71.1649</lon>
<active>1</active>
</city>
<city>
<id>410209</id>
<name>Deerfield</name>
<state>MA</state>
<rating/>
<url>http://www.greatschools.org/city/Deerfield/MA</url>
<lat>42.5391</lat>
<lon>-72.6096</lon>
<active>1</active>
</city>
<city>
<id>442434</id>
<name>Dennis</name>
<state>MA</state>
<rating/>
<url>http://www.greatschools.org/city/Dennis/MA</url>
<lat>41.7314</lat>
<lon>-70.1936</lon>
<active>1</active>
</city>
<city>
<id>442433</id>
<name>Dennis Port</name>
<state>MA</state>
<rating/>
<url>http://www.greatschools.org/city/Dennis_Port/MA</url>
<lat>41.6667</lat>
<lon>-70.1333</lon>
<active>1</active>
</city>
<city>
<id>410049</id>
<name>Devens</name>
<state>MA</state>
<rating>5</rating>
<url>http://www.greatschools.org/city/Devens/MA</url>
<lat>42.5271</lat>
<lon>-71.6228</lon>
<active>1</active>
</city>
<city>
<id>410314</id>
<name>Dighton</name>
<state>MA</state>
<rating>6</rating>
<url>http://www.greatschools.org/city/Dighton/MA</url>
<lat>41.817</lat>
<lon>-71.1412</lon>
<active>1</active>
</city>
<city>
<id>409976</id>
<name>Dorchester</name>
<state>MA</state>
<rating>4</rating>
<url>http://www.greatschools.org/city/Dorchester/MA</url>
<lat>42.2878</lat>
<lon>-71.0766</lon>
<active>1</active>
</city>
<city>
<id>443848</id>
<name>Dorchester Center</name>
<state>MA</state>
<rating/>
<url>http://www.greatschools.org/city/Dorchester_Center/MA</url>
<lat>42.2743</lat>
<lon>-71.0673</lon>
<active>1</active>
</city>
<city>
<id>410063</id>
<name>Douglas</name>
<state>MA</state>
<rating>5</rating>
<url>http://www.greatschools.org/city/Douglas/MA</url>
<lat>42.0585</lat>
<lon>-71.7273</lon>
<active>1</active>
</city>
<city>
<id>410083</id>
<name>Dover</name>
<state>MA</state>
<rating>9</rating>
<url>http://www.greatschools.org/city/Dover/MA</url>
<lat>42.2449</lat>
<lon>-71.2774</lon>
<active>1</active>
</city>
<city>
<id>410086</id>
<name>Dracut</name>
<state>MA</state>
<rating>4</rating>
<url>http://www.greatschools.org/city/Dracut/MA</url>
<lat>42.6774</lat>
<lon>-71.3183</lon>
<active>1</active>
</city>
<city>
<id>410164</id>
<name>Dudley</name>
<state>MA</state>
<rating>6</rating>
<url>http://www.greatschools.org/city/Dudley/MA</url>
<lat>42.05</lat>
<lon>-71.9167</lon>
<active>1</active>
</city>
<city>
<id>410294</id>
<name>Dunstable</name>
<state>MA</state>
<rating>10</rating>
<url>http://www.greatschools.org/city/Dunstable/MA</url>
<lat>42.6735</lat>
<lon>-71.4995</lon>
<active>1</active>
</city>
<city>
<id>409985</id>
<name>Duxbury</name>
<state>MA</state>
<rating>9</rating>
<url>http://www.greatschools.org/city/Duxbury/MA</url>
<lat>42.0434</lat>
<lon>-70.6752</lon>
<active>1</active>
</city>
<city>
<id>445067</id>
<name>East Boston</name>
<state>MA</state>
<rating/>
<url>http://www.greatschools.org/city/East_Boston/MA</url>
<lat>42.3733</lat>
<lon>-71.0334</lon>
<active>1</active>
</city>
<city>
<id>410029</id>
<name>East Bridgewater</name>
<state>MA</state>
<rating>6</rating>
<url>http://www.greatschools.org/city/East_Bridgewater/MA</url>
<lat>42.0317</lat>
<lon>-70.9443</lon>
<active>1</active>
</city>
<city>
<id>410156</id>
<name>East Brookfield</name>
<state>MA</state>
<rating>2</rating>
<url>http://www.greatschools.org/city/East_Brookfield/MA</url>
<lat>42.2293</lat>
<lon>-72.0485</lon>
<active>1</active>
</city>
<city>
<id>410193</id>
<name>East Falmouth</name>
<state>MA</state>
<rating>2</rating>
<url>http://www.greatschools.org/city/East_Falmouth/MA</url>
<lat>41.5721</lat>
<lon>-70.5548</lon>
<active>1</active>
</city>
<city>
<id>410121</id>
<name>East Freetown</name>
<state>MA</state>
<rating/>
<url>http://www.greatschools.org/city/East_Freetown/MA</url>
<lat>41.7619</lat>
<lon>-70.9652</lon>
<active>1</active>
</city>
<city>
<id>410031</id>
<name>East Longmeadow</name>
<state>MA</state>
<rating>6</rating>
<url>http://www.greatschools.org/city/East_Longmeadow/MA</url>
<lat>42.0661</lat>
<lon>-72.5029</lon>
<active>1</active>
</city>
<city>
<id>442430</id>
<name>East Orleans</name>
<state>MA</state>
<rating/>
<url>http://www.greatschools.org/city/East_Orleans/MA</url>
<lat>41.7795</lat>
<lon>-69.9808</lon>
<active>1</active>
</city>
<city>
<id>410004</id>
<name>East Sandwich</name>
<state>MA</state>
<rating>7</rating>
<url>http://www.greatschools.org/city/East_Sandwich/MA</url>
<lat>41.7359</lat>
<lon>-70.4368</lon>
<active>1</active>
</city>
<city>
<id>410242</id>
<name>East Taunton</name>
<state>MA</state>
<rating>5</rating>
<url>http://www.greatschools.org/city/East_Taunton/MA</url>
<lat>41.8704</lat>
<lon>-71.0181</lon>
<active>1</active>
</city>
<city>
<id>410274</id>
<name>East Templeton</name>
<state>MA</state>
<rating/>
<url>http://www.greatschools.org/city/East_Templeton/MA</url>
<lat>42.552</lat>
<lon>-72.0628</lon>
<active>1</active>
</city>
<city>
<id>410011</id>
<name>East Walpole</name>
<state>MA</state>
<rating>7</rating>
<url>http://www.greatschools.org/city/East_Walpole/MA</url>
<lat>42.154</lat>
<lon>-71.2168</lon>
<active>1</active>
</city>
<city>
<id>410233</id>
<name>East Wareham</name>
<state>MA</state>
<rating/>
<url>http://www.greatschools.org/city/East_Wareham/MA</url>
<lat>41.771</lat>
<lon>-70.6512</lon>
<active>1</active>
</city>
<city>
<id>445068</id>
<name>East Weymouth</name>
<state>MA</state>
<rating/>
<url>http://www.greatschools.org/city/East_Weymouth/MA</url>
<lat>42.2291</lat>
<lon>-70.9444</lon>
<active>1</active>
</city>
<city>
<id>410313</id>
<name>Eastham</name>
<state>MA</state>
<rating>5</rating>
<url>http://www.greatschools.org/city/Eastham/MA</url>
<lat>41.8402</lat>
<lon>-69.9849</lon>
<active>1</active>
</city>
<city>
<id>410117</id>
<name>Easthampton</name>
<state>MA</state>
<rating>4</rating>
<url>http://www.greatschools.org/city/Easthampton/MA</url>
<lat>42.2614</lat>
<lon>-72.6714</lon>
<active>1</active>
</city>
<city>
<id>410263</id>
<name>Edgartown</name>
<state>MA</state>
<rating>8</rating>
<url>http://www.greatschools.org/city/Edgartown/MA</url>
<lat>41.3892</lat>
<lon>-70.5382</lon>
<active>1</active>
</city>
<city>
<id>410311</id>
<name>Erving</name>
<state>MA</state>
<rating>6</rating>
<url>http://www.greatschools.org/city/Erving/MA</url>
<lat>42.6101</lat>
<lon>-72.4209</lon>
<active>1</active>
</city>
<city>
<id>410166</id>
<name>Essex</name>
<state>MA</state>
<rating>7</rating>
<url>http://www.greatschools.org/city/Essex/MA</url>
<lat>42.631</lat>
<lon>-70.7773</lon>
<active>1</active>
</city>
<city>
<id>409935</id>
<name>Everett</name>
<state>MA</state>
<rating>3</rating>
<url>http://www.greatschools.org/city/Everett/MA</url>
<lat>42.4112</lat>
<lon>-71.051</lon>
<active>1</active>
</city>
<city>
<id>410020</id>
<name>Fairhaven</name>
<state>MA</state>
<rating>5</rating>
<url>http://www.greatschools.org/city/Fairhaven/MA</url>
<lat>41.6411</lat>
<lon>-70.8882</lon>
<active>1</active>
</city>
<city>
<id>409973</id>
<name>Fall River</name>
<state>MA</state>
<rating>4</rating>
<url>http://www.greatschools.org/city/Fall_River/MA</url>
<lat>41.6993</lat>
<lon>-71.1488</lon>
<active>1</active>
</city>
<city>
<id>410309</id>
<name>Falmouth</name>
<state>MA</state>
<rating>7</rating>
<url>http://www.greatschools.org/city/Falmouth/MA</url>
<lat>41.5522</lat>
<lon>-70.6099</lon>
<active>1</active>
</city>
<city>
<id>445069</id>
<name>Fayville</name>
<state>MA</state>
<rating/>
<url>http://www.greatschools.org/city/Fayville/MA</url>
<lat>42.2954</lat>
<lon>-71.5055</lon>
<active>1</active>
</city>
<city>
<id>410129</id>
<name>Feeding Hills</name>
<state>MA</state>
<rating>6</rating>
<url>http://www.greatschools.org/city/Feeding_Hills/MA</url>
<lat>42.0708</lat>
<lon>-72.6752</lon>
<active>1</active>
</city>
<city>
<id>410243</id>
<name>Fiskdale</name>
<state>MA</state>
<rating>5</rating>
<url>http://www.greatschools.org/city/Fiskdale/MA</url>
<lat>42.1216</lat>
<lon>-72.1082</lon>
<active>1</active>
</city>
<city>
<id>409936</id>
<name>Fitchburg</name>
<state>MA</state>
<rating>4</rating>
<url>http://www.greatschools.org/city/Fitchburg/MA</url>
<lat>42.5796</lat>
<lon>-71.8033</lon>
<active>1</active>
</city>
<city>
<id>410264</id>
<name>Florence</name>
<state>MA</state>
<rating>4</rating>
<url>http://www.greatschools.org/city/Florence/MA</url>
<lat>42.3255</lat>
<lon>-72.6792</lon>
<active>1</active>
</city>
<city>
<id>410308</id>
<name>Florida</name>
<state>MA</state>
<rating>3</rating>
<url>http://www.greatschools.org/city/Florida/MA</url>
<lat>42.6948</lat>
<lon>-73.0502</lon>
<active>1</active>
</city>
<city>
<id>410249</id>
<name>Forestdale</name>
<state>MA</state>
<rating>7</rating>
<url>http://www.greatschools.org/city/Forestdale/MA</url>
<lat>41.6838</lat>
<lon>-70.5103</lon>
<active>1</active>
</city>
<city>
<id>410076</id>
<name>Foxborough</name>
<state>MA</state>
<rating>7</rating>
<url>http://www.greatschools.org/city/Foxborough/MA</url>
<lat>42.0653</lat>
<lon>-71.246</lon>
<active>1</active>
</city>
<city>
<id>410075</id>
<name>Framingham</name>
<state>MA</state>
<rating>5</rating>
<url>http://www.greatschools.org/city/Framingham/MA</url>
<lat>42.2993</lat>
<lon>-71.4247</lon>
<active>1</active>
</city>
<city>
<id>409972</id>
<name>Franklin</name>
<state>MA</state>
<rating>7</rating>
<url>http://www.greatschools.org/city/Franklin/MA</url>
<lat>42.0923</lat>
<lon>-71.4061</lon>
<active>1</active>
</city>
<city>
<id>410058</id>
<name>Freetown</name>
<state>MA</state>
<rating/>
<url>http://www.greatschools.org/city/Freetown/MA</url>
<lat>41.7606</lat>
<lon>-71.0163</lon>
<active>1</active>
</city>
<city>
<id>410116</id>
<name>Gardner</name>
<state>MA</state>
<rating>3</rating>
<url>http://www.greatschools.org/city/Gardner/MA</url>
<lat>42.5747</lat>
<lon>-71.9886</lon>
<active>1</active>
</city>
<city>
<id>410301</id>
<name>Georgetown</name>
<state>MA</state>
<rating>8</rating>
<url>http://www.greatschools.org/city/Georgetown/MA</url>
<lat>42.7271</lat>
<lon>-70.9815</lon>
<active>1</active>
</city>
<city>
<id>410346</id>
<name>Gilbertville</name>
<state>MA</state>
<rating>6</rating>
<url>http://www.greatschools.org/city/Gilbertville/MA</url>
<lat>42.3475</lat>
<lon>-72.1827</lon>
<active>1</active>
</city>
<city>
<id>410300</id>
<name>Gill</name>
<state>MA</state>
<rating>8</rating>
<url>http://www.greatschools.org/city/Gill/MA</url>
<lat>42.6317</lat>
<lon>-72.5204</lon>
<active>1</active>
</city>
<city>
<id>410090</id>
<name>Gloucester</name>
<state>MA</state>
<rating>5</rating>
<url>http://www.greatschools.org/city/Gloucester/MA</url>
<lat>42.621</lat>
<lon>-70.6722</lon>
<active>1</active>
</city>
<city>
<id>442429</id>
<name>Goshen</name>
<state>MA</state>
<rating/>
<url>http://www.greatschools.org/city/Goshen/MA</url>
<lat>42.4566</lat>
<lon>-72.8246</lon>
<active>1</active>
</city>
<city>
<id>410012</id>
<name>Grafton</name>
<state>MA</state>
<rating>7</rating>
<url>http://www.greatschools.org/city/Grafton/MA</url>
<lat>42.1999</lat>
<lon>-71.6856</lon>
<active>1</active>
</city>
<city>
<id>410218</id>
<name>Granby</name>
<state>MA</state>
<rating>5</rating>
<url>http://www.greatschools.org/city/Granby/MA</url>
<lat>42.2604</lat>
<lon>-72.5278</lon>
<active>1</active>
</city>
<city>
<id>410295</id>
<name>Granville</name>
<state>MA</state>
<rating/>
<url>http://www.greatschools.org/city/Granville/MA</url>
<lat>42.0694</lat>
<lon>-72.9142</lon>
<active>1</active>
</city>
<city>
<id>409950</id>
<name>Great Barrington</name>
<state>MA</state>
<rating>6</rating>
<url>http://www.greatschools.org/city/Great_Barrington/MA</url>
<lat>42.1954</lat>
<lon>-73.3622</lon>
<active>1</active>
</city>
<city>
<id>409971</id>
<name>Greenfield</name>
<state>MA</state>
<rating>4</rating>
<url>http://www.greatschools.org/city/Greenfield/MA</url>
<lat>42.5932</lat>
<lon>-72.6007</lon>
<active>1</active>
</city>
<city>
<id>410056</id>
<name>Groton</name>
<state>MA</state>
<rating>9</rating>
<url>http://www.greatschools.org/city/Groton/MA</url>
<lat>42.6097</lat>
<lon>-71.5722</lon>
<active>1</active>
</city>
<city>
<id>410157</id>
<name>Groveland</name>
<state>MA</state>
<rating>8</rating>
<url>http://www.greatschools.org/city/Groveland/MA</url>
<lat>42.753</lat>
<lon>-71.0237</lon>
<active>1</active>
</city>
<city>
<id>445070</id>
<name>Gt Barrington</name>
<state>MA</state>
<rating/>
<url>http://www.greatschools.org/city/Gt_Barrington/MA</url>
<lat>42.2022</lat>
<lon>-73.3473</lon>
<active>1</active>
</city>
<city>
<id>410188</id>
<name>Hadley</name>
<state>MA</state>
<rating>7</rating>
<url>http://www.greatschools.org/city/Hadley/MA</url>
<lat>42.3605</lat>
<lon>-72.5719</lon>
<active>1</active>
</city>
<city>
<id>410293</id>
<name>Halifax</name>
<state>MA</state>
<rating>7</rating>
<url>http://www.greatschools.org/city/Halifax/MA</url>
<lat>41.999</lat>
<lon>-70.8485</lon>
<active>1</active>
</city>
<city>
<id>410292</id>
<name>Hamilton</name>
<state>MA</state>
<rating>7</rating>
<url>http://www.greatschools.org/city/Hamilton/MA</url>
<lat>42.618</lat>
<lon>-70.8545</lon>
<active>1</active>
</city>
<city>
<id>410291</id>
<name>Hampden</name>
<state>MA</state>
<rating>3</rating>
<url>http://www.greatschools.org/city/Hampden/MA</url>
<lat>42.0655</lat>
<lon>-72.4301</lon>
<active>1</active>
</city>
<city>
<id>410290</id>
<name>Hancock</name>
<state>MA</state>
<rating/>
<url>http://www.greatschools.org/city/Hancock/MA</url>
<lat>42.5674</lat>
<lon>-73.3032</lon>
<active>1</active>
</city>
<city>
<id>410015</id>
<name>Hanover</name>
<state>MA</state>
<rating>6</rating>
<url>http://www.greatschools.org/city/Hanover/MA</url>
<lat>42.1232</lat>
<lon>-70.8589</lon>
<active>1</active>
</city>
<city>
<id>446072</id>
<name>Hanscom Air Force Bs</name>
<state>MA</state>
<rating/>
<url>http://www.greatschools.org/city/Hanscom_Air_Force_Bs/MA</url>
<lat>42.4564</lat>
<lon>-71.2769</lon>
<active>1</active>
</city>
<city>
<id>410054</id>
<name>Hanson</name>
<state>MA</state>
<rating>5</rating>
<url>http://www.greatschools.org/city/Hanson/MA</url>
<lat>42.0688</lat>
<lon>-70.8528</lon>
<active>1</active>
</city>
<city>
<id>410135</id>
<name>Hardwick</name>
<state>MA</state>
<rating/>
<url>http://www.greatschools.org/city/Hardwick/MA</url>
<lat>42.3475</lat>
<lon>-72.1827</lon>
<active>1</active>
</city>
<city>
<id>410141</id>
<name>Harvard</name>
<state>MA</state>
<rating>9</rating>
<url>http://www.greatschools.org/city/Harvard/MA</url>
<lat>42.5001</lat>
<lon>-71.5776</lon>
<active>1</active>
</city>
<city>
<id>410289</id>
<name>Harwich</name>
<state>MA</state>
<rating>5</rating>
<url>http://www.greatschools.org/city/Harwich/MA</url>
<lat>41.7025</lat>
<lon>-70.0576</lon>
<active>1</active>
</city>
<city>
<id>442428</id>
<name>Harwich Port</name>
<state>MA</state>
<rating/>
<url>http://www.greatschools.org/city/Harwich_Port/MA</url>
<lat>41.6722</lat>
<lon>-70.0687</lon>
<active>1</active>
</city>
<city>
<id>410288</id>
<name>Hatfield</name>
<state>MA</state>
<rating>6</rating>
<url>http://www.greatschools.org/city/Hatfield/MA</url>
<lat>42.3731</lat>
<lon>-72.6066</lon>
<active>1</active>
</city>
<city>
<id>410310</id>
<name>Hathorne</name>
<state>MA</state>
<rating>7</rating>
<url>http://www.greatschools.org/city/Hathorne/MA</url>
<lat>42.5954</lat>
<lon>-71.01</lon>
<active>1</active>
</city>
<city>
<id>409953</id>
<name>Haverhill</name>
<state>MA</state>
<rating>4</rating>
<url>http://www.greatschools.org/city/Haverhill/MA</url>
<lat>42.7776</lat>
<lon>-71.0883</lon>
<active>1</active>
</city>
<city>
<id>410340</id>
<name>Haydenville</name>
<state>MA</state>
<rating>9</rating>
<url>http://www.greatschools.org/city/Haydenville/MA</url>
<lat>42.3952</lat>
<lon>-72.6912</lon>
<active>1</active>
</city>
<city>
<id>444471</id>
<name>Heath</name>
<state>MA</state>
<rating>9</rating>
<url>http://www.greatschools.org/city/Heath/MA</url>
<lat>42.7012</lat>
<lon>-72.8296</lon>
<active>1</active>
</city>
<city>
<id>410132</id>
<name>Hingham</name>
<state>MA</state>
<rating>9</rating>
<url>http://www.greatschools.org/city/Hingham/MA</url>
<lat>42.2367</lat>
<lon>-70.8893</lon>
<active>1</active>
</city>
<city>
<id>410322</id>
<name>Hinsdale</name>
<state>MA</state>
<rating>5</rating>
<url>http://www.greatschools.org/city/Hinsdale/MA</url>
<lat>42.4349</lat>
<lon>-73.0897</lon>
<active>1</active>
</city>
<city>
<id>410196</id>
<name>Holbrook</name>
<state>MA</state>
<rating>4</rating>
<url>http://www.greatschools.org/city/Holbrook/MA</url>
<lat>42.1471</lat>
<lon>-71.008</lon>
<active>1</active>
</city>
<city>
<id>410030</id>
<name>Holden</name>
<state>MA</state>
<rating>8</rating>
<url>http://www.greatschools.org/city/Holden/MA</url>
<lat>42.3406</lat>
<lon>-71.8419</lon>
<active>1</active>
</city>
<city>
<id>410287</id>
<name>Holland</name>
<state>MA</state>
<rating>7</rating>
<url>http://www.greatschools.org/city/Holland/MA</url>
<lat>42.051</lat>
<lon>-72.1543</lon>
<active>1</active>
</city>
<city>
<id>410172</id>
<name>Holliston</name>
<state>MA</state>
<rating>8</rating>
<url>http://www.greatschools.org/city/Holliston/MA</url>
<lat>42.2009</lat>
<lon>-71.4368</lon>
<active>1</active>
</city>
<city>
<id>409954</id>
<name>Holyoke</name>
<state>MA</state>
<rating>3</rating>
<url>http://www.greatschools.org/city/Holyoke/MA</url>
<lat>42.2025</lat>
<lon>-72.6266</lon>
<active>1</active>
</city>
<city>
<id>410286</id>
<name>Hopedale</name>
<state>MA</state>
<rating>6</rating>
<url>http://www.greatschools.org/city/Hopedale/MA</url>
<lat>42.1296</lat>
<lon>-71.5418</lon>
<active>1</active>
</city>
<city>
<id>410285</id>
<name>Hopkinton</name>
<state>MA</state>
<rating>9</rating>
<url>http://www.greatschools.org/city/Hopkinton/MA</url>
<lat>42.225</lat>
<lon>-71.5227</lon>
<active>1</active>
</city>
<city>
<id>410122</id>
<name>Housatonic</name>
<state>MA</state>
<rating/>
<url>http://www.greatschools.org/city/Housatonic/MA</url>
<lat>42.2532</lat>
<lon>-73.3654</lon>
<active>1</active>
</city>
<city>
<id>410345</id>
<name>Hubbardston</name>
<state>MA</state>
<rating>8</rating>
<url>http://www.greatschools.org/city/Hubbardston/MA</url>
<lat>42.4869</lat>
<lon>-72.004</lon>
<active>1</active>
</city>
<city>
<id>410033</id>
<name>Hudson</name>
<state>MA</state>
<rating>5</rating>
<url>http://www.greatschools.org/city/Hudson/MA</url>
<lat>42.394</lat>
<lon>-71.5645</lon>
<active>1</active>
</city>
<city>
<id>410171</id>
<name>Hull</name>
<state>MA</state>
<rating>6</rating>
<url>http://www.greatschools.org/city/Hull/MA</url>
<lat>42.2858</lat>
<lon>-70.8755</lon>
<active>1</active>
</city>
<city>
<id>410304</id>
<name>Huntington</name>
<state>MA</state>
<rating>4</rating>
<url>http://www.greatschools.org/city/Huntington/MA</url>
<lat>42.2612</lat>
<lon>-72.8692</lon>
<active>1</active>
</city>
<city>
<id>410007</id>
<name>Hyannis</name>
<state>MA</state>
<rating>5</rating>
<url>http://www.greatschools.org/city/Hyannis/MA</url>
<lat>41.654</lat>
<lon>-70.2989</lon>
<active>1</active>
</city>
<city>
<id>409957</id>
<name>Hyde Park</name>
<state>MA</state>
<rating>4</rating>
<url>http://www.greatschools.org/city/Hyde_Park/MA</url>
<lat>42.2554</lat>
<lon>-71.1255</lon>
<active>1</active>
</city>
<city>
<id>445071</id>
<name>Indian Orch</name>
<state>MA</state>
<rating/>
<url>http://www.greatschools.org/city/Indian_Orch/MA</url>
<lat>42.1547</lat>
<lon>-72.5027</lon>
<active>1</active>
</city>
<city>
<id>410115</id>
<name>Indian Orchard</name>
<state>MA</state>
<rating>1</rating>
<url>http://www.greatschools.org/city/Indian_Orchard/MA</url>
<lat>42.1535</lat>
<lon>-72.504</lon>
<active>1</active>
</city>
<city>
<id>410093</id>
<name>Ipswich</name>
<state>MA</state>
<rating>6</rating>
<url>http://www.greatschools.org/city/Ipswich/MA</url>
<lat>42.6802</lat>
<lon>-70.839</lon>
<active>1</active>
</city>
<city>
<id>410040</id>
<name>Jamaica Plain</name>
<state>MA</state>
<rating>3</rating>
<url>http://www.greatschools.org/city/Jamaica_Plain/MA</url>
<lat>42.3127</lat>
<lon>-71.1106</lon>
<active>1</active>
</city>
<city>
<id>423357</id>
<name>Jefferson</name>
<state>MA</state>
<rating/>
<url>http://www.greatschools.org/city/Jefferson/MA</url>
<lat>42.3771</lat>
<lon>-71.8665</lon>
<active>1</active>
</city>
<city>
<id>410104</id>
<name>Kingston</name>
<state>MA</state>
<rating>7</rating>
<url>http://www.greatschools.org/city/Kingston/MA</url>
<lat>41.9935</lat>
<lon>-70.7227</lon>
<active>1</active>
</city>
<city>
<id>409949</id>
<name>Lakeville</name>
<state>MA</state>
<rating>8</rating>
<url>http://www.greatschools.org/city/Lakeville/MA</url>
<lat>41.8365</lat>
<lon>-70.9597</lon>
<active>1</active>
</city>
<city>
<id>409996</id>
<name>Lancaster</name>
<state>MA</state>
<rating>8</rating>
<url>http://www.greatschools.org/city/Lancaster/MA</url>
<lat>42.4657</lat>
<lon>-71.6812</lon>
<active>1</active>
</city>
<city>
<id>410284</id>
<name>Lanesborough</name>
<state>MA</state>
<rating/>
<url>http://www.greatschools.org/city/Lanesborough/MA</url>
<lat>42.5139</lat>
<lon>-73.2202</lon>
<active>1</active>
</city>
<city>
<id>409970</id>
<name>Lawrence</name>
<state>MA</state>
<rating>3</rating>
<url>http://www.greatschools.org/city/Lawrence/MA</url>
<lat>42.7049</lat>
<lon>-71.1643</lon>
<active>1</active>
</city>
<city>
<id>410219</id>
<name>Lee</name>
<state>MA</state>
<rating>5</rating>
<url>http://www.greatschools.org/city/Lee/MA</url>
<lat>42.3067</lat>
<lon>-73.2497</lon>
<active>1</active>
</city>
<city>
<id>410265</id>
<name>Leeds</name>
<state>MA</state>
<rating>3</rating>
<url>http://www.greatschools.org/city/Leeds/MA</url>
<lat>42.3532</lat>
<lon>-72.7029</lon>
<active>1</active>
</city>
<city>
<id>410123</id>
<name>Leicester</name>
<state>MA</state>
<rating>4</rating>
<url>http://www.greatschools.org/city/Leicester/MA</url>
<lat>42.2387</lat>
<lon>-71.9174</lon>
<active>1</active>
</city>
<city>
<id>410139</id>
<name>Lenox</name>
<state>MA</state>
<rating>7</rating>
<url>http://www.greatschools.org/city/Lenox/MA</url>
<lat>42.3571</lat>
<lon>-73.2807</lon>
<active>1</active>
</city>
<city>
<id>444291</id>
<name>Lenox Dale</name>
<state>MA</state>
<rating/>
<url>http://www.greatschools.org/city/Lenox_Dale/MA</url>
<lat>42.302</lat>
<lon>-73.2421</lon>
<active>1</active>
</city>
<city>
<id>409989</id>
<name>Leominster</name>
<state>MA</state>
<rating>4</rating>
<url>http://www.greatschools.org/city/Leominster/MA</url>
<lat>42.5271</lat>
<lon>-71.7551</lon>
<active>1</active>
</city>
<city>
<id>410113</id>
<name>Leverett</name>
<state>MA</state>
<rating>8</rating>
<url>http://www.greatschools.org/city/Leverett/MA</url>
<lat>42.4742</lat>
<lon>-72.4942</lon>
<active>1</active>
</city>
<city>
<id>410039</id>
<name>Lexington</name>
<state>MA</state>
<rating>9</rating>
<url>http://www.greatschools.org/city/Lexington/MA</url>
<lat>42.4449</lat>
<lon>-71.2255</lon>
<active>1</active>
</city>
<city>
<id>410258</id>
<name>Leyden</name>
<state>MA</state>
<rating/>
<url>http://www.greatschools.org/city/Leyden/MA</url>
<lat>42.672</lat>
<lon>-72.5541</lon>
<active>1</active>
</city>
<city>
<id>410203</id>
<name>Lincoln</name>
<state>MA</state>
<rating>9</rating>
<url>http://www.greatschools.org/city/Lincoln/MA</url>
<lat>42.4225</lat>
<lon>-71.3131</lon>
<active>1</active>
</city>
<city>
<id>442427</id>
<name>Linwood</name>
<state>MA</state>
<rating/>
<url>http://www.greatschools.org/city/Linwood/MA</url>
<lat>42.072</lat>
<lon>-71.6312</lon>
<active>1</active>
</city>
<city>
<id>410160</id>
<name>Littleton</name>
<state>MA</state>
<rating>8</rating>
<url>http://www.greatschools.org/city/Littleton/MA</url>
<lat>42.5399</lat>
<lon>-71.4876</lon>
<active>1</active>
</city>
<city>
<id>410072</id>
<name>Longmeadow</name>
<state>MA</state>
<rating>8</rating>
<url>http://www.greatschools.org/city/Longmeadow/MA</url>
<lat>42.0507</lat>
<lon>-72.5671</lon>
<active>1</active>
</city>
<city>
<id>409969</id>
<name>Lowell</name>
<state>MA</state>
<rating>4</rating>
<url>http://www.greatschools.org/city/Lowell/MA</url>
<lat>42.6407</lat>
<lon>-71.3185</lon>
<active>1</active>
</city>
<city>
<id>410216</id>
<name>Ludlow</name>
<state>MA</state>
<rating>5</rating>
<url>http://www.greatschools.org/city/Ludlow/MA</url>
<lat>42.1755</lat>
<lon>-72.473</lon>
<active>1</active>
</city>
<city>
<id>409968</id>
<name>Lunenburg</name>
<state>MA</state>
<rating>6</rating>
<url>http://www.greatschools.org/city/Lunenburg/MA</url>
<lat>42.5941</lat>
<lon>-71.728</lon>
<active>1</active>
</city>
<city>
<id>409944</id>
<name>Lynn</name>
<state>MA</state>
<rating>4</rating>
<url>http://www.greatschools.org/city/Lynn/MA</url>
<lat>42.4717</lat>
<lon>-70.9539</lon>
<active>1</active>
</city>
<city>
<id>410102</id>
<name>Lynnfield</name>
<state>MA</state>
<rating>8</rating>
<url>http://www.greatschools.org/city/Lynnfield/MA</url>
<lat>42.5317</lat>
<lon>-71.032</lon>
<active>1</active>
</city>
<city>
<id>409993</id>
<name>Malden</name>
<state>MA</state>
<rating>5</rating>
<url>http://www.greatschools.org/city/Malden/MA</url>
<lat>42.4292</lat>
<lon>-71.0602</lon>
<active>1</active>
</city>
<city>
<id>444321</id>
<name>Manchaug</name>
<state>MA</state>
<rating/>
<url>http://www.greatschools.org/city/Manchaug/MA</url>
<lat>42.0585</lat>
<lon>-71.7273</lon>
<active>1</active>
</city>
<city>
<id>410089</id>
<name>Manchester</name>
<state>MA</state>
<rating>9</rating>
<url>http://www.greatschools.org/city/Manchester/MA</url>
<lat>42.5793</lat>
<lon>-70.7667</lon>
<active>1</active>
</city>
<city>
<id>446073</id>
<name>Manchester-by-the-Sea</name>
<state>MA</state>
<rating/>
<url>http://www.greatschools.org/city/Manchester-by-the-Sea/MA</url>
<lat>42.5797</lat>
<lon>-70.7704</lon>
<active>1</active>
</city>
<city>
<id>410170</id>
<name>Mansfield</name>
<state>MA</state>
<rating>8</rating>
<url>http://www.greatschools.org/city/Mansfield/MA</url>
<lat>42.0224</lat>
<lon>-71.2115</lon>
<active>1</active>
</city>
<city>
<id>409967</id>
<name>Marblehead</name>
<state>MA</state>
<rating>8</rating>
<url>http://www.greatschools.org/city/Marblehead/MA</url>
<lat>42.4984</lat>
<lon>-70.8649</lon>
<active>1</active>
</city>
<city>
<id>410145</id>
<name>Marion</name>
<state>MA</state>
<rating>8</rating>
<url>http://www.greatschools.org/city/Marion/MA</url>
<lat>41.709</lat>
<lon>-70.7663</lon>
<active>1</active>
</city>
<city>
<id>409955</id>
<name>Marlborough</name>
<state>MA</state>
<rating>5</rating>
<url>http://www.greatschools.org/city/Marlborough/MA</url>
<lat>42.3507</lat>
<lon>-71.5412</lon>
<active>1</active>
</city>
<city>
<id>410282</id>
<name>Marshfield</name>
<state>MA</state>
<rating>7</rating>
<url>http://www.greatschools.org/city/Marshfield/MA</url>
<lat>42.0945</lat>
<lon>-70.7015</lon>
<active>1</active>
</city>
<city>
<id>445072</id>
<name>MARSHFLD HLS</name>
<state>MA</state>
<rating/>
<url>http://www.greatschools.org/city/MARSHFLD_HLS/MA</url>
<lat>42.1453</lat>
<lon>-70.7369</lon>
<active>1</active>
</city>
<city>
<id>410034</id>
<name>Marstons Mills</name>
<state>MA</state>
<rating>9</rating>
<url>http://www.greatschools.org/city/Marstons_Mills/MA</url>
<lat>41.668</lat>
<lon>-70.4175</lon>
<active>1</active>
</city>
<city>
<id>410162</id>
<name>Mashpee</name>
<state>MA</state>
<rating>4</rating>
<url>http://www.greatschools.org/city/Mashpee/MA</url>
<lat>41.6238</lat>
<lon>-70.486</lon>
<active>1</active>
</city>
<city>
<id>410032</id>
<name>Mattapan</name>
<state>MA</state>
<rating>2</rating>
<url>http://www.greatschools.org/city/Mattapan/MA</url>
<lat>42.274</lat>
<lon>-71.0938</lon>
<active>1</active>
</city>
<city>
<id>410262</id>
<name>Mattapoisett</name>
<state>MA</state>
<rating>7</rating>
<url>http://www.greatschools.org/city/Mattapoisett/MA</url>
<lat>41.663</lat>
<lon>-70.816</lon>
<active>1</active>
</city>
<city>
<id>410175</id>
<name>Maynard</name>
<state>MA</state>
<rating>5</rating>
<url>http://www.greatschools.org/city/Maynard/MA</url>
<lat>42.4315</lat>
<lon>-71.4537</lon>
<active>1</active>
</city>
<city>
<id>410280</id>
<name>Medfield</name>
<state>MA</state>
<rating>9</rating>
<url>http://www.greatschools.org/city/Medfield/MA</url>
<lat>42.1888</lat>
<lon>-71.3018</lon>
<active>1</active>
</city>
<city>
<id>410062</id>
<name>Medford</name>
<state>MA</state>
<rating>5</rating>
<url>http://www.greatschools.org/city/Medford/MA</url>
<lat>42.4173</lat>
<lon>-71.108</lon>
<active>1</active>
</city>
<city>
<id>410279</id>
<name>Medway</name>
<state>MA</state>
<rating>9</rating>
<url>http://www.greatschools.org/city/Medway/MA</url>
<lat>42.1522</lat>
<lon>-71.4236</lon>
<active>1</active>
</city>
<city>
<id>410151</id>
<name>Melrose</name>
<state>MA</state>
<rating>7</rating>
<url>http://www.greatschools.org/city/Melrose/MA</url>
<lat>42.4581</lat>
<lon>-71.0625</lon>
<active>1</active>
</city>
<city>
<id>410179</id>
<name>Mendon</name>
<state>MA</state>
<rating>7</rating>
<url>http://www.greatschools.org/city/Mendon/MA</url>
<lat>42.0955</lat>
<lon>-71.55</lon>
<active>1</active>
</city>
<city>
<id>410082</id>
<name>Merrimac</name>
<state>MA</state>
<rating>6</rating>
<url>http://www.greatschools.org/city/Merrimac/MA</url>
<lat>42.8348</lat>
<lon>-71.0052</lon>
<active>1</active>
</city>
<city>
<id>410053</id>
<name>Methuen</name>
<state>MA</state>
<rating>3</rating>
<url>http://www.greatschools.org/city/Methuen/MA</url>
<lat>42.7289</lat>
<lon>-71.18</lon>
<active>1</active>
</city>
<city>
<id>410187</id>
<name>Middleboro</name>
<state>MA</state>
<rating/>
<url>http://www.greatschools.org/city/Middleboro/MA</url>
<lat>41.8874</lat>
<lon>-70.8905</lon>
<active>1</active>
</city>
<city>
<id>410168</id>
<name>Middleborough</name>
<state>MA</state>
<rating>4</rating>
<url>http://www.greatschools.org/city/Middleborough/MA</url>
<lat>41.895</lat>
<lon>-70.9174</lon>
<active>1</active>
</city>
<city>
<id>446074</id>
<name>Middlesex County</name>
<state>MA</state>
<rating/>
<url>http://www.greatschools.org/city/Middlesex_County/MA</url>
<lat>42.5792</lat>
<lon>-71.3052</lon>
<active>1</active>
</city>
<city>
<id>410120</id>
<name>Middleton</name>
<state>MA</state>
<rating>7</rating>
<url>http://www.greatschools.org/city/Middleton/MA</url>
<lat>42.5954</lat>
<lon>-71.01</lon>
<active>1</active>
</city>
<city>
<id>410008</id>
<name>Milford</name>
<state>MA</state>
<rating>6</rating>
<url>http://www.greatschools.org/city/Milford/MA</url>
<lat>42.1483</lat>
<lon>-71.5251</lon>
<active>1</active>
</city>
<city>
<id>410176</id>
<name>Millbury</name>
<state>MA</state>
<rating>6</rating>
<url>http://www.greatschools.org/city/Millbury/MA</url>
<lat>42.1972</lat>
<lon>-71.764</lon>
<active>1</active>
</city>
<city>
<id>410133</id>
<name>Millis</name>
<state>MA</state>
<rating>6</rating>
<url>http://www.greatschools.org/city/Millis/MA</url>
<lat>42.1678</lat>
<lon>-71.3603</lon>
<active>1</active>
</city>
<city>
<id>410330</id>
<name>Millville</name>
<state>MA</state>
<rating>7</rating>
<url>http://www.greatschools.org/city/Millville/MA</url>
<lat>42.0339</lat>
<lon>-71.5794</lon>
<active>1</active>
</city>
<city>
<id>410009</id>
<name>Milton</name>
<state>MA</state>
<rating>8</rating>
<url>http://www.greatschools.org/city/Milton/MA</url>
<lat>42.2536</lat>
<lon>-71.0774</lon>
<active>1</active>
</city>
<city>
<id>410159</id>
<name>Monson</name>
<state>MA</state>
<rating>4</rating>
<url>http://www.greatschools.org/city/Monson/MA</url>
<lat>42.0979</lat>
<lon>-72.3224</lon>
<active>1</active>
</city>
<city>
<id>410299</id>
<name>Montague</name>
<state>MA</state>
<rating>6</rating>
<url>http://www.greatschools.org/city/Montague/MA</url>
<lat>42.5423</lat>
<lon>-72.5322</lon>
<active>1</active>
</city>
<city>
<id>444472</id>
<name>Monterey</name>
<state>MA</state>
<rating/>
<url>http://www.greatschools.org/city/Monterey/MA</url>
<lat>42.2146</lat>
<lon>-73.1773</lon>
<active>1</active>
</city>
<city>
<id>442425</id>
<name>Monument Beach</name>
<state>MA</state>
<rating/>
<url>http://www.greatschools.org/city/Monument_Beach/MA</url>
<lat>41.7196</lat>
<lon>-70.6036</lon>
<active>1</active>
</city>
<city>
<id>443847</id>
<name>Mount Hermon</name>
<state>MA</state>
<rating/>
<url>http://www.greatschools.org/city/Mount_Hermon/MA</url>
<lat>42.6703</lat>
<lon>-72.4881</lon>
<active>1</active>
</city>
<city>
<id>410275</id>
<name>Nahant</name>
<state>MA</state>
<rating>6</rating>
<url>http://www.greatschools.org/city/Nahant/MA</url>
<lat>42.426</lat>
<lon>-70.9271</lon>
<active>1</active>
</city>
<city>
<id>410190</id>
<name>Nantucket</name>
<state>MA</state>
<rating>6</rating>
<url>http://www.greatschools.org/city/Nantucket/MA</url>
<lat>41.2764</lat>
<lon>-70.1</lon>
<active>1</active>
</city>
<city>
<id>410046</id>
<name>Natick</name>
<state>MA</state>
<rating>8</rating>
<url>http://www.greatschools.org/city/Natick/MA</url>
<lat>42.2872</lat>
<lon>-71.3568</lon>
<active>1</active>
</city>
<city>
<id>409995</id>
<name>Needham</name>
<state>MA</state>
<rating>8</rating>
<url>http://www.greatschools.org/city/Needham/MA</url>
<lat>42.2847</lat>
<lon>-71.2354</lon>
<active>1</active>
</city>
<city>
<id>442422</id>
<name>Needham Heights</name>
<state>MA</state>
<rating/>
<url>http://www.greatschools.org/city/Needham_Heights/MA</url>
<lat>42.2974</lat>
<lon>-71.2339</lon>
<active>1</active>
</city>
<city>
<id>410025</id>
<name>New Bedford</name>
<state>MA</state>
<rating>2</rating>
<url>http://www.greatschools.org/city/New_Bedford/MA</url>
<lat>41.6508</lat>
<lon>-70.9334</lon>
<active>1</active>
</city>
<city>
<id>410344</id>
<name>New Braintree</name>
<state>MA</state>
<rating/>
<url>http://www.greatschools.org/city/New_Braintree/MA</url>
<lat>42.3156</lat>
<lon>-72.1522</lon>
<active>1</active>
</city>
<city>
<id>410200</id>
<name>New Salem</name>
<state>MA</state>
<rating>7</rating>
<url>http://www.greatschools.org/city/New_Salem/MA</url>
<lat>42.5118</lat>
<lon>-72.3275</lon>
<active>1</active>
</city>
<city>
<id>410239</id>
<name>Newbury</name>
<state>MA</state>
<rating>8</rating>
<url>http://www.greatschools.org/city/Newbury/MA</url>
<lat>42.7876</lat>
<lon>-70.8468</lon>
<active>1</active>
</city>
<city>
<id>410174</id>
<name>Newburyport</name>
<state>MA</state>
<rating>8</rating>
<url>http://www.greatschools.org/city/Newburyport/MA</url>
<lat>42.8128</lat>
<lon>-70.8846</lon>
<active>1</active>
</city>
<city>
<id>410048</id>
<name>Newton</name>
<state>MA</state>
<rating>9</rating>
<url>http://www.greatschools.org/city/Newton/MA</url>
<lat>42.3362</lat>
<lon>-71.2067</lon>
<active>1</active>
</city>
<city>
<id>445075</id>
<name>Newton Centre</name>
<state>MA</state>
<rating/>
<url>http://www.greatschools.org/city/Newton_Centre/MA</url>
<lat>42.3325</lat>
<lon>-71.1973</lon>
<active>1</active>
</city>
<city>
<id>410271</id>
<name>Newton Highlands</name>
<state>MA</state>
<rating>10</rating>
<url>http://www.greatschools.org/city/Newton_Highlands/MA</url>
<lat>42.3184</lat>
<lon>-71.2083</lon>
<active>1</active>
</city>
<city>
<id>445076</id>
<name>Newton Hlds</name>
<state>MA</state>
<rating/>
<url>http://www.greatschools.org/city/Newton_Hlds/MA</url>
<lat>42.3135</lat>
<lon>-71.2072</lon>
<active>1</active>
</city>
<city>
<id>410085</id>
<name>Newtonville</name>
<state>MA</state>
<rating>8</rating>
<url>http://www.greatschools.org/city/Newtonville/MA</url>
<lat>42.3526</lat>
<lon>-71.208</lon>
<active>1</active>
</city>
<city>
<id>410267</id>
<name>Norfolk</name>
<state>MA</state>
<rating>7</rating>
<url>http://www.greatschools.org/city/Norfolk/MA</url>
<lat>42.1167</lat>
<lon>-71.3276</lon>
<active>1</active>
</city>
<city>
<id>409982</id>
<name>North Adams</name>
<state>MA</state>
<rating>3</rating>
<url>http://www.greatschools.org/city/North_Adams/MA</url>
<lat>42.6966</lat>
<lon>-73.114</lon>
<active>1</active>
</city>
<city>
<id>410206</id>
<name>North Andover</name>
<state>MA</state>
<rating>7</rating>
<url>http://www.greatschools.org/city/North_Andover/MA</url>
<lat>42.6812</lat>
<lon>-71.1059</lon>
<active>1</active>
</city>
<city>
<id>446432</id>
<name>North Attleboro</name>
<state>MA</state>
<rating/>
<url>http://www.greatschools.org/city/North_Attleboro/MA</url>
<lat>41.9654</lat>
<lon>-71.3252</lon>
<active>1</active>
</city>
<city>
<id>410098</id>
<name>North Attleborough</name>
<state>MA</state>
<rating>7</rating>
<url>http://www.greatschools.org/city/North_Attleborough/MA</url>
<lat>41.9775</lat>
<lon>-71.3275</lon>
<active>1</active>
</city>
<city>
<id>410068</id>
<name>North Billerica</name>
<state>MA</state>
<rating>8</rating>
<url>http://www.greatschools.org/city/North_Billerica/MA</url>
<lat>42.5747</lat>
<lon>-71.2904</lon>
<active>1</active>
</city>
<city>
<id>410148</id>
<name>North Brookfield</name>
<state>MA</state>
<rating>4</rating>
<url>http://www.greatschools.org/city/North_Brookfield/MA</url>
<lat>42.2697</lat>
<lon>-72.0842</lon>
<active>1</active>
</city>
<city>
<id>410077</id>
<name>North Chelmsford</name>
<state>MA</state>
<rating>8</rating>
<url>http://www.greatschools.org/city/North_Chelmsford/MA</url>
<lat>42.634</lat>
<lon>-71.3887</lon>
<active>1</active>
</city>
<city>
<id>410069</id>
<name>North Dartmouth</name>
<state>MA</state>
<rating>6</rating>
<url>http://www.greatschools.org/city/North_Dartmouth/MA</url>
<lat>41.6393</lat>
<lon>-70.9987</lon>
<active>1</active>
</city>
<city>
<id>410315</id>
<name>North Dighton</name>
<state>MA</state>
<rating>7</rating>
<url>http://www.greatschools.org/city/North_Dighton/MA</url>
<lat>41.8558</lat>
<lon>-71.1498</lon>
<active>1</active>
</city>
<city>
<id>410312</id>
<name>North Eastham</name>
<state>MA</state>
<rating>7</rating>
<url>http://www.greatschools.org/city/North_Eastham/MA</url>
<lat>41.8566</lat>
<lon>-69.9949</lon>
<active>1</active>
</city>
<city>
<id>410074</id>
<name>North Easton</name>
<state>MA</state>
<rating>6</rating>
<url>http://www.greatschools.org/city/North_Easton/MA</url>
<lat>42.0565</lat>
<lon>-71.1173</lon>
<active>1</active>
</city>
<city>
<id>410021</id>
<name>North Falmouth</name>
<state>MA</state>
<rating>8</rating>
<url>http://www.greatschools.org/city/North_Falmouth/MA</url>
<lat>41.6414</lat>
<lon>-70.6227</lon>
<active>1</active>
</city>
<city>
<id>410297</id>
<name>North Grafton</name>
<state>MA</state>
<rating/>
<url>http://www.greatschools.org/city/North_Grafton/MA</url>
<lat>42.2272</lat>
<lon>-71.703</lon>
<active>1</active>
</city>
<city>
<id>442418</id>
<name>North Oxford</name>
<state>MA</state>
<rating/>
<url>http://www.greatschools.org/city/North_Oxford/MA</url>
<lat>42.1684</lat>
<lon>-71.8941</lon>
<active>1</active>
</city>
<city>
<id>410266</id>
<name>North Reading</name>
<state>MA</state>
<rating>7</rating>
<url>http://www.greatschools.org/city/North_Reading/MA</url>
<lat>42.5814</lat>
<lon>-71.0919</lon>
<active>1</active>
</city>
<city>
<id>445077</id>
<name>North Truro</name>
<state>MA</state>
<rating/>
<url>http://www.greatschools.org/city/North_Truro/MA</url>
<lat>42.0383</lat>
<lon>-70.0877</lon>
<active>1</active>
</city>
<city>
<id>445078</id>
<name>North Weymouth</name>
<state>MA</state>
<rating/>
<url>http://www.greatschools.org/city/North_Weymouth/MA</url>
<lat>42.2428</lat>
<lon>-70.9455</lon>
<active>1</active>
</city>
<city>
<id>410051</id>
<name>Northampton</name>
<state>MA</state>
<rating>6</rating>
<url>http://www.greatschools.org/city/Northampton/MA</url>
<lat>42.3258</lat>
<lon>-72.6569</lon>
<active>1</active>
</city>
<city>
<id>410047</id>
<name>Northborough</name>
<state>MA</state>
<rating>7</rating>
<url>http://www.greatschools.org/city/Northborough/MA</url>
<lat>42.3106</lat>
<lon>-71.6458</lon>
<active>1</active>
</city>
<city>
<id>442417</id>
<name>Northbridge</name>
<state>MA</state>
<rating/>
<url>http://www.greatschools.org/city/Northbridge/MA</url>
<lat>42.1478</lat>
<lon>-71.655</lon>
<active>1</active>
</city>
<city>
<id>410152</id>
<name>Northfield</name>
<state>MA</state>
<rating>5</rating>
<url>http://www.greatschools.org/city/Northfield/MA</url>
<lat>42.702</lat>
<lon>-72.4473</lon>
<active>1</active>
</city>
<city>
<id>410144</id>
<name>Norton</name>
<state>MA</state>
<rating>6</rating>
<url>http://www.greatschools.org/city/Norton/MA</url>
<lat>41.9695</lat>
<lon>-71.1902</lon>
<active>1</active>
</city>
<city>
<id>409984</id>
<name>Norwell</name>
<state>MA</state>
<rating>8</rating>
<url>http://www.greatschools.org/city/Norwell/MA</url>
<lat>42.1605</lat>
<lon>-70.8208</lon>
<active>1</active>
</city>
<city>
<id>410161</id>
<name>Norwood</name>
<state>MA</state>
<rating>6</rating>
<url>http://www.greatschools.org/city/Norwood/MA</url>
<lat>42.1867</lat>
<lon>-71.2034</lon>
<active>1</active>
</city>
<city>
<id>410281</id>
<name>Oak Bluffs</name>
<state>MA</state>
<rating>7</rating>
<url>http://www.greatschools.org/city/Oak_Bluffs/MA</url>
<lat>41.4395</lat>
<lon>-70.6086</lon>
<active>1</active>
</city>
<city>
<id>410343</id>
<name>Oakham</name>
<state>MA</state>
<rating>7</rating>
<url>http://www.greatschools.org/city/Oakham/MA</url>
<lat>42.3488</lat>
<lon>-72.0527</lon>
<active>1</active>
</city>
<city>
<id>445079</id>
<name>Old Silver Be</name>
<state>MA</state>
<rating/>
<url>http://www.greatschools.org/city/Old_Silver_Be/MA</url>
<lat>41.6423</lat>
<lon>-70.6276</lon>
<active>1</active>
</city>
<city>
<id>410232</id>
<name>Onset</name>
<state>MA</state>
<rating/>
<url>http://www.greatschools.org/city/Onset/MA</url>
<lat>41.7454</lat>
<lon>-70.6635</lon>
<active>1</active>
</city>
<city>
<id>410254</id>
<name>Orange</name>
<state>MA</state>
<rating>4</rating>
<url>http://www.greatschools.org/city/Orange/MA</url>
<lat>42.5898</lat>
<lon>-72.3083</lon>
<active>1</active>
</city>
<city>
<id>410261</id>
<name>Orleans</name>
<state>MA</state>
<rating>7</rating>
<url>http://www.greatschools.org/city/Orleans/MA</url>
<lat>41.7897</lat>
<lon>-70.0014</lon>
<active>1</active>
</city>
<city>
<id>410199</id>
<name>Osterville</name>
<state>MA</state>
<rating/>
<url>http://www.greatschools.org/city/Osterville/MA</url>
<lat>41.6381</lat>
<lon>-70.3842</lon>
<active>1</active>
</city>
<city>
<id>410223</id>
<name>Otis</name>
<state>MA</state>
<rating>6</rating>
<url>http://www.greatschools.org/city/Otis/MA</url>
<lat>42.1885</lat>
<lon>-73.0808</lon>
<active>1</active>
</city>
<city>
<id>410260</id>
<name>Oxford</name>
<state>MA</state>
<rating>4</rating>
<url>http://www.greatschools.org/city/Oxford/MA</url>
<lat>42.1125</lat>
<lon>-71.8703</lon>
<active>1</active>
</city>
<city>
<id>410043</id>
<name>Palmer</name>
<state>MA</state>
<rating>3</rating>
<url>http://www.greatschools.org/city/Palmer/MA</url>
<lat>42.1605</lat>
<lon>-72.3272</lon>
<active>1</active>
</city>
<city>
<id>445080</id>
<name>Pawtucket</name>
<state>MA</state>
<rating/>
<url>http://www.greatschools.org/city/Pawtucket/MA</url>
<lat>41.8985</lat>
<lon>-71.3464</lon>
<active>1</active>
</city>
<city>
<id>410237</id>
<name>Paxton</name>
<state>MA</state>
<rating>7</rating>
<url>http://www.greatschools.org/city/Paxton/MA</url>
<lat>42.3068</lat>
<lon>-71.9218</lon>
<active>1</active>
</city>
<city>
<id>409966</id>
<name>Peabody</name>
<state>MA</state>
<rating>3</rating>
<url>http://www.greatschools.org/city/Peabody/MA</url>
<lat>42.5323</lat>
<lon>-70.9608</lon>
<active>1</active>
</city>
<city>
<id>410259</id>
<name>Pelham</name>
<state>MA</state>
<rating>8</rating>
<url>http://www.greatschools.org/city/Pelham/MA</url>
<lat>42.3786</lat>
<lon>-72.4681</lon>
<active>1</active>
</city>
<city>
<id>409965</id>
<name>Pembroke</name>
<state>MA</state>
<rating>6</rating>
<url>http://www.greatschools.org/city/Pembroke/MA</url>
<lat>42.0628</lat>
<lon>-70.8039</lon>
<active>1</active>
</city>
<city>
<id>410155</id>
<name>Pepperell</name>
<state>MA</state>
<rating>5</rating>
<url>http://www.greatschools.org/city/Pepperell/MA</url>
<lat>42.6678</lat>
<lon>-71.5882</lon>
<active>1</active>
</city>
<city>
<id>410071</id>
<name>Petersham</name>
<state>MA</state>
<rating>6</rating>
<url>http://www.greatschools.org/city/Petersham/MA</url>
<lat>42.4874</lat>
<lon>-72.1931</lon>
<active>1</active>
</city>
<city>
<id>410273</id>
<name>Phillipston</name>
<state>MA</state>
<rating>5</rating>
<url>http://www.greatschools.org/city/Phillipston/MA</url>
<lat>42.5916</lat>
<lon>-72.1341</lon>
<active>1</active>
</city>
<city>
<id>410080</id>
<name>Pittsfield</name>
<state>MA</state>
<rating>4</rating>
<url>http://www.greatschools.org/city/Pittsfield/MA</url>
<lat>42.4522</lat>
<lon>-73.2468</lon>
<active>1</active>
</city>
<city>
<id>410088</id>
<name>Plainville</name>
<state>MA</state>
<rating>7</rating>
<url>http://www.greatschools.org/city/Plainville/MA</url>
<lat>42.0124</lat>
<lon>-71.3269</lon>
<active>1</active>
</city>
<city>
<id>410000</id>
<name>Plymouth</name>
<state>MA</state>
<rating>5</rating>
<url>http://www.greatschools.org/city/Plymouth/MA</url>
<lat>41.953</lat>
<lon>-70.6689</lon>
<active>1</active>
</city>
<city>
<id>410256</id>
<name>Plympton</name>
<state>MA</state>
<rating>7</rating>
<url>http://www.greatschools.org/city/Plympton/MA</url>
<lat>41.964</lat>
<lon>-70.8061</lon>
<active>1</active>
</city>
<city>
<id>410236</id>
<name>Princeton</name>
<state>MA</state>
<rating>9</rating>
<url>http://www.greatschools.org/city/Princeton/MA</url>
<lat>42.4515</lat>
<lon>-71.8765</lon>
<active>1</active>
</city>
<city>
<id>410255</id>
<name>Provincetown</name>
<state>MA</state>
<rating>4</rating>
<url>http://www.greatschools.org/city/Provincetown/MA</url>
<lat>42.053</lat>
<lon>-70.1859</lon>
<active>1</active>
</city>
<city>
<id>409992</id>
<name>Quincy</name>
<state>MA</state>
<rating>6</rating>
<url>http://www.greatschools.org/city/Quincy/MA</url>
<lat>42.2594</lat>
<lon>-71.0082</lon>
<active>1</active>
</city>
<city>
<id>410096</id>
<name>Randolph</name>
<state>MA</state>
<rating>3</rating>
<url>http://www.greatschools.org/city/Randolph/MA</url>
<lat>42.1735</lat>
<lon>-71.051</lon>
<active>1</active>
</city>
<city>
<id>410065</id>
<name>Raynham</name>
<state>MA</state>
<rating>7</rating>
<url>http://www.greatschools.org/city/Raynham/MA</url>
<lat>41.9306</lat>
<lon>-71.044</lon>
<active>1</active>
</city>
<city>
<id>409964</id>
<name>Reading</name>
<state>MA</state>
<rating>7</rating>
<url>http://www.greatschools.org/city/Reading/MA</url>
<lat>42.5287</lat>
<lon>-71.1082</lon>
<active>1</active>
</city>
<city>
<id>410222</id>
<name>Readville</name>
<state>MA</state>
<rating/>
<url>http://www.greatschools.org/city/Readville/MA</url>
<lat>42.2554</lat>
<lon>-71.1255</lon>
<active>1</active>
</city>
<city>
<id>409983</id>
<name>Rehoboth</name>
<state>MA</state>
<rating>5</rating>
<url>http://www.greatschools.org/city/Rehoboth/MA</url>
<lat>41.8463</lat>
<lon>-71.2483</lon>
<active>1</active>
</city>
<city>
<id>409937</id>
<name>Revere</name>
<state>MA</state>
<rating>4</rating>
<url>http://www.greatschools.org/city/Revere/MA</url>
<lat>42.414</lat>
<lon>-71.0046</lon>
<active>1</active>
</city>
<city>
<id>410253</id>
<name>Richmond</name>
<state>MA</state>
<rating>8</rating>
<url>http://www.greatschools.org/city/Richmond/MA</url>
<lat>42.3734</lat>
<lon>-73.3598</lon>
<active>1</active>
</city>
<city>
<id>442416</id>
<name>Rochdale</name>
<state>MA</state>
<rating/>
<url>http://www.greatschools.org/city/Rochdale/MA</url>
<lat>42.1991</lat>
<lon>-71.9095</lon>
<active>1</active>
</city>
<city>
<id>410252</id>
<name>Rochester</name>
<state>MA</state>
<rating>7</rating>
<url>http://www.greatschools.org/city/Rochester/MA</url>
<lat>41.7594</lat>
<lon>-70.8411</lon>
<active>1</active>
</city>
<city>
<id>410154</id>
<name>Rockland</name>
<state>MA</state>
<rating>5</rating>
<url>http://www.greatschools.org/city/Rockland/MA</url>
<lat>42.1273</lat>
<lon>-70.912</lon>
<active>1</active>
</city>
<city>
<id>410251</id>
<name>Rockport</name>
<state>MA</state>
<rating>6</rating>
<url>http://www.greatschools.org/city/Rockport/MA</url>
<lat>42.6519</lat>
<lon>-70.6169</lon>
<active>1</active>
</city>
<city>
<id>410019</id>
<name>Roslindale</name>
<state>MA</state>
<rating>5</rating>
<url>http://www.greatschools.org/city/Roslindale/MA</url>
<lat>42.2842</lat>
<lon>-71.1292</lon>
<active>1</active>
</city>
<city>
<id>410250</id>
<name>Rowe</name>
<state>MA</state>
<rating>8</rating>
<url>http://www.greatschools.org/city/Rowe/MA</url>
<lat>42.7042</lat>
<lon>-72.9035</lon>
<active>1</active>
</city>
<city>
<id>410182</id>
<name>Rowley</name>
<state>MA</state>
<rating>8</rating>
<url>http://www.greatschools.org/city/Rowley/MA</url>
<lat>42.7195</lat>
<lon>-70.877</lon>
<active>1</active>
</city>
<city>
<id>410010</id>
<name>Roxbury</name>
<state>MA</state>
<rating>4</rating>
<url>http://www.greatschools.org/city/Roxbury/MA</url>
<lat>42.3205</lat>
<lon>-71.0866</lon>
<active>1</active>
</city>
<city>
<id>446075</id>
<name>Roxbury Plain</name>
<state>MA</state>
<rating/>
<url>http://www.greatschools.org/city/Roxbury_Plain/MA</url>
<lat>42.3151</lat>
<lon>-71.0788</lon>
<active>1</active>
</city>
<city>
<id>410335</id>
<name>Royalston</name>
<state>MA</state>
<rating>2</rating>
<url>http://www.greatschools.org/city/Royalston/MA</url>
<lat>42.6747</lat>
<lon>-72.1803</lon>
<active>1</active>
</city>
<city>
<id>410303</id>
<name>Russell</name>
<state>MA</state>
<rating/>
<url>http://www.greatschools.org/city/Russell/MA</url>
<lat>42.181</lat>
<lon>-72.8571</lon>
<active>1</active>
</city>
<city>
<id>409942</id>
<name>Rutland</name>
<state>MA</state>
<rating>6</rating>
<url>http://www.greatschools.org/city/Rutland/MA</url>
<lat>42.3713</lat>
<lon>-71.9447</lon>
<active>1</active>
</city>
<city>
<id>410158</id>
<name>Sagamore</name>
<state>MA</state>
<rating/>
<url>http://www.greatschools.org/city/Sagamore/MA</url>
<lat>41.787</lat>
<lon>-70.5342</lon>
<active>1</active>
</city>
<city>
<id>445081</id>
<name>Sagamore Beach</name>
<state>MA</state>
<rating/>
<url>http://www.greatschools.org/city/Sagamore_Beach/MA</url>
<lat>41.777</lat>
<lon>-70.5323</lon>
<active>1</active>
</city>
<city>
<id>409952</id>
<name>Salem</name>
<state>MA</state>
<rating>4</rating>
<url>http://www.greatschools.org/city/Salem/MA</url>
<lat>42.5147</lat>
<lon>-70.9002</lon>
<active>1</active>
</city>
<city>
<id>410238</id>
<name>Salisbury</name>
<state>MA</state>
<rating>5</rating>
<url>http://www.greatschools.org/city/Salisbury/MA</url>
<lat>42.8419</lat>
<lon>-70.8393</lon>
<active>1</active>
</city>
<city>
<id>410050</id>
<name>Sandwich</name>
<state>MA</state>
<rating>8</rating>
<url>http://www.greatschools.org/city/Sandwich/MA</url>
<lat>41.7588</lat>
<lon>-70.5003</lon>
<active>1</active>
</city>
<city>
<id>410084</id>
<name>Saugus</name>
<state>MA</state>
<rating>4</rating>
<url>http://www.greatschools.org/city/Saugus/MA</url>
<lat>42.4637</lat>
<lon>-71.0114</lon>
<active>1</active>
</city>
<city>
<id>410248</id>
<name>Savoy</name>
<state>MA</state>
<rating>10</rating>
<url>http://www.greatschools.org/city/Savoy/MA</url>
<lat>42.5752</lat>
<lon>-73.0173</lon>
<active>1</active>
</city>
<city>
<id>410061</id>
<name>Scituate</name>
<state>MA</state>
<rating>8</rating>
<url>http://www.greatschools.org/city/Scituate/MA</url>
<lat>42.1897</lat>
<lon>-70.7358</lon>
<active>1</active>
</city>
<city>
<id>410016</id>
<name>Seekonk</name>
<state>MA</state>
<rating>7</rating>
<url>http://www.greatschools.org/city/Seekonk/MA</url>
<lat>41.8405</lat>
<lon>-71.322</lon>
<active>1</active>
</city>
<city>
<id>410027</id>
<name>Sharon</name>
<state>MA</state>
<rating>9</rating>
<url>http://www.greatschools.org/city/Sharon/MA</url>
<lat>42.1178</lat>
<lon>-71.1829</lon>
<active>1</active>
</city>
<city>
<id>410207</id>
<name>Sheffield</name>
<state>MA</state>
<rating>7</rating>
<url>http://www.greatschools.org/city/Sheffield/MA</url>
<lat>42.1008</lat>
<lon>-73.3587</lon>
<active>1</active>
</city>
<city>
<id>410277</id>
<name>Shelburne Falls</name>
<state>MA</state>
<rating>4</rating>
<url>http://www.greatschools.org/city/Shelburne_Falls/MA</url>
<lat>42.6052</lat>
<lon>-72.7394</lon>
<active>1</active>
</city>
<city>
<id>445082</id>
<name>Sheldonville</name>
<state>MA</state>
<rating/>
<url>http://www.greatschools.org/city/Sheldonville/MA</url>
<lat>42.0342</lat>
<lon>-71.388</lon>
<active>1</active>
</city>
<city>
<id>410191</id>
<name>Sherborn</name>
<state>MA</state>
<rating>10</rating>
<url>http://www.greatschools.org/city/Sherborn/MA</url>
<lat>42.233</lat>
<lon>-71.3774</lon>
<active>1</active>
</city>
<city>
<id>410060</id>
<name>Shirley</name>
<state>MA</state>
<rating/>
<url>http://www.greatschools.org/city/Shirley/MA</url>
<lat>42.5422</lat>
<lon>-71.6514</lon>
<active>1</active>
</city>
<city>
<id>409963</id>
<name>Shrewsbury</name>
<state>MA</state>
<rating>9</rating>
<url>http://www.greatschools.org/city/Shrewsbury/MA</url>
<lat>42.2853</lat>
<lon>-71.7172</lon>
<active>1</active>
</city>
<city>
<id>410246</id>
<name>Shutesbury</name>
<state>MA</state>
<rating>8</rating>
<url>http://www.greatschools.org/city/Shutesbury/MA</url>
<lat>42.4629</lat>
<lon>-72.4256</lon>
<active>1</active>
</city>
<city>
<id>410125</id>
<name>Somerset</name>
<state>MA</state>
<rating>7</rating>
<url>http://www.greatschools.org/city/Somerset/MA</url>
<lat>41.7517</lat>
<lon>-71.1524</lon>
<active>1</active>
</city>
<city>
<id>410146</id>
<name>Somerville</name>
<state>MA</state>
<rating>5</rating>
<url>http://www.greatschools.org/city/Somerville/MA</url>
<lat>42.3916</lat>
<lon>-71.1051</lon>
<active>1</active>
</city>
<city>
<id>410150</id>
<name>South Attleboro</name>
<state>MA</state>
<rating>5</rating>
<url>http://www.greatschools.org/city/South_Attleboro/MA</url>
<lat>41.9451</lat>
<lon>-71.2811</lon>
<active>1</active>
</city>
<city>
<id>446076</id>
<name>South Boston</name>
<state>MA</state>
<rating/>
<url>http://www.greatschools.org/city/South_Boston/MA</url>
<lat>42.3393</lat>
<lon>-71.0357</lon>
<active>1</active>
</city>
<city>
<id>410081</id>
<name>South Dartmouth</name>
<state>MA</state>
<rating>8</rating>
<url>http://www.greatschools.org/city/South_Dartmouth/MA</url>
<lat>41.5584</lat>
<lon>-70.9813</lon>
<active>1</active>
</city>
<city>
<id>410307</id>
<name>South Deerfield</name>
<state>MA</state>
<rating>4</rating>
<url>http://www.greatschools.org/city/South_Deerfield/MA</url>
<lat>42.4793</lat>
<lon>-72.5973</lon>
<active>1</active>
</city>
<city>
<id>410317</id>
<name>South Dennis</name>
<state>MA</state>
<rating>2</rating>
<url>http://www.greatschools.org/city/South_Dennis/MA</url>
<lat>41.7071</lat>
<lon>-70.1622</lon>
<active>1</active>
</city>
<city>
<id>410026</id>
<name>South Easton</name>
<state>MA</state>
<rating>4</rating>
<url>http://www.greatschools.org/city/South_Easton/MA</url>
<lat>42.0171</lat>
<lon>-71.1023</lon>
<active>1</active>
</city>
<city>
<id>445083</id>
<name>South Egremont</name>
<state>MA</state>
<rating/>
<url>http://www.greatschools.org/city/South_Egremont/MA</url>
<lat>42.0929</lat>
<lon>-73.4534</lon>
<active>1</active>
</city>
<city>
<id>410296</id>
<name>South Grafton</name>
<state>MA</state>
<rating/>
<url>http://www.greatschools.org/city/South_Grafton/MA</url>
<lat>42.1762</lat>
<lon>-71.6894</lon>
<active>1</active>
</city>
<city>
<id>410106</id>
<name>South Hadley</name>
<state>MA</state>
<rating>5</rating>
<url>http://www.greatschools.org/city/South_Hadley/MA</url>
<lat>42.2375</lat>
<lon>-72.5811</lon>
<active>1</active>
</city>
<city>
<id>410124</id>
<name>South Hamilton</name>
<state>MA</state>
<rating>8</rating>
<url>http://www.greatschools.org/city/South_Hamilton/MA</url>
<lat>42.618</lat>
<lon>-70.8545</lon>
<active>1</active>
</city>
<city>
<id>410002</id>
<name>South Lancaster</name>
<state>MA</state>
<rating/>
<url>http://www.greatschools.org/city/South_Lancaster/MA</url>
<lat>42.4384</lat>
<lon>-71.6911</lon>
<active>1</active>
</city>
<city>
<id>445084</id>
<name>South Weymout</name>
<state>MA</state>
<rating/>
<url>http://www.greatschools.org/city/South_Weymout/MA</url>
<lat>42.1707</lat>
<lon>-70.9428</lon>
<active>1</active>
</city>
<city>
<id>445085</id>
<name>South Weymouth</name>
<state>MA</state>
<rating/>
<url>http://www.greatschools.org/city/South_Weymouth/MA</url>
<lat>42.1754</lat>
<lon>-70.9515</lon>
<active>1</active>
</city>
<city>
<id>410316</id>
<name>South Yarmouth</name>
<state>MA</state>
<rating>4</rating>
<url>http://www.greatschools.org/city/South_Yarmouth/MA</url>
<lat>41.6711</lat>
<lon>-70.2025</lon>
<active>1</active>
</city>
<city>
<id>410037</id>
<name>Southampton</name>
<state>MA</state>
<rating>5</rating>
<url>http://www.greatschools.org/city/Southampton/MA</url>
<lat>42.2263</lat>
<lon>-72.7179</lon>
<active>1</active>
</city>
<city>
<id>409962</id>
<name>Southborough</name>
<state>MA</state>
<rating>8</rating>
<url>http://www.greatschools.org/city/Southborough/MA</url>
<lat>42.2936</lat>
<lon>-71.5307</lon>
<active>1</active>
</city>
<city>
<id>410127</id>
<name>Southbridge</name>
<state>MA</state>
<rating>2</rating>
<url>http://www.greatschools.org/city/Southbridge/MA</url>
<lat>42.0798</lat>
<lon>-72.0367</lon>
<active>1</active>
</city>
<city>
<id>410342</id>
<name>Southwick</name>
<state>MA</state>
<rating>5</rating>
<url>http://www.greatschools.org/city/Southwick/MA</url>
<lat>42.0516</lat>
<lon>-72.7693</lon>
<active>1</active>
</city>
<city>
<id>409947</id>
<name>Spencer</name>
<state>MA</state>
<rating>3</rating>
<url>http://www.greatschools.org/city/Spencer/MA</url>
<lat>42.2438</lat>
<lon>-71.9931</lon>
<active>1</active>
</city>
<city>
<id>409938</id>
<name>Springfield</name>
<state>MA</state>
<rating>2</rating>
<url>http://www.greatschools.org/city/Springfield/MA</url>
<lat>42.1117</lat>
<lon>-72.5511</lon>
<active>1</active>
</city>
<city>
<id>409986</id>
<name>Sterling</name>
<state>MA</state>
<rating>9</rating>
<url>http://www.greatschools.org/city/Sterling/MA</url>
<lat>42.4371</lat>
<lon>-71.7726</lon>
<active>1</active>
</city>
<city>
<id>410192</id>
<name>Still River</name>
<state>MA</state>
<rating/>
<url>http://www.greatschools.org/city/Still_River/MA</url>
<lat>42.5001</lat>
<lon>-71.5776</lon>
<active>1</active>
</city>
<city>
<id>410103</id>
<name>Stockbridge</name>
<state>MA</state>
<rating/>
<url>http://www.greatschools.org/city/Stockbridge/MA</url>
<lat>42.2868</lat>
<lon>-73.3185</lon>
<active>1</active>
</city>
<city>
<id>410198</id>
<name>Stoneham</name>
<state>MA</state>
<rating>7</rating>
<url>http://www.greatschools.org/city/Stoneham/MA</url>
<lat>42.4825</lat>
<lon>-71.0968</lon>
<active>1</active>
</city>
<city>
<id>409980</id>
<name>Stoughton</name>
<state>MA</state>
<rating>5</rating>
<url>http://www.greatschools.org/city/Stoughton/MA</url>
<lat>42.1252</lat>
<lon>-71.1064</lon>
<active>1</active>
</city>
<city>
<id>410095</id>
<name>Stow</name>
<state>MA</state>
<rating>8</rating>
<url>http://www.greatschools.org/city/Stow/MA</url>
<lat>42.4311</lat>
<lon>-71.5131</lon>
<active>1</active>
</city>
<city>
<id>410137</id>
<name>Sturbridge</name>
<state>MA</state>
<rating>9</rating>
<url>http://www.greatschools.org/city/Sturbridge/MA</url>
<lat>42.0981</lat>
<lon>-72.0669</lon>
<active>1</active>
</city>
<city>
<id>410087</id>
<name>Sudbury</name>
<state>MA</state>
<rating>9</rating>
<url>http://www.greatschools.org/city/Sudbury/MA</url>
<lat>42.3847</lat>
<lon>-71.4283</lon>
<active>1</active>
</city>
<city>
<id>410245</id>
<name>Sunderland</name>
<state>MA</state>
<rating>9</rating>
<url>http://www.greatschools.org/city/Sunderland/MA</url>
<lat>42.4566</lat>
<lon>-72.5651</lon>
<active>1</active>
</city>
<city>
<id>410101</id>
<name>Sutton</name>
<state>MA</state>
<rating>6</rating>
<url>http://www.greatschools.org/city/Sutton/MA</url>
<lat>42.1432</lat>
<lon>-71.743</lon>
<active>1</active>
</city>
<city>
<id>410244</id>
<name>Swampscott</name>
<state>MA</state>
<rating>7</rating>
<url>http://www.greatschools.org/city/Swampscott/MA</url>
<lat>42.4745</lat>
<lon>-70.9088</lon>
<active>1</active>
</city>
<city>
<id>410057</id>
<name>Swansea</name>
<state>MA</state>
<rating>6</rating>
<url>http://www.greatschools.org/city/Swansea/MA</url>
<lat>41.7468</lat>
<lon>-71.2121</lon>
<active>1</active>
</city>
<city>
<id>410059</id>
<name>Taunton</name>
<state>MA</state>
<rating>4</rating>
<url>http://www.greatschools.org/city/Taunton/MA</url>
<lat>41.9008</lat>
<lon>-71.0938</lon>
<active>1</active>
</city>
<city>
<id>409945</id>
<name>Teaticket</name>
<state>MA</state>
<rating>3</rating>
<url>http://www.greatschools.org/city/Teaticket/MA</url>
<lat>41.5642</lat>
<lon>-70.5857</lon>
<active>1</active>
</city>
<city>
<id>410024</id>
<name>Templeton</name>
<state>MA</state>
<rating/>
<url>http://www.greatschools.org/city/Templeton/MA</url>
<lat>42.552</lat>
<lon>-72.0628</lon>
<active>1</active>
</city>
<city>
<id>410110</id>
<name>Tewksbury</name>
<state>MA</state>
<rating>6</rating>
<url>http://www.greatschools.org/city/Tewksbury/MA</url>
<lat>42.6041</lat>
<lon>-71.2231</lon>
<active>1</active>
</city>
<city>
<id>442413</id>
<name>Three Rivers</name>
<state>MA</state>
<rating/>
<url>http://www.greatschools.org/city/Three_Rivers/MA</url>
<lat>42.1798</lat>
<lon>-72.3624</lon>
<active>1</active>
</city>
<city>
<id>446077</id>
<name>Tisbury</name>
<state>MA</state>
<rating/>
<url>http://www.greatschools.org/city/Tisbury/MA</url>
<lat>41.4543</lat>
<lon>-70.6036</lon>
<active>1</active>
</city>
<city>
<id>410241</id>
<name>Topsfield</name>
<state>MA</state>
<rating>8</rating>
<url>http://www.greatschools.org/city/Topsfield/MA</url>
<lat>42.6411</lat>
<lon>-70.956</lon>
<active>1</active>
</city>
<city>
<id>409987</id>
<name>Townsend</name>
<state>MA</state>
<rating>5</rating>
<url>http://www.greatschools.org/city/Townsend/MA</url>
<lat>42.6709</lat>
<lon>-71.7048</lon>
<active>1</active>
</city>
<city>
<id>410240</id>
<name>Truro</name>
<state>MA</state>
<rating>8</rating>
<url>http://www.greatschools.org/city/Truro/MA</url>
<lat>41.9989</lat>
<lon>-70.0576</lon>
<active>1</active>
</city>
<city>
<id>410078</id>
<name>Turners Falls</name>
<state>MA</state>
<rating>3</rating>
<url>http://www.greatschools.org/city/Turners_Falls/MA</url>
<lat>42.5997</lat>
<lon>-72.5549</lon>
<active>1</active>
</city>
<city>
<id>445086</id>
<name>Tyngsboro</name>
<state>MA</state>
<rating/>
<url>http://www.greatschools.org/city/Tyngsboro/MA</url>
<lat>42.6787</lat>
<lon>-71.4243</lon>
<active>1</active>
</city>
<city>
<id>410094</id>
<name>Tyngsborough</name>
<state>MA</state>
<rating>5</rating>
<url>http://www.greatschools.org/city/Tyngsborough/MA</url>
<lat>42.669</lat>
<lon>-71.419</lon>
<active>1</active>
</city>
<city>
<id>410169</id>
<name>Upton</name>
<state>MA</state>
<rating>8</rating>
<url>http://www.greatschools.org/city/Upton/MA</url>
<lat>42.1715</lat>
<lon>-71.6091</lon>
<active>1</active>
</city>
<city>
<id>410214</id>
<name>Uxbridge</name>
<state>MA</state>
<rating>4</rating>
<url>http://www.greatschools.org/city/Uxbridge/MA</url>
<lat>42.072</lat>
<lon>-71.6312</lon>
<active>1</active>
</city>
<city>
<id>410212</id>
<name>Vineyard Haven</name>
<state>MA</state>
<rating>7</rating>
<url>http://www.greatschools.org/city/Vineyard_Haven/MA</url>
<lat>41.4565</lat>
<lon>-70.6077</lon>
<active>1</active>
</city>
<city>
<id>410268</id>
<name>Waban</name>
<state>MA</state>
<rating>8</rating>
<url>http://www.greatschools.org/city/Waban/MA</url>
<lat>42.3275</lat>
<lon>-71.2303</lon>
<active>1</active>
</city>
<city>
<id>410092</id>
<name>Wakefield</name>
<state>MA</state>
<rating>6</rating>
<url>http://www.greatschools.org/city/Wakefield/MA</url>
<lat>42.5007</lat>
<lon>-71.0673</lon>
<active>1</active>
</city>
<city>
<id>410235</id>
<name>Wales</name>
<state>MA</state>
<rating>7</rating>
<url>http://www.greatschools.org/city/Wales/MA</url>
<lat>42.0615</lat>
<lon>-72.2196</lon>
<active>1</active>
</city>
<city>
<id>410006</id>
<name>Walpole</name>
<state>MA</state>
<rating>7</rating>
<url>http://www.greatschools.org/city/Walpole/MA</url>
<lat>42.1397</lat>
<lon>-71.2456</lon>
<active>1</active>
</city>
<city>
<id>409943</id>
<name>Waltham</name>
<state>MA</state>
<rating>6</rating>
<url>http://www.greatschools.org/city/Waltham/MA</url>
<lat>42.3823</lat>
<lon>-71.2373</lon>
<active>1</active>
</city>
<city>
<id>445087</id>
<name>Waquoit</name>
<state>MA</state>
<rating/>
<url>http://www.greatschools.org/city/Waquoit/MA</url>
<lat>41.605</lat>
<lon>-70.539</lon>
<active>1</active>
</city>
<city>
<id>410189</id>
<name>Ware</name>
<state>MA</state>
<rating>3</rating>
<url>http://www.greatschools.org/city/Ware/MA</url>
<lat>42.2588</lat>
<lon>-72.2454</lon>
<active>1</active>
</city>
<city>
<id>409939</id>
<name>Wareham</name>
<state>MA</state>
<rating>3</rating>
<url>http://www.greatschools.org/city/Wareham/MA</url>
<lat>41.7538</lat>
<lon>-70.7108</lon>
<active>1</active>
</city>
<city>
<id>410230</id>
<name>Warren</name>
<state>MA</state>
<rating>4</rating>
<url>http://www.greatschools.org/city/Warren/MA</url>
<lat>42.2127</lat>
<lon>-72.1923</lon>
<active>1</active>
</city>
<city>
<id>410257</id>
<name>Warwick</name>
<state>MA</state>
<rating>4</rating>
<url>http://www.greatschools.org/city/Warwick/MA</url>
<lat>42.6717</lat>
<lon>-72.3398</lon>
<active>1</active>
</city>
<city>
<id>410042</id>
<name>Watertown</name>
<state>MA</state>
<rating>5</rating>
<url>http://www.greatschools.org/city/Watertown/MA</url>
<lat>42.3714</lat>
<lon>-71.1801</lon>
<active>1</active>
</city>
<city>
<id>410177</id>
<name>Wayland</name>
<state>MA</state>
<rating>8</rating>
<url>http://www.greatschools.org/city/Wayland/MA</url>
<lat>42.3495</lat>
<lon>-71.3573</lon>
<active>1</active>
</city>
<city>
<id>410215</id>
<name>Webster</name>
<state>MA</state>
<rating>2</rating>
<url>http://www.greatschools.org/city/Webster/MA</url>
<lat>42.0487</lat>
<lon>-71.8758</lon>
<active>1</active>
</city>
<city>
<id>409979</id>
<name>Wellesley</name>
<state>MA</state>
<rating>9</rating>
<url>http://www.greatschools.org/city/Wellesley/MA</url>
<lat>42.3055</lat>
<lon>-71.2883</lon>
<active>1</active>
</city>
<city>
<id>442412</id>
<name>Wellesley Hills</name>
<state>MA</state>
<rating/>
<url>http://www.greatschools.org/city/Wellesley_Hills/MA</url>
<lat>42.3122</lat>
<lon>-71.2773</lon>
<active>1</active>
</city>
<city>
<id>410229</id>
<name>Wellfleet</name>
<state>MA</state>
<rating>7</rating>
<url>http://www.greatschools.org/city/Wellfleet/MA</url>
<lat>41.9257</lat>
<lon>-70.0161</lon>
<active>1</active>
</city>
<city>
<id>410130</id>
<name>Wendell</name>
<state>MA</state>
<rating/>
<url>http://www.greatschools.org/city/Wendell/MA</url>
<lat>42.5473</lat>
<lon>-72.4031</lon>
<active>1</active>
</city>
<city>
<id>410173</id>
<name>Wenham</name>
<state>MA</state>
<rating>6</rating>
<url>http://www.greatschools.org/city/Wenham/MA</url>
<lat>42.6009</lat>
<lon>-70.8772</lon>
<active>1</active>
</city>
<city>
<id>410107</id>
<name>West Barnstable</name>
<state>MA</state>
<rating>6</rating>
<url>http://www.greatschools.org/city/West_Barnstable/MA</url>
<lat>41.7009</lat>
<lon>-70.3758</lon>
<active>1</active>
</city>
<city>
<id>410228</id>
<name>West Boylston</name>
<state>MA</state>
<rating>5</rating>
<url>http://www.greatschools.org/city/West_Boylston/MA</url>
<lat>42.3575</lat>
<lon>-71.7828</lon>
<active>1</active>
</city>
<city>
<id>409990</id>
<name>West Bridgewater</name>
<state>MA</state>
<rating>7</rating>
<url>http://www.greatschools.org/city/West_Bridgewater/MA</url>
<lat>42.0253</lat>
<lon>-71.0165</lon>
<active>1</active>
</city>
<city>
<id>410180</id>
<name>West Brookfield</name>
<state>MA</state>
<rating>7</rating>
<url>http://www.greatschools.org/city/West_Brookfield/MA</url>
<lat>42.235</lat>
<lon>-72.1437</lon>
<active>1</active>
</city>
<city>
<id>442411</id>
<name>West Chatham</name>
<state>MA</state>
<rating/>
<url>http://www.greatschools.org/city/West_Chatham/MA</url>
<lat>41.6845</lat>
<lon>-69.9933</lon>
<active>1</active>
</city>
<city>
<id>410319</id>
<name>West Dennis</name>
<state>MA</state>
<rating>3</rating>
<url>http://www.greatschools.org/city/West_Dennis/MA</url>
<lat>41.6673</lat>
<lon>-70.1618</lon>
<active>1</active>
</city>
<city>
<id>410184</id>
<name>West Harwich</name>
<state>MA</state>
<rating/>
<url>http://www.greatschools.org/city/West_Harwich/MA</url>
<lat>41.6675</lat>
<lon>-70.1131</lon>
<active>1</active>
</city>
<city>
<id>445088</id>
<name>West Marlboro</name>
<state>MA</state>
<rating/>
<url>http://www.greatschools.org/city/West_Marlboro/MA</url>
<lat>42.3356</lat>
<lon>-71.6029</lon>
<active>1</active>
</city>
<city>
<id>410143</id>
<name>West Newbury</name>
<state>MA</state>
<rating>7</rating>
<url>http://www.greatschools.org/city/West_Newbury/MA</url>
<lat>42.7949</lat>
<lon>-70.9792</lon>
<active>1</active>
</city>
<city>
<id>410126</id>
<name>West Newton</name>
<state>MA</state>
<rating>8</rating>
<url>http://www.greatschools.org/city/West_Newton/MA</url>
<lat>42.352</lat>
<lon>-71.227</lon>
<active>1</active>
</city>
<city>
<id>409975</id>
<name>West Roxbury</name>
<state>MA</state>
<rating>4</rating>
<url>http://www.greatschools.org/city/West_Roxbury/MA</url>
<lat>42.2785</lat>
<lon>-71.1582</lon>
<active>1</active>
</city>
<city>
<id>410070</id>
<name>West Springfield</name>
<state>MA</state>
<rating>5</rating>
<url>http://www.greatschools.org/city/West_Springfield/MA</url>
<lat>42.1151</lat>
<lon>-72.6397</lon>
<active>1</active>
</city>
<city>
<id>445089</id>
<name>West Springfl</name>
<state>MA</state>
<rating/>
<url>http://www.greatschools.org/city/West_Springfl/MA</url>
<lat>42.125</lat>
<lon>-72.6506</lon>
<active>1</active>
</city>
<city>
<id>410079</id>
<name>West Tisbury</name>
<state>MA</state>
<rating>7</rating>
<url>http://www.greatschools.org/city/West_Tisbury/MA</url>
<lat>41.3982</lat>
<lon>-70.65</lon>
<active>1</active>
</city>
<city>
<id>442409</id>
<name>West Townsend</name>
<state>MA</state>
<rating/>
<url>http://www.greatschools.org/city/West_Townsend/MA</url>
<lat>42.6721</lat>
<lon>-71.7424</lon>
<active>1</active>
</city>
<city>
<id>410231</id>
<name>West Warren</name>
<state>MA</state>
<rating>6</rating>
<url>http://www.greatschools.org/city/West_Warren/MA</url>
<lat>42.2116</lat>
<lon>-72.2182</lon>
<active>1</active>
</city>
<city>
<id>410318</id>
<name>West Yarmouth</name>
<state>MA</state>
<rating>3</rating>
<url>http://www.greatschools.org/city/West_Yarmouth/MA</url>
<lat>41.6562</lat>
<lon>-70.2463</lon>
<active>1</active>
</city>
<city>
<id>410013</id>
<name>Westborough</name>
<state>MA</state>
<rating>9</rating>
<url>http://www.greatschools.org/city/Westborough/MA</url>
<lat>42.2683</lat>
<lon>-71.6156</lon>
<active>1</active>
</city>
<city>
<id>409961</id>
<name>Westfield</name>
<state>MA</state>
<rating>4</rating>
<url>http://www.greatschools.org/city/Westfield/MA</url>
<lat>42.1263</lat>
<lon>-72.7498</lon>
<active>1</active>
</city>
<city>
<id>409981</id>
<name>Westford</name>
<state>MA</state>
<rating>9</rating>
<url>http://www.greatschools.org/city/Westford/MA</url>
<lat>42.5892</lat>
<lon>-71.4382</lon>
<active>1</active>
</city>
<city>
<id>410227</id>
<name>Westhampton</name>
<state>MA</state>
<rating>6</rating>
<url>http://www.greatschools.org/city/Westhampton/MA</url>
<lat>42.3171</lat>
<lon>-72.7669</lon>
<active>1</active>
</city>
<city>
<id>410186</id>
<name>Westminster</name>
<state>MA</state>
<rating>3</rating>
<url>http://www.greatschools.org/city/Westminster/MA</url>
<lat>42.5747</lat>
<lon>-71.9896</lon>
<active>1</active>
</city>
<city>
<id>409994</id>
<name>Weston</name>
<state>MA</state>
<rating>8</rating>
<url>http://www.greatschools.org/city/Weston/MA</url>
<lat>42.3596</lat>
<lon>-71.2995</lon>
<active>1</active>
</city>
<city>
<id>410108</id>
<name>Westport</name>
<state>MA</state>
<rating>5</rating>
<url>http://www.greatschools.org/city/Westport/MA</url>
<lat>41.621</lat>
<lon>-71.0862</lon>
<active>1</active>
</city>
<city>
<id>410003</id>
<name>Westwood</name>
<state>MA</state>
<rating>9</rating>
<url>http://www.greatschools.org/city/Westwood/MA</url>
<lat>42.2162</lat>
<lon>-71.2104</lon>
<active>1</active>
</city>
<city>
<id>409960</id>
<name>Weymouth</name>
<state>MA</state>
<rating>5</rating>
<url>http://www.greatschools.org/city/Weymouth/MA</url>
<lat>42.2041</lat>
<lon>-70.9457</lon>
<active>1</active>
</city>
<city>
<id>410226</id>
<name>Whately</name>
<state>MA</state>
<rating>6</rating>
<url>http://www.greatschools.org/city/Whately/MA</url>
<lat>42.3952</lat>
<lon>-72.6397</lon>
<active>1</active>
</city>
<city>
<id>410204</id>
<name>Whitinsville</name>
<state>MA</state>
<rating>4</rating>
<url>http://www.greatschools.org/city/Whitinsville/MA</url>
<lat>42.1153</lat>
<lon>-71.6705</lon>
<active>1</active>
</city>
<city>
<id>410225</id>
<name>Whitman</name>
<state>MA</state>
<rating>5</rating>
<url>http://www.greatschools.org/city/Whitman/MA</url>
<lat>42.0816</lat>
<lon>-70.9372</lon>
<active>1</active>
</city>
<city>
<id>410005</id>
<name>Wilbraham</name>
<state>MA</state>
<rating>7</rating>
<url>http://www.greatschools.org/city/Wilbraham/MA</url>
<lat>42.1356</lat>
<lon>-72.4375</lon>
<active>1</active>
</city>
<city>
<id>410224</id>
<name>Williamsburg</name>
<state>MA</state>
<rating/>
<url>http://www.greatschools.org/city/Williamsburg/MA</url>
<lat>42.4097</lat>
<lon>-72.7743</lon>
<active>1</active>
</city>
<city>
<id>410205</id>
<name>Williamstown</name>
<state>MA</state>
<rating>7</rating>
<url>http://www.greatschools.org/city/Williamstown/MA</url>
<lat>42.7111</lat>
<lon>-73.2012</lon>
<active>1</active>
</city>
<city>
<id>410147</id>
<name>Wilmington</name>
<state>MA</state>
<rating>6</rating>
<url>http://www.greatschools.org/city/Wilmington/MA</url>
<lat>42.5588</lat>
<lon>-71.1733</lon>
<active>1</active>
</city>
<city>
<id>410201</id>
<name>Winchendon</name>
<state>MA</state>
<rating>2</rating>
<url>http://www.greatschools.org/city/Winchendon/MA</url>
<lat>42.6854</lat>
<lon>-72.0461</lon>
<active>1</active>
</city>
<city>
<id>410036</id>
<name>Winchester</name>
<state>MA</state>
<rating>9</rating>
<url>http://www.greatschools.org/city/Winchester/MA</url>
<lat>42.4531</lat>
<lon>-71.1439</lon>
<active>1</active>
</city>
<city>
<id>409959</id>
<name>Winthrop</name>
<state>MA</state>
<rating>5</rating>
<url>http://www.greatschools.org/city/Winthrop/MA</url>
<lat>42.3774</lat>
<lon>-70.98</lon>
<active>1</active>
</city>
<city>
<id>410052</id>
<name>Woburn</name>
<state>MA</state>
<rating>5</rating>
<url>http://www.greatschools.org/city/Woburn/MA</url>
<lat>42.4835</lat>
<lon>-71.157</lon>
<active>1</active>
</city>
<city>
<id>410183</id>
<name>Woods Hole</name>
<state>MA</state>
<rating/>
<url>http://www.greatschools.org/city/Woods_Hole/MA</url>
<lat>41.5292</lat>
<lon>-70.6608</lon>
<active>1</active>
</city>
<city>
<id>409940</id>
<name>Worcester</name>
<state>MA</state>
<rating>4</rating>
<url>http://www.greatschools.org/city/Worcester/MA</url>
<lat>42.2674</lat>
<lon>-71.8057</lon>
<active>1</active>
</city>
<city>
<id>410302</id>
<name>Worthington</name>
<state>MA</state>
<rating/>
<url>http://www.greatschools.org/city/Worthington/MA</url>
<lat>42.396</lat>
<lon>-72.9341</lon>
<active>1</active>
</city>
<city>
<id>410140</id>
<name>Wrentham</name>
<state>MA</state>
<rating>8</rating>
<url>http://www.greatschools.org/city/Wrentham/MA</url>
<lat>42.0594</lat>
<lon>-71.3437</lon>
<active>1</active>
</city>
<city>
<id>446078</id>
<name>Yarmouth</name>
<state>MA</state>
<rating/>
<url>http://www.greatschools.org/city/Yarmouth/MA</url>
<lat>41.6727</lat>
<lon>-70.1863</lon>
<active>1</active>
</city>
<city>
<id>410131</id>
<name>Yarmouth Port</name>
<state>MA</state>
<rating/>
<url>http://www.greatschools.org/city/Yarmouth_Port/MA</url>
<lat>41.7084</lat>
<lon>-70.2204</lon>
<active>1</active>
</city>
</greatschools-city-feed>
