<?xml version="1.0" encoding="utf-8"?><greatschools-city-feed xmlns:xsi="http://www.w3.org/2001/XMLSchema-instance" xsi:noNamespaceSchemaLocation="http://www.greatschools.org/feeds/greatschools-city2.xsd">
<city>
<id>414075</id>
<name>Abercrombie</name>
<state>ND</state>
<rating>7</rating>
<url>http://www.greatschools.org/city/Abercrombie/ND</url>
<lat>46.4481</lat>
<lon>-96.7299</lon>
<active>1</active>
</city>
<city>
<id>414063</id>
<name>Adams</name>
<state>ND</state>
<rating/>
<url>http://www.greatschools.org/city/Adams/ND</url>
<lat>48.4223</lat>
<lon>-98.073</lon>
<active>1</active>
</city>
<city>
<id>414062</id>
<name>Alexander</name>
<state>ND</state>
<rating>5</rating>
<url>http://www.greatschools.org/city/Alexander/ND</url>
<lat>47.8426</lat>
<lon>-103.643</lon>
<active>1</active>
</city>
<city>
<id>414073</id>
<name>Amidon</name>
<state>ND</state>
<rating/>
<url>http://www.greatschools.org/city/Amidon/ND</url>
<lat>46.482</lat>
<lon>-103.323</lon>
<active>1</active>
</city>
<city>
<id>414061</id>
<name>Anamoose</name>
<state>ND</state>
<rating>8</rating>
<url>http://www.greatschools.org/city/Anamoose/ND</url>
<lat>47.8813</lat>
<lon>-100.243</lon>
<active>1</active>
</city>
<city>
<id>441942</id>
<name>Arthur</name>
<state>ND</state>
<rating/>
<url>http://www.greatschools.org/city/Arthur/ND</url>
<lat>47.1048</lat>
<lon>-97.2153</lon>
<active>1</active>
</city>
<city>
<id>414060</id>
<name>Ashley</name>
<state>ND</state>
<rating>8</rating>
<url>http://www.greatschools.org/city/Ashley/ND</url>
<lat>46.0348</lat>
<lon>-99.3719</lon>
<active>1</active>
</city>
<city>
<id>445286</id>
<name>Ayr</name>
<state>ND</state>
<rating/>
<url>http://www.greatschools.org/city/Ayr/ND</url>
<lat>46.9937</lat>
<lon>-97.4509</lon>
<active>1</active>
</city>
<city>
<id>414058</id>
<name>Baldwin</name>
<state>ND</state>
<rating/>
<url>http://www.greatschools.org/city/Baldwin/ND</url>
<lat>47.0033</lat>
<lon>-100.734</lon>
<active>1</active>
</city>
<city>
<id>414057</id>
<name>Beach</name>
<state>ND</state>
<rating>8</rating>
<url>http://www.greatschools.org/city/Beach/ND</url>
<lat>46.9152</lat>
<lon>-104.005</lon>
<active>1</active>
</city>
<city>
<id>413893</id>
<name>Belcourt</name>
<state>ND</state>
<rating/>
<url>http://www.greatschools.org/city/Belcourt/ND</url>
<lat>48.8402</lat>
<lon>-99.7413</lon>
<active>1</active>
</city>
<city>
<id>414042</id>
<name>Belfield</name>
<state>ND</state>
<rating>5</rating>
<url>http://www.greatschools.org/city/Belfield/ND</url>
<lat>46.8868</lat>
<lon>-103.197</lon>
<active>1</active>
</city>
<city>
<id>413888</id>
<name>Berthold</name>
<state>ND</state>
<rating>7</rating>
<url>http://www.greatschools.org/city/Berthold/ND</url>
<lat>48.3158</lat>
<lon>-101.735</lon>
<active>1</active>
</city>
<city>
<id>414077</id>
<name>Beulah</name>
<state>ND</state>
<rating>6</rating>
<url>http://www.greatschools.org/city/Beulah/ND</url>
<lat>47.2689</lat>
<lon>-101.777</lon>
<active>1</active>
</city>
<city>
<id>414068</id>
<name>Binford</name>
<state>ND</state>
<rating>9</rating>
<url>http://www.greatschools.org/city/Binford/ND</url>
<lat>47.5616</lat>
<lon>-98.3456</lon>
<active>1</active>
</city>
<city>
<id>413881</id>
<name>Bismarck</name>
<state>ND</state>
<rating>5</rating>
<url>http://www.greatschools.org/city/Bismarck/ND</url>
<lat>46.8146</lat>
<lon>-100.781</lon>
<active>1</active>
</city>
<city>
<id>413922</id>
<name>Bottineau</name>
<state>ND</state>
<rating>6</rating>
<url>http://www.greatschools.org/city/Bottineau/ND</url>
<lat>48.8252</lat>
<lon>-100.444</lon>
<active>1</active>
</city>
<city>
<id>414055</id>
<name>Bowbells</name>
<state>ND</state>
<rating/>
<url>http://www.greatschools.org/city/Bowbells/ND</url>
<lat>48.8043</lat>
<lon>-102.245</lon>
<active>1</active>
</city>
<city>
<id>414054</id>
<name>Bowman</name>
<state>ND</state>
<rating>6</rating>
<url>http://www.greatschools.org/city/Bowman/ND</url>
<lat>46.1822</lat>
<lon>-103.402</lon>
<active>1</active>
</city>
<city>
<id>441945</id>
<name>Brocket</name>
<state>ND</state>
<rating/>
<url>http://www.greatschools.org/city/Brocket/ND</url>
<lat>48.2129</lat>
<lon>-98.3534</lon>
<active>1</active>
</city>
<city>
<id>413982</id>
<name>Buchanan</name>
<state>ND</state>
<rating>6</rating>
<url>http://www.greatschools.org/city/Buchanan/ND</url>
<lat>47.0618</lat>
<lon>-98.8298</lon>
<active>1</active>
</city>
<city>
<id>414011</id>
<name>Buffalo</name>
<state>ND</state>
<rating>10</rating>
<url>http://www.greatschools.org/city/Buffalo/ND</url>
<lat>46.9203</lat>
<lon>-97.5496</lon>
<active>1</active>
</city>
<city>
<id>413951</id>
<name>Burlington</name>
<state>ND</state>
<rating>6</rating>
<url>http://www.greatschools.org/city/Burlington/ND</url>
<lat>48.276</lat>
<lon>-101.426</lon>
<active>1</active>
</city>
<city>
<id>414052</id>
<name>Buxton</name>
<state>ND</state>
<rating>7</rating>
<url>http://www.greatschools.org/city/Buxton/ND</url>
<lat>47.6027</lat>
<lon>-97.1</lon>
<active>1</active>
</city>
<city>
<id>413966</id>
<name>Cando</name>
<state>ND</state>
<rating>8</rating>
<url>http://www.greatschools.org/city/Cando/ND</url>
<lat>48.4884</lat>
<lon>-99.203</lon>
<active>1</active>
</city>
<city>
<id>413970</id>
<name>Cannon Ball</name>
<state>ND</state>
<rating>1</rating>
<url>http://www.greatschools.org/city/Cannon_Ball/ND</url>
<lat>46.3333</lat>
<lon>-100.64</lon>
<active>1</active>
</city>
<city>
<id>413874</id>
<name>Carrington</name>
<state>ND</state>
<rating>7</rating>
<url>http://www.greatschools.org/city/Carrington/ND</url>
<lat>47.4495</lat>
<lon>-99.1227</lon>
<active>1</active>
</city>
<city>
<id>413977</id>
<name>Carson</name>
<state>ND</state>
<rating>6</rating>
<url>http://www.greatschools.org/city/Carson/ND</url>
<lat>46.4216</lat>
<lon>-101.566</lon>
<active>1</active>
</city>
<city>
<id>414027</id>
<name>Cartwright</name>
<state>ND</state>
<rating/>
<url>http://www.greatschools.org/city/Cartwright/ND</url>
<lat>47.7898</lat>
<lon>-103.948</lon>
<active>1</active>
</city>
<city>
<id>413879</id>
<name>Casselton</name>
<state>ND</state>
<rating>5</rating>
<url>http://www.greatschools.org/city/Casselton/ND</url>
<lat>46.9005</lat>
<lon>-97.2114</lon>
<active>1</active>
</city>
<city>
<id>413931</id>
<name>Cavalier</name>
<state>ND</state>
<rating>8</rating>
<url>http://www.greatschools.org/city/Cavalier/ND</url>
<lat>48.7952</lat>
<lon>-97.6238</lon>
<active>1</active>
</city>
<city>
<id>413880</id>
<name>Center</name>
<state>ND</state>
<rating>6</rating>
<url>http://www.greatschools.org/city/Center/ND</url>
<lat>47.1155</lat>
<lon>-101.298</lon>
<active>1</active>
</city>
<city>
<id>414074</id>
<name>Colfax</name>
<state>ND</state>
<rating>8</rating>
<url>http://www.greatschools.org/city/Colfax/ND</url>
<lat>46.4694</lat>
<lon>-96.8716</lon>
<active>1</active>
</city>
<city>
<id>413878</id>
<name>Cooperstown</name>
<state>ND</state>
<rating>5</rating>
<url>http://www.greatschools.org/city/Cooperstown/ND</url>
<lat>47.4451</lat>
<lon>-98.1229</lon>
<active>1</active>
</city>
<city>
<id>413932</id>
<name>Crosby</name>
<state>ND</state>
<rating>4</rating>
<url>http://www.greatschools.org/city/Crosby/ND</url>
<lat>48.9107</lat>
<lon>-103.295</lon>
<active>1</active>
</city>
<city>
<id>413949</id>
<name>Crystal</name>
<state>ND</state>
<rating>5</rating>
<url>http://www.greatschools.org/city/Crystal/ND</url>
<lat>48.5966</lat>
<lon>-97.6709</lon>
<active>1</active>
</city>
<city>
<id>414081</id>
<name>Davenport</name>
<state>ND</state>
<rating/>
<url>http://www.greatschools.org/city/Davenport/ND</url>
<lat>46.7142</lat>
<lon>-97.0683</lon>
<active>1</active>
</city>
<city>
<id>413950</id>
<name>Des Lacs</name>
<state>ND</state>
<rating>5</rating>
<url>http://www.greatschools.org/city/Des_Lacs/ND</url>
<lat>48.2565</lat>
<lon>-101.564</lon>
<active>1</active>
</city>
<city>
<id>413918</id>
<name>Devils Lake</name>
<state>ND</state>
<rating>5</rating>
<url>http://www.greatschools.org/city/Devils_Lake/ND</url>
<lat>48.1115</lat>
<lon>-98.8566</lon>
<active>1</active>
</city>
<city>
<id>413896</id>
<name>Dickinson</name>
<state>ND</state>
<rating>5</rating>
<url>http://www.greatschools.org/city/Dickinson/ND</url>
<lat>46.8856</lat>
<lon>-102.789</lon>
<active>1</active>
</city>
<city>
<id>445287</id>
<name>Donnybrook</name>
<state>ND</state>
<rating/>
<url>http://www.greatschools.org/city/Donnybrook/ND</url>
<lat>48.5102</lat>
<lon>-101.883</lon>
<active>1</active>
</city>
<city>
<id>414078</id>
<name>Drake</name>
<state>ND</state>
<rating>5</rating>
<url>http://www.greatschools.org/city/Drake/ND</url>
<lat>47.9247</lat>
<lon>-100.371</lon>
<active>1</active>
</city>
<city>
<id>414050</id>
<name>Drayton</name>
<state>ND</state>
<rating>6</rating>
<url>http://www.greatschools.org/city/Drayton/ND</url>
<lat>48.5622</lat>
<lon>-97.1799</lon>
<active>1</active>
</city>
<city>
<id>414049</id>
<name>Dunseith</name>
<state>ND</state>
<rating>1</rating>
<url>http://www.greatschools.org/city/Dunseith/ND</url>
<lat>48.8127</lat>
<lon>-100.062</lon>
<active>1</active>
</city>
<city>
<id>414048</id>
<name>Edgeley</name>
<state>ND</state>
<rating>8</rating>
<url>http://www.greatschools.org/city/Edgeley/ND</url>
<lat>46.3601</lat>
<lon>-98.7139</lon>
<active>1</active>
</city>
<city>
<id>414047</id>
<name>Edinburg</name>
<state>ND</state>
<rating/>
<url>http://www.greatschools.org/city/Edinburg/ND</url>
<lat>48.4938</lat>
<lon>-97.8651</lon>
<active>1</active>
</city>
<city>
<id>414046</id>
<name>Edmore</name>
<state>ND</state>
<rating/>
<url>http://www.greatschools.org/city/Edmore/ND</url>
<lat>48.4123</lat>
<lon>-98.4537</lon>
<active>1</active>
</city>
<city>
<id>414065</id>
<name>Elgin</name>
<state>ND</state>
<rating>7</rating>
<url>http://www.greatschools.org/city/Elgin/ND</url>
<lat>46.4042</lat>
<lon>-101.845</lon>
<active>1</active>
</city>
<city>
<id>414044</id>
<name>Ellendale</name>
<state>ND</state>
<rating>8</rating>
<url>http://www.greatschools.org/city/Ellendale/ND</url>
<lat>46.0025</lat>
<lon>-98.5227</lon>
<active>1</active>
</city>
<city>
<id>414041</id>
<name>Emerado</name>
<state>ND</state>
<rating>1</rating>
<url>http://www.greatschools.org/city/Emerado/ND</url>
<lat>47.9295</lat>
<lon>-97.363</lon>
<active>1</active>
</city>
<city>
<id>414040</id>
<name>Enderlin</name>
<state>ND</state>
<rating>6</rating>
<url>http://www.greatschools.org/city/Enderlin/ND</url>
<lat>46.623</lat>
<lon>-97.6024</lon>
<active>1</active>
</city>
<city>
<id>414039</id>
<name>Fairmount</name>
<state>ND</state>
<rating>7</rating>
<url>http://www.greatschools.org/city/Fairmount/ND</url>
<lat>46.0539</lat>
<lon>-96.6017</lon>
<active>1</active>
</city>
<city>
<id>446175</id>
<name>Fairview</name>
<state>ND</state>
<rating/>
<url>http://www.greatschools.org/city/Fairview/ND</url>
<lat>47.8559</lat>
<lon>-104.038</lon>
<active>1</active>
</city>
<city>
<id>413882</id>
<name>Fargo</name>
<state>ND</state>
<rating>5</rating>
<url>http://www.greatschools.org/city/Fargo/ND</url>
<lat>46.8658</lat>
<lon>-96.8099</lon>
<active>1</active>
</city>
<city>
<id>413897</id>
<name>Fessenden</name>
<state>ND</state>
<rating>6</rating>
<url>http://www.greatschools.org/city/Fessenden/ND</url>
<lat>47.6496</lat>
<lon>-99.6272</lon>
<active>1</active>
</city>
<city>
<id>414038</id>
<name>Finley</name>
<state>ND</state>
<rating>5</rating>
<url>http://www.greatschools.org/city/Finley/ND</url>
<lat>47.5119</lat>
<lon>-97.8354</lon>
<active>1</active>
</city>
<city>
<id>414037</id>
<name>Flasher</name>
<state>ND</state>
<rating>6</rating>
<url>http://www.greatschools.org/city/Flasher/ND</url>
<lat>46.4556</lat>
<lon>-101.232</lon>
<active>1</active>
</city>
<city>
<id>419586</id>
<name>Forbes</name>
<state>ND</state>
<rating/>
<url>http://www.greatschools.org/city/Forbes/ND</url>
<lat>45.9429</lat>
<lon>-98.7837</lon>
<active>1</active>
</city>
<city>
<id>413873</id>
<name>Fordville</name>
<state>ND</state>
<rating/>
<url>http://www.greatschools.org/city/Fordville/ND</url>
<lat>48.2179</lat>
<lon>-97.7923</lon>
<active>1</active>
</city>
<city>
<id>413976</id>
<name>Forman</name>
<state>ND</state>
<rating>7</rating>
<url>http://www.greatschools.org/city/Forman/ND</url>
<lat>46.1057</lat>
<lon>-97.6361</lon>
<active>1</active>
</city>
<city>
<id>414076</id>
<name>Fort Ransom</name>
<state>ND</state>
<rating/>
<url>http://www.greatschools.org/city/Fort_Ransom/ND</url>
<lat>46.5208</lat>
<lon>-97.927</lon>
<active>1</active>
</city>
<city>
<id>413924</id>
<name>Fort Totten</name>
<state>ND</state>
<rating/>
<url>http://www.greatschools.org/city/Fort_Totten/ND</url>
<lat>47.9818</lat>
<lon>-99.0076</lon>
<active>1</active>
</city>
<city>
<id>413919</id>
<name>Fort Yates</name>
<state>ND</state>
<rating/>
<url>http://www.greatschools.org/city/Fort_Yates/ND</url>
<lat>46.0866</lat>
<lon>-100.63</lon>
<active>1</active>
</city>
<city>
<id>414043</id>
<name>Fullerton</name>
<state>ND</state>
<rating/>
<url>http://www.greatschools.org/city/Fullerton/ND</url>
<lat>46.1641</lat>
<lon>-98.4265</lon>
<active>1</active>
</city>
<city>
<id>414066</id>
<name>Gackle</name>
<state>ND</state>
<rating>3</rating>
<url>http://www.greatschools.org/city/Gackle/ND</url>
<lat>46.6269</lat>
<lon>-99.143</lon>
<active>1</active>
</city>
<city>
<id>414036</id>
<name>Garrison</name>
<state>ND</state>
<rating>8</rating>
<url>http://www.greatschools.org/city/Garrison/ND</url>
<lat>47.654</lat>
<lon>-101.414</lon>
<active>1</active>
</city>
<city>
<id>414035</id>
<name>Glen Ullin</name>
<state>ND</state>
<rating>4</rating>
<url>http://www.greatschools.org/city/Glen_Ullin/ND</url>
<lat>46.814</lat>
<lon>-101.829</lon>
<active>1</active>
</city>
<city>
<id>413892</id>
<name>Glenburn</name>
<state>ND</state>
<rating>5</rating>
<url>http://www.greatschools.org/city/Glenburn/ND</url>
<lat>48.5133</lat>
<lon>-101.22</lon>
<active>1</active>
</city>
<city>
<id>414067</id>
<name>Glenfield</name>
<state>ND</state>
<rating>5</rating>
<url>http://www.greatschools.org/city/Glenfield/ND</url>
<lat>47.4548</lat>
<lon>-98.5666</lon>
<active>1</active>
</city>
<city>
<id>414016</id>
<name>Golva</name>
<state>ND</state>
<rating/>
<url>http://www.greatschools.org/city/Golva/ND</url>
<lat>46.7344</lat>
<lon>-103.986</lon>
<active>1</active>
</city>
<city>
<id>414034</id>
<name>Goodrich</name>
<state>ND</state>
<rating/>
<url>http://www.greatschools.org/city/Goodrich/ND</url>
<lat>47.4761</lat>
<lon>-100.124</lon>
<active>1</active>
</city>
<city>
<id>413907</id>
<name>Grafton</name>
<state>ND</state>
<rating>6</rating>
<url>http://www.greatschools.org/city/Grafton/ND</url>
<lat>48.4152</lat>
<lon>-97.4108</lon>
<active>1</active>
</city>
<city>
<id>413891</id>
<name>Grand Forks</name>
<state>ND</state>
<rating>6</rating>
<url>http://www.greatschools.org/city/Grand_Forks/ND</url>
<lat>47.9098</lat>
<lon>-97.0565</lon>
<active>1</active>
</city>
<city>
<id>414033</id>
<name>Grand Forks AFB</name>
<state>ND</state>
<rating>6</rating>
<url>http://www.greatschools.org/city/Grand_Forks_AFB/ND</url>
<lat>47.955</lat>
<lon>-97.3892</lon>
<active>1</active>
</city>
<city>
<id>413901</id>
<name>Granville</name>
<state>ND</state>
<rating>6</rating>
<url>http://www.greatschools.org/city/Granville/ND</url>
<lat>48.266</lat>
<lon>-100.843</lon>
<active>1</active>
</city>
<city>
<id>414032</id>
<name>Grenora</name>
<state>ND</state>
<rating>2</rating>
<url>http://www.greatschools.org/city/Grenora/ND</url>
<lat>48.6193</lat>
<lon>-103.936</lon>
<active>1</active>
</city>
<city>
<id>413989</id>
<name>Gwinner</name>
<state>ND</state>
<rating>7</rating>
<url>http://www.greatschools.org/city/Gwinner/ND</url>
<lat>46.2253</lat>
<lon>-97.6607</lon>
<active>1</active>
</city>
<city>
<id>414059</id>
<name>Hague</name>
<state>ND</state>
<rating/>
<url>http://www.greatschools.org/city/Hague/ND</url>
<lat>46.0281</lat>
<lon>-99.9988</lon>
<active>1</active>
</city>
<city>
<id>413953</id>
<name>Halliday</name>
<state>ND</state>
<rating/>
<url>http://www.greatschools.org/city/Halliday/ND</url>
<lat>47.3532</lat>
<lon>-102.337</lon>
<active>1</active>
</city>
<city>
<id>413921</id>
<name>Hankinson</name>
<state>ND</state>
<rating>6</rating>
<url>http://www.greatschools.org/city/Hankinson/ND</url>
<lat>46.0705</lat>
<lon>-96.9019</lon>
<active>1</active>
</city>
<city>
<id>413933</id>
<name>Harvey</name>
<state>ND</state>
<rating>8</rating>
<url>http://www.greatschools.org/city/Harvey/ND</url>
<lat>47.7698</lat>
<lon>-99.9305</lon>
<active>1</active>
</city>
<city>
<id>413944</id>
<name>Harwood</name>
<state>ND</state>
<rating>7</rating>
<url>http://www.greatschools.org/city/Harwood/ND</url>
<lat>46.9814</lat>
<lon>-96.886</lon>
<active>1</active>
</city>
<city>
<id>414031</id>
<name>Hatton</name>
<state>ND</state>
<rating>5</rating>
<url>http://www.greatschools.org/city/Hatton/ND</url>
<lat>47.6392</lat>
<lon>-97.4584</lon>
<active>1</active>
</city>
<city>
<id>413906</id>
<name>Hazelton</name>
<state>ND</state>
<rating>3</rating>
<url>http://www.greatschools.org/city/Hazelton/ND</url>
<lat>46.4836</lat>
<lon>-100.279</lon>
<active>1</active>
</city>
<city>
<id>413929</id>
<name>Hazen</name>
<state>ND</state>
<rating>5</rating>
<url>http://www.greatschools.org/city/Hazen/ND</url>
<lat>47.2998</lat>
<lon>-101.624</lon>
<active>1</active>
</city>
<city>
<id>414030</id>
<name>Hebron</name>
<state>ND</state>
<rating>6</rating>
<url>http://www.greatschools.org/city/Hebron/ND</url>
<lat>46.9027</lat>
<lon>-102.045</lon>
<active>1</active>
</city>
<city>
<id>414029</id>
<name>Hettinger</name>
<state>ND</state>
<rating>6</rating>
<url>http://www.greatschools.org/city/Hettinger/ND</url>
<lat>46.0031</lat>
<lon>-102.635</lon>
<active>1</active>
</city>
<city>
<id>414028</id>
<name>Hillsboro</name>
<state>ND</state>
<rating>5</rating>
<url>http://www.greatschools.org/city/Hillsboro/ND</url>
<lat>47.4034</lat>
<lon>-97.06</lon>
<active>1</active>
</city>
<city>
<id>413948</id>
<name>Hoople</name>
<state>ND</state>
<rating>4</rating>
<url>http://www.greatschools.org/city/Hoople/ND</url>
<lat>48.5346</lat>
<lon>-97.6352</lon>
<active>1</active>
</city>
<city>
<id>413904</id>
<name>Hope</name>
<state>ND</state>
<rating>8</rating>
<url>http://www.greatschools.org/city/Hope/ND</url>
<lat>47.3219</lat>
<lon>-97.7196</lon>
<active>1</active>
</city>
<city>
<id>413943</id>
<name>Horace</name>
<state>ND</state>
<rating>9</rating>
<url>http://www.greatschools.org/city/Horace/ND</url>
<lat>46.7584</lat>
<lon>-96.9049</lon>
<active>1</active>
</city>
<city>
<id>413908</id>
<name>Hunter</name>
<state>ND</state>
<rating>8</rating>
<url>http://www.greatschools.org/city/Hunter/ND</url>
<lat>47.1899</lat>
<lon>-97.2165</lon>
<active>1</active>
</city>
<city>
<id>413981</id>
<name>Hurdsfield</name>
<state>ND</state>
<rating/>
<url>http://www.greatschools.org/city/Hurdsfield/ND</url>
<lat>47.4461</lat>
<lon>-99.9289</lon>
<active>1</active>
</city>
<city>
<id>414004</id>
<name>Inkster</name>
<state>ND</state>
<rating>6</rating>
<url>http://www.greatschools.org/city/Inkster/ND</url>
<lat>48.1511</lat>
<lon>-97.6432</lon>
<active>1</active>
</city>
<city>
<id>413894</id>
<name>Jamestown</name>
<state>ND</state>
<rating>6</rating>
<url>http://www.greatschools.org/city/Jamestown/ND</url>
<lat>46.9083</lat>
<lon>-98.7038</lon>
<active>1</active>
</city>
<city>
<id>414025</id>
<name>Kenmare</name>
<state>ND</state>
<rating>7</rating>
<url>http://www.greatschools.org/city/Kenmare/ND</url>
<lat>48.6751</lat>
<lon>-102.081</lon>
<active>1</active>
</city>
<city>
<id>414024</id>
<name>Kensal</name>
<state>ND</state>
<rating/>
<url>http://www.greatschools.org/city/Kensal/ND</url>
<lat>47.3021</lat>
<lon>-98.7328</lon>
<active>1</active>
</city>
<city>
<id>414023</id>
<name>Killdeer</name>
<state>ND</state>
<rating>6</rating>
<url>http://www.greatschools.org/city/Killdeer/ND</url>
<lat>47.3702</lat>
<lon>-102.757</lon>
<active>1</active>
</city>
<city>
<id>414080</id>
<name>Kindred</name>
<state>ND</state>
<rating>9</rating>
<url>http://www.greatschools.org/city/Kindred/ND</url>
<lat>46.6487</lat>
<lon>-97.0157</lon>
<active>1</active>
</city>
<city>
<id>414022</id>
<name>Kulm</name>
<state>ND</state>
<rating>6</rating>
<url>http://www.greatschools.org/city/Kulm/ND</url>
<lat>46.3013</lat>
<lon>-98.9485</lon>
<active>1</active>
</city>
<city>
<id>414021</id>
<name>Lakota</name>
<state>ND</state>
<rating>6</rating>
<url>http://www.greatschools.org/city/Lakota/ND</url>
<lat>48.0428</lat>
<lon>-98.3454</lon>
<active>1</active>
</city>
<city>
<id>413923</id>
<name>LaMoure</name>
<state>ND</state>
<rating>6</rating>
<url>http://www.greatschools.org/city/LaMoure/ND</url>
<lat>46.3586</lat>
<lon>-98.2936</lon>
<active>1</active>
</city>
<city>
<id>413916</id>
<name>Langdon</name>
<state>ND</state>
<rating>4</rating>
<url>http://www.greatschools.org/city/Langdon/ND</url>
<lat>48.7641</lat>
<lon>-98.3739</lon>
<active>1</active>
</city>
<city>
<id>413911</id>
<name>Larimore</name>
<state>ND</state>
<rating>6</rating>
<url>http://www.greatschools.org/city/Larimore/ND</url>
<lat>47.9086</lat>
<lon>-97.6267</lon>
<active>1</active>
</city>
<city>
<id>414020</id>
<name>Leeds</name>
<state>ND</state>
<rating>7</rating>
<url>http://www.greatschools.org/city/Leeds/ND</url>
<lat>48.2886</lat>
<lon>-99.4389</lon>
<active>1</active>
</city>
<city>
<id>413895</id>
<name>Lehr</name>
<state>ND</state>
<rating/>
<url>http://www.greatschools.org/city/Lehr/ND</url>
<lat>46.2816</lat>
<lon>-99.3519</lon>
<active>1</active>
</city>
<city>
<id>414019</id>
<name>Lidgerwood</name>
<state>ND</state>
<rating>7</rating>
<url>http://www.greatschools.org/city/Lidgerwood/ND</url>
<lat>46.0748</lat>
<lon>-97.15</lon>
<active>1</active>
</city>
<city>
<id>414053</id>
<name>Lignite</name>
<state>ND</state>
<rating>4</rating>
<url>http://www.greatschools.org/city/Lignite/ND</url>
<lat>48.877</lat>
<lon>-102.565</lon>
<active>1</active>
</city>
<city>
<id>441947</id>
<name>Lincoln</name>
<state>ND</state>
<rating/>
<url>http://www.greatschools.org/city/Lincoln/ND</url>
<lat>46.7621</lat>
<lon>-100.702</lon>
<active>1</active>
</city>
<city>
<id>413926</id>
<name>Linton</name>
<state>ND</state>
<rating>5</rating>
<url>http://www.greatschools.org/city/Linton/ND</url>
<lat>46.2693</lat>
<lon>-100.232</lon>
<active>1</active>
</city>
<city>
<id>414018</id>
<name>Lisbon</name>
<state>ND</state>
<rating>5</rating>
<url>http://www.greatschools.org/city/Lisbon/ND</url>
<lat>46.4391</lat>
<lon>-97.6824</lon>
<active>1</active>
</city>
<city>
<id>413890</id>
<name>Litchville</name>
<state>ND</state>
<rating/>
<url>http://www.greatschools.org/city/Litchville/ND</url>
<lat>46.6544</lat>
<lon>-98.1913</lon>
<active>1</active>
</city>
<city>
<id>414015</id>
<name>Maddock</name>
<state>ND</state>
<rating>6</rating>
<url>http://www.greatschools.org/city/Maddock/ND</url>
<lat>47.9614</lat>
<lon>-99.5271</lon>
<active>1</active>
</city>
<city>
<id>413886</id>
<name>Makoti</name>
<state>ND</state>
<rating>4</rating>
<url>http://www.greatschools.org/city/Makoti/ND</url>
<lat>47.9621</lat>
<lon>-101.805</lon>
<active>1</active>
</city>
<city>
<id>413914</id>
<name>Mandan</name>
<state>ND</state>
<rating>5</rating>
<url>http://www.greatschools.org/city/Mandan/ND</url>
<lat>46.8297</lat>
<lon>-100.891</lon>
<active>1</active>
</city>
<city>
<id>414014</id>
<name>Mandaree</name>
<state>ND</state>
<rating/>
<url>http://www.greatschools.org/city/Mandaree/ND</url>
<lat>47.7395</lat>
<lon>-102.672</lon>
<active>1</active>
</city>
<city>
<id>414013</id>
<name>Manvel</name>
<state>ND</state>
<rating>10</rating>
<url>http://www.greatschools.org/city/Manvel/ND</url>
<lat>48.071</lat>
<lon>-97.1778</lon>
<active>1</active>
</city>
<city>
<id>414010</id>
<name>Mapleton</name>
<state>ND</state>
<rating>6</rating>
<url>http://www.greatschools.org/city/Mapleton/ND</url>
<lat>46.8929</lat>
<lon>-97.0477</lon>
<active>1</active>
</city>
<city>
<id>413889</id>
<name>Marion</name>
<state>ND</state>
<rating>8</rating>
<url>http://www.greatschools.org/city/Marion/ND</url>
<lat>46.6074</lat>
<lon>-98.3334</lon>
<active>1</active>
</city>
<city>
<id>414009</id>
<name>Marmarth</name>
<state>ND</state>
<rating/>
<url>http://www.greatschools.org/city/Marmarth/ND</url>
<lat>46.294</lat>
<lon>-103.922</lon>
<active>1</active>
</city>
<city>
<id>414008</id>
<name>Max</name>
<state>ND</state>
<rating>5</rating>
<url>http://www.greatschools.org/city/Max/ND</url>
<lat>47.8233</lat>
<lon>-101.298</lon>
<active>1</active>
</city>
<city>
<id>414069</id>
<name>Mayville</name>
<state>ND</state>
<rating>6</rating>
<url>http://www.greatschools.org/city/Mayville/ND</url>
<lat>47.5007</lat>
<lon>-97.3239</lon>
<active>1</active>
</city>
<city>
<id>414007</id>
<name>McClusky</name>
<state>ND</state>
<rating/>
<url>http://www.greatschools.org/city/McClusky/ND</url>
<lat>47.4833</lat>
<lon>-100.443</lon>
<active>1</active>
</city>
<city>
<id>414071</id>
<name>McVille</name>
<state>ND</state>
<rating>7</rating>
<url>http://www.greatschools.org/city/McVille/ND</url>
<lat>47.7664</lat>
<lon>-98.1759</lon>
<active>1</active>
</city>
<city>
<id>414006</id>
<name>Medina</name>
<state>ND</state>
<rating>9</rating>
<url>http://www.greatschools.org/city/Medina/ND</url>
<lat>46.8938</lat>
<lon>-99.2986</lon>
<active>1</active>
</city>
<city>
<id>414056</id>
<name>Medora</name>
<state>ND</state>
<rating/>
<url>http://www.greatschools.org/city/Medora/ND</url>
<lat>46.9128</lat>
<lon>-103.524</lon>
<active>1</active>
</city>
<city>
<id>414005</id>
<name>Menoken</name>
<state>ND</state>
<rating/>
<url>http://www.greatschools.org/city/Menoken/ND</url>
<lat>46.8166</lat>
<lon>-100.566</lon>
<active>1</active>
</city>
<city>
<id>414003</id>
<name>Milnor</name>
<state>ND</state>
<rating>6</rating>
<url>http://www.greatschools.org/city/Milnor/ND</url>
<lat>46.2593</lat>
<lon>-97.4566</lon>
<active>1</active>
</city>
<city>
<id>414002</id>
<name>Minnewaukan</name>
<state>ND</state>
<rating>2</rating>
<url>http://www.greatschools.org/city/Minnewaukan/ND</url>
<lat>48.0704</lat>
<lon>-99.2506</lon>
<active>1</active>
</city>
<city>
<id>413883</id>
<name>Minot</name>
<state>ND</state>
<rating>5</rating>
<url>http://www.greatschools.org/city/Minot/ND</url>
<lat>48.2333</lat>
<lon>-101.3</lon>
<active>1</active>
</city>
<city>
<id>414001</id>
<name>Minot AFB</name>
<state>ND</state>
<rating>5</rating>
<url>http://www.greatschools.org/city/Minot_AFB/ND</url>
<lat>48.4249</lat>
<lon>-101.328</lon>
<active>1</active>
</city>
<city>
<id>414000</id>
<name>Minto</name>
<state>ND</state>
<rating>8</rating>
<url>http://www.greatschools.org/city/Minto/ND</url>
<lat>48.2917</lat>
<lon>-97.3748</lon>
<active>1</active>
</city>
<city>
<id>413877</id>
<name>Mohall</name>
<state>ND</state>
<rating>8</rating>
<url>http://www.greatschools.org/city/Mohall/ND</url>
<lat>48.7653</lat>
<lon>-101.51</lon>
<active>1</active>
</city>
<city>
<id>413998</id>
<name>Montpelier</name>
<state>ND</state>
<rating>6</rating>
<url>http://www.greatschools.org/city/Montpelier/ND</url>
<lat>46.699</lat>
<lon>-98.587</lon>
<active>1</active>
</city>
<city>
<id>441943</id>
<name>Mooreton</name>
<state>ND</state>
<rating/>
<url>http://www.greatschools.org/city/Mooreton/ND</url>
<lat>46.2692</lat>
<lon>-96.8752</lon>
<active>1</active>
</city>
<city>
<id>413903</id>
<name>Mott</name>
<state>ND</state>
<rating>6</rating>
<url>http://www.greatschools.org/city/Mott/ND</url>
<lat>46.3742</lat>
<lon>-102.322</lon>
<active>1</active>
</city>
<city>
<id>413996</id>
<name>Munich</name>
<state>ND</state>
<rating/>
<url>http://www.greatschools.org/city/Munich/ND</url>
<lat>48.669</lat>
<lon>-98.8355</lon>
<active>1</active>
</city>
<city>
<id>413928</id>
<name>Napoleon</name>
<state>ND</state>
<rating>8</rating>
<url>http://www.greatschools.org/city/Napoleon/ND</url>
<lat>46.5046</lat>
<lon>-99.7677</lon>
<active>1</active>
</city>
<city>
<id>413995</id>
<name>Nash</name>
<state>ND</state>
<rating/>
<url>http://www.greatschools.org/city/Nash/ND</url>
<lat>48.4725</lat>
<lon>-97.5175</lon>
<active>1</active>
</city>
<city>
<id>413872</id>
<name>Neche</name>
<state>ND</state>
<rating>10</rating>
<url>http://www.greatschools.org/city/Neche/ND</url>
<lat>48.9831</lat>
<lon>-97.5508</lon>
<active>1</active>
</city>
<city>
<id>414079</id>
<name>New England</name>
<state>ND</state>
<rating>7</rating>
<url>http://www.greatschools.org/city/New_England/ND</url>
<lat>46.541</lat>
<lon>-102.866</lon>
<active>1</active>
</city>
<city>
<id>441948</id>
<name>New Leipzig</name>
<state>ND</state>
<rating/>
<url>http://www.greatschools.org/city/New_Leipzig/ND</url>
<lat>46.3734</lat>
<lon>-101.944</lon>
<active>1</active>
</city>
<city>
<id>413930</id>
<name>New Rockford</name>
<state>ND</state>
<rating>8</rating>
<url>http://www.greatschools.org/city/New_Rockford/ND</url>
<lat>47.681</lat>
<lon>-99.1358</lon>
<active>1</active>
</city>
<city>
<id>413993</id>
<name>New Salem</name>
<state>ND</state>
<rating>7</rating>
<url>http://www.greatschools.org/city/New_Salem/ND</url>
<lat>46.8429</lat>
<lon>-101.413</lon>
<active>1</active>
</city>
<city>
<id>413992</id>
<name>New Town</name>
<state>ND</state>
<rating>1</rating>
<url>http://www.greatschools.org/city/New_Town/ND</url>
<lat>47.9821</lat>
<lon>-102.485</lon>
<active>1</active>
</city>
<city>
<id>414064</id>
<name>Newburg</name>
<state>ND</state>
<rating/>
<url>http://www.greatschools.org/city/Newburg/ND</url>
<lat>48.7139</lat>
<lon>-100.913</lon>
<active>1</active>
</city>
<city>
<id>413988</id>
<name>Northwood</name>
<state>ND</state>
<rating>8</rating>
<url>http://www.greatschools.org/city/Northwood/ND</url>
<lat>47.7344</lat>
<lon>-97.5702</lon>
<active>1</active>
</city>
<city>
<id>413920</id>
<name>Oakes</name>
<state>ND</state>
<rating>8</rating>
<url>http://www.greatschools.org/city/Oakes/ND</url>
<lat>46.1384</lat>
<lon>-98.0879</lon>
<active>1</active>
</city>
<city>
<id>413987</id>
<name>Oberon</name>
<state>ND</state>
<rating/>
<url>http://www.greatschools.org/city/Oberon/ND</url>
<lat>47.922</lat>
<lon>-99.2048</lon>
<active>1</active>
</city>
<city>
<id>413884</id>
<name>Oriska</name>
<state>ND</state>
<rating>6</rating>
<url>http://www.greatschools.org/city/Oriska/ND</url>
<lat>46.9314</lat>
<lon>-97.7914</lon>
<active>1</active>
</city>
<city>
<id>413986</id>
<name>Page</name>
<state>ND</state>
<rating>5</rating>
<url>http://www.greatschools.org/city/Page/ND</url>
<lat>47.1583</lat>
<lon>-97.5697</lon>
<active>1</active>
</city>
<city>
<id>413905</id>
<name>Park River</name>
<state>ND</state>
<rating>8</rating>
<url>http://www.greatschools.org/city/Park_River/ND</url>
<lat>48.3961</lat>
<lon>-97.7458</lon>
<active>1</active>
</city>
<city>
<id>413985</id>
<name>Parshall</name>
<state>ND</state>
<rating>1</rating>
<url>http://www.greatschools.org/city/Parshall/ND</url>
<lat>47.9558</lat>
<lon>-102.134</lon>
<active>1</active>
</city>
<city>
<id>413871</id>
<name>Pembina</name>
<state>ND</state>
<rating>10</rating>
<url>http://www.greatschools.org/city/Pembina/ND</url>
<lat>48.9685</lat>
<lon>-97.2472</lon>
<active>1</active>
</city>
<city>
<id>414070</id>
<name>Petersburg</name>
<state>ND</state>
<rating>4</rating>
<url>http://www.greatschools.org/city/Petersburg/ND</url>
<lat>48.0105</lat>
<lon>-98.0031</lon>
<active>1</active>
</city>
<city>
<id>413983</id>
<name>Pingree</name>
<state>ND</state>
<rating>3</rating>
<url>http://www.greatschools.org/city/Pingree/ND</url>
<lat>47.1639</lat>
<lon>-98.9095</lon>
<active>1</active>
</city>
<city>
<id>413885</id>
<name>Plaza</name>
<state>ND</state>
<rating>2</rating>
<url>http://www.greatschools.org/city/Plaza/ND</url>
<lat>48.024</lat>
<lon>-101.96</lon>
<active>1</active>
</city>
<city>
<id>413925</id>
<name>Portland</name>
<state>ND</state>
<rating/>
<url>http://www.greatschools.org/city/Portland/ND</url>
<lat>47.4999</lat>
<lon>-97.3713</lon>
<active>1</active>
</city>
<city>
<id>414082</id>
<name>Powers Lake</name>
<state>ND</state>
<rating>5</rating>
<url>http://www.greatschools.org/city/Powers_Lake/ND</url>
<lat>48.5635</lat>
<lon>-102.647</lon>
<active>1</active>
</city>
<city>
<id>413909</id>
<name>Raleigh</name>
<state>ND</state>
<rating/>
<url>http://www.greatschools.org/city/Raleigh/ND</url>
<lat>46.3133</lat>
<lon>-101.348</lon>
<active>1</active>
</city>
<city>
<id>413994</id>
<name>Ray</name>
<state>ND</state>
<rating>5</rating>
<url>http://www.greatschools.org/city/Ray/ND</url>
<lat>48.3455</lat>
<lon>-103.166</lon>
<active>1</active>
</city>
<city>
<id>413902</id>
<name>Regent</name>
<state>ND</state>
<rating/>
<url>http://www.greatschools.org/city/Regent/ND</url>
<lat>46.4211</lat>
<lon>-102.558</lon>
<active>1</active>
</city>
<city>
<id>413980</id>
<name>Rhame</name>
<state>ND</state>
<rating/>
<url>http://www.greatschools.org/city/Rhame/ND</url>
<lat>46.2345</lat>
<lon>-103.651</lon>
<active>1</active>
</city>
<city>
<id>413899</id>
<name>Richardton</name>
<state>ND</state>
<rating>5</rating>
<url>http://www.greatschools.org/city/Richardton/ND</url>
<lat>46.8857</lat>
<lon>-102.316</lon>
<active>1</active>
</city>
<city>
<id>413979</id>
<name>Robinson</name>
<state>ND</state>
<rating/>
<url>http://www.greatschools.org/city/Robinson/ND</url>
<lat>47.1421</lat>
<lon>-99.7797</lon>
<active>1</active>
</city>
<city>
<id>413990</id>
<name>Rock Lake</name>
<state>ND</state>
<rating/>
<url>http://www.greatschools.org/city/Rock_Lake/ND</url>
<lat>48.7891</lat>
<lon>-99.2459</lon>
<active>1</active>
</city>
<city>
<id>413991</id>
<name>Rogers</name>
<state>ND</state>
<rating>7</rating>
<url>http://www.greatschools.org/city/Rogers/ND</url>
<lat>47.0719</lat>
<lon>-98.2025</lon>
<active>1</active>
</city>
<city>
<id>413978</id>
<name>Rolette</name>
<state>ND</state>
<rating>6</rating>
<url>http://www.greatschools.org/city/Rolette/ND</url>
<lat>48.6638</lat>
<lon>-99.8433</lon>
<active>1</active>
</city>
<city>
<id>413997</id>
<name>Rolla</name>
<state>ND</state>
<rating>5</rating>
<url>http://www.greatschools.org/city/Rolla/ND</url>
<lat>48.8613</lat>
<lon>-99.6165</lon>
<active>1</active>
</city>
<city>
<id>444134</id>
<name>Roseglen</name>
<state>ND</state>
<rating/>
<url>http://www.greatschools.org/city/Roseglen/ND</url>
<lat>47.6841</lat>
<lon>-101.866</lon>
<active>1</active>
</city>
<city>
<id>413917</id>
<name>Rugby</name>
<state>ND</state>
<rating>8</rating>
<url>http://www.greatschools.org/city/Rugby/ND</url>
<lat>48.3651</lat>
<lon>-99.9947</lon>
<active>1</active>
</city>
<city>
<id>413887</id>
<name>Ryder</name>
<state>ND</state>
<rating/>
<url>http://www.greatschools.org/city/Ryder/ND</url>
<lat>47.919</lat>
<lon>-101.674</lon>
<active>1</active>
</city>
<city>
<id>446176</id>
<name>Saint Anthony</name>
<state>ND</state>
<rating/>
<url>http://www.greatschools.org/city/Saint_Anthony/ND</url>
<lat>46.6174</lat>
<lon>-100.956</lon>
<active>1</active>
</city>
<city>
<id>446177</id>
<name>Saint John</name>
<state>ND</state>
<rating/>
<url>http://www.greatschools.org/city/Saint_John/ND</url>
<lat>48.9404</lat>
<lon>-99.7103</lon>
<active>1</active>
</city>
<city>
<id>446178</id>
<name>Saint Thomas</name>
<state>ND</state>
<rating/>
<url>http://www.greatschools.org/city/Saint_Thomas/ND</url>
<lat>48.6194</lat>
<lon>-97.4512</lon>
<active>1</active>
</city>
<city>
<id>413975</id>
<name>Sawyer</name>
<state>ND</state>
<rating>2</rating>
<url>http://www.greatschools.org/city/Sawyer/ND</url>
<lat>48.0893</lat>
<lon>-101.055</lon>
<active>1</active>
</city>
<city>
<id>414083</id>
<name>Scranton</name>
<state>ND</state>
<rating>7</rating>
<url>http://www.greatschools.org/city/Scranton/ND</url>
<lat>46.1517</lat>
<lon>-103.145</lon>
<active>1</active>
</city>
<city>
<id>413974</id>
<name>Selfridge</name>
<state>ND</state>
<rating/>
<url>http://www.greatschools.org/city/Selfridge/ND</url>
<lat>46.042</lat>
<lon>-100.924</lon>
<active>1</active>
</city>
<city>
<id>413876</id>
<name>Sherwood</name>
<state>ND</state>
<rating>10</rating>
<url>http://www.greatschools.org/city/Sherwood/ND</url>
<lat>48.962</lat>
<lon>-101.633</lon>
<active>1</active>
</city>
<city>
<id>446179</id>
<name>Sidney</name>
<state>ND</state>
<rating/>
<url>http://www.greatschools.org/city/Sidney/ND</url>
<lat>47.4893</lat>
<lon>-103.926</lon>
<active>1</active>
</city>
<city>
<id>413969</id>
<name>Solen</name>
<state>ND</state>
<rating>1</rating>
<url>http://www.greatschools.org/city/Solen/ND</url>
<lat>46.3881</lat>
<lon>-100.796</lon>
<active>1</active>
</city>
<city>
<id>413967</id>
<name>South Heart</name>
<state>ND</state>
<rating>7</rating>
<url>http://www.greatschools.org/city/South_Heart/ND</url>
<lat>46.8631</lat>
<lon>-102.994</lon>
<active>1</active>
</city>
<city>
<id>413965</id>
<name>Spiritwood</name>
<state>ND</state>
<rating/>
<url>http://www.greatschools.org/city/Spiritwood/ND</url>
<lat>46.9453</lat>
<lon>-98.443</lon>
<active>1</active>
</city>
<city>
<id>445288</id>
<name>St Michael</name>
<state>ND</state>
<rating/>
<url>http://www.greatschools.org/city/St_Michael/ND</url>
<lat>47.9974</lat>
<lon>-98.8574</lon>
<active>1</active>
</city>
<city>
<id>413964</id>
<name>St. John</name>
<state>ND</state>
<rating>3</rating>
<url>http://www.greatschools.org/city/St._John/ND</url>
<lat>48.944</lat>
<lon>-99.7119</lon>
<active>1</active>
</city>
<city>
<id>413962</id>
<name>Stanley</name>
<state>ND</state>
<rating>3</rating>
<url>http://www.greatschools.org/city/Stanley/ND</url>
<lat>48.3138</lat>
<lon>-102.387</lon>
<active>1</active>
</city>
<city>
<id>413961</id>
<name>Starkweather</name>
<state>ND</state>
<rating>8</rating>
<url>http://www.greatschools.org/city/Starkweather/ND</url>
<lat>48.4519</lat>
<lon>-98.8767</lon>
<active>1</active>
</city>
<city>
<id>413960</id>
<name>Steele</name>
<state>ND</state>
<rating>3</rating>
<url>http://www.greatschools.org/city/Steele/ND</url>
<lat>46.8551</lat>
<lon>-99.9169</lon>
<active>1</active>
</city>
<city>
<id>413959</id>
<name>Sterling</name>
<state>ND</state>
<rating/>
<url>http://www.greatschools.org/city/Sterling/ND</url>
<lat>46.8358</lat>
<lon>-100.325</lon>
<active>1</active>
</city>
<city>
<id>414084</id>
<name>Strasburg</name>
<state>ND</state>
<rating>8</rating>
<url>http://www.greatschools.org/city/Strasburg/ND</url>
<lat>46.1332</lat>
<lon>-100.162</lon>
<active>1</active>
</city>
<city>
<id>413958</id>
<name>Surrey</name>
<state>ND</state>
<rating>5</rating>
<url>http://www.greatschools.org/city/Surrey/ND</url>
<lat>48.2386</lat>
<lon>-101.132</lon>
<active>1</active>
</city>
<city>
<id>413957</id>
<name>Tappen</name>
<state>ND</state>
<rating/>
<url>http://www.greatschools.org/city/Tappen/ND</url>
<lat>46.8755</lat>
<lon>-99.6325</lon>
<active>1</active>
</city>
<city>
<id>413898</id>
<name>Taylor</name>
<state>ND</state>
<rating>3</rating>
<url>http://www.greatschools.org/city/Taylor/ND</url>
<lat>46.903</lat>
<lon>-102.424</lon>
<active>1</active>
</city>
<city>
<id>413956</id>
<name>Thompson</name>
<state>ND</state>
<rating>8</rating>
<url>http://www.greatschools.org/city/Thompson/ND</url>
<lat>47.7755</lat>
<lon>-97.1048</lon>
<active>1</active>
</city>
<city>
<id>414072</id>
<name>Tioga</name>
<state>ND</state>
<rating>5</rating>
<url>http://www.greatschools.org/city/Tioga/ND</url>
<lat>48.3975</lat>
<lon>-102.94</lon>
<active>1</active>
</city>
<city>
<id>445289</id>
<name>Tokio</name>
<state>ND</state>
<rating/>
<url>http://www.greatschools.org/city/Tokio/ND</url>
<lat>47.9247</lat>
<lon>-98.8162</lon>
<active>1</active>
</city>
<city>
<id>441946</id>
<name>Tolna</name>
<state>ND</state>
<rating/>
<url>http://www.greatschools.org/city/Tolna/ND</url>
<lat>47.828</lat>
<lon>-98.4402</lon>
<active>1</active>
</city>
<city>
<id>414012</id>
<name>Tower City</name>
<state>ND</state>
<rating>6</rating>
<url>http://www.greatschools.org/city/Tower_City/ND</url>
<lat>46.9234</lat>
<lon>-97.6742</lon>
<active>1</active>
</city>
<city>
<id>413900</id>
<name>Towner</name>
<state>ND</state>
<rating>5</rating>
<url>http://www.greatschools.org/city/Towner/ND</url>
<lat>48.3454</lat>
<lon>-100.407</lon>
<active>1</active>
</city>
<city>
<id>414045</id>
<name>Trenton</name>
<state>ND</state>
<rating>4</rating>
<url>http://www.greatschools.org/city/Trenton/ND</url>
<lat>48.0782</lat>
<lon>-103.847</lon>
<active>1</active>
</city>
<city>
<id>413955</id>
<name>Turtle Lake</name>
<state>ND</state>
<rating>5</rating>
<url>http://www.greatschools.org/city/Turtle_Lake/ND</url>
<lat>47.5189</lat>
<lon>-100.891</lon>
<active>1</active>
</city>
<city>
<id>413952</id>
<name>Underwood</name>
<state>ND</state>
<rating>8</rating>
<url>http://www.greatschools.org/city/Underwood/ND</url>
<lat>47.4551</lat>
<lon>-101.141</lon>
<active>1</active>
</city>
<city>
<id>413912</id>
<name>Valley City</name>
<state>ND</state>
<rating>7</rating>
<url>http://www.greatschools.org/city/Valley_City/ND</url>
<lat>46.9245</lat>
<lon>-98.0046</lon>
<active>1</active>
</city>
<city>
<id>413968</id>
<name>Velva</name>
<state>ND</state>
<rating>8</rating>
<url>http://www.greatschools.org/city/Velva/ND</url>
<lat>48.0584</lat>
<lon>-100.931</lon>
<active>1</active>
</city>
<city>
<id>413915</id>
<name>Wahpeton</name>
<state>ND</state>
<rating/>
<url>http://www.greatschools.org/city/Wahpeton/ND</url>
<lat>46.272</lat>
<lon>-96.6101</lon>
<active>1</active>
</city>
<city>
<id>413870</id>
<name>Walhalla</name>
<state>ND</state>
<rating>7</rating>
<url>http://www.greatschools.org/city/Walhalla/ND</url>
<lat>48.9216</lat>
<lon>-97.9201</lon>
<active>1</active>
</city>
<city>
<id>413947</id>
<name>Warwick</name>
<state>ND</state>
<rating>1</rating>
<url>http://www.greatschools.org/city/Warwick/ND</url>
<lat>47.8549</lat>
<lon>-98.7097</lon>
<active>1</active>
</city>
<city>
<id>413946</id>
<name>Washburn</name>
<state>ND</state>
<rating>5</rating>
<url>http://www.greatschools.org/city/Washburn/ND</url>
<lat>47.2922</lat>
<lon>-101.027</lon>
<active>1</active>
</city>
<city>
<id>413913</id>
<name>Watford City</name>
<state>ND</state>
<rating>4</rating>
<url>http://www.greatschools.org/city/Watford_City/ND</url>
<lat>47.8029</lat>
<lon>-103.28</lon>
<active>1</active>
</city>
<city>
<id>413927</id>
<name>West Fargo</name>
<state>ND</state>
<rating>4</rating>
<url>http://www.greatschools.org/city/West_Fargo/ND</url>
<lat>46.8679</lat>
<lon>-96.8933</lon>
<active>1</active>
</city>
<city>
<id>413942</id>
<name>Westhope</name>
<state>ND</state>
<rating>3</rating>
<url>http://www.greatschools.org/city/Westhope/ND</url>
<lat>48.9114</lat>
<lon>-101.018</lon>
<active>1</active>
</city>
<city>
<id>413941</id>
<name>White Shield</name>
<state>ND</state>
<rating>1</rating>
<url>http://www.greatschools.org/city/White_Shield/ND</url>
<lat>47.6627</lat>
<lon>-101.839</lon>
<active>1</active>
</city>
<city>
<id>413910</id>
<name>Williston</name>
<state>ND</state>
<rating>5</rating>
<url>http://www.greatschools.org/city/Williston/ND</url>
<lat>48.1584</lat>
<lon>-103.63</lon>
<active>1</active>
</city>
<city>
<id>413999</id>
<name>Wilton</name>
<state>ND</state>
<rating>5</rating>
<url>http://www.greatschools.org/city/Wilton/ND</url>
<lat>47.1589</lat>
<lon>-100.786</lon>
<active>1</active>
</city>
<city>
<id>413939</id>
<name>Wimbledon</name>
<state>ND</state>
<rating>5</rating>
<url>http://www.greatschools.org/city/Wimbledon/ND</url>
<lat>47.1713</lat>
<lon>-98.4598</lon>
<active>1</active>
</city>
<city>
<id>413938</id>
<name>Wing</name>
<state>ND</state>
<rating>7</rating>
<url>http://www.greatschools.org/city/Wing/ND</url>
<lat>47.1401</lat>
<lon>-100.28</lon>
<active>1</active>
</city>
<city>
<id>413937</id>
<name>Wishek</name>
<state>ND</state>
<rating>6</rating>
<url>http://www.greatschools.org/city/Wishek/ND</url>
<lat>46.2576</lat>
<lon>-99.5572</lon>
<active>1</active>
</city>
<city>
<id>413936</id>
<name>Wolford</name>
<state>ND</state>
<rating/>
<url>http://www.greatschools.org/city/Wolford/ND</url>
<lat>48.4984</lat>
<lon>-99.7055</lon>
<active>1</active>
</city>
<city>
<id>413935</id>
<name>Wyndmere</name>
<state>ND</state>
<rating>9</rating>
<url>http://www.greatschools.org/city/Wyndmere/ND</url>
<lat>46.2635</lat>
<lon>-97.1324</lon>
<active>1</active>
</city>
<city>
<id>413934</id>
<name>Zeeland</name>
<state>ND</state>
<rating/>
<url>http://www.greatschools.org/city/Zeeland/ND</url>
<lat>45.9713</lat>
<lon>-99.8319</lon>
<active>1</active>
</city>
</greatschools-city-feed>
