<?xml version="1.0" encoding="utf-8"?><greatschools-city-feed xmlns:xsi="http://www.w3.org/2001/XMLSchema-instance" xsi:noNamespaceSchemaLocation="http://www.greatschools.org/feeds/greatschools-city2.xsd">
<city>
<id>442552</id>
<name>Acme</name>
<state>MI</state>
<rating/>
<url>http://www.greatschools.org/city/Acme/MI</url>
<lat>44.7799</lat>
<lon>-85.4893</lon>
<active>1</active>
</city>
<city>
<id>437056</id>
<name>Ada</name>
<state>MI</state>
<rating>9</rating>
<url>http://www.greatschools.org/city/Ada/MI</url>
<lat>42.9621</lat>
<lon>-85.4744</lon>
<active>1</active>
</city>
<city>
<id>437565</id>
<name>Addison</name>
<state>MI</state>
<rating>7</rating>
<url>http://www.greatschools.org/city/Addison/MI</url>
<lat>41.9859</lat>
<lon>-84.3491</lon>
<active>1</active>
</city>
<city>
<id>436964</id>
<name>Adrian</name>
<state>MI</state>
<rating>7</rating>
<url>http://www.greatschools.org/city/Adrian/MI</url>
<lat>41.8988</lat>
<lon>-84.0448</lon>
<active>1</active>
</city>
<city>
<id>437564</id>
<name>Akron</name>
<state>MI</state>
<rating>4</rating>
<url>http://www.greatschools.org/city/Akron/MI</url>
<lat>43.5667</lat>
<lon>-83.5143</lon>
<active>1</active>
</city>
<city>
<id>446475</id>
<name>Alaiedon</name>
<state>MI</state>
<rating/>
<url>http://www.greatschools.org/city/Alaiedon/MI</url>
<lat>42.683</lat>
<lon>-84.4233</lon>
<active>1</active>
</city>
<city>
<id>437426</id>
<name>Alanson</name>
<state>MI</state>
<rating>6</rating>
<url>http://www.greatschools.org/city/Alanson/MI</url>
<lat>45.4428</lat>
<lon>-84.7869</lon>
<active>1</active>
</city>
<city>
<id>437562</id>
<name>Alba</name>
<state>MI</state>
<rating>4</rating>
<url>http://www.greatschools.org/city/Alba/MI</url>
<lat>44.9786</lat>
<lon>-84.9695</lon>
<active>1</active>
</city>
<city>
<id>437079</id>
<name>Albion</name>
<state>MI</state>
<rating>3</rating>
<url>http://www.greatschools.org/city/Albion/MI</url>
<lat>42.2479</lat>
<lon>-84.7591</lon>
<active>1</active>
</city>
<city>
<id>442551</id>
<name>Alden</name>
<state>MI</state>
<rating/>
<url>http://www.greatschools.org/city/Alden/MI</url>
<lat>44.8792</lat>
<lon>-85.273</lon>
<active>1</active>
</city>
<city>
<id>437171</id>
<name>Algonac</name>
<state>MI</state>
<rating>6</rating>
<url>http://www.greatschools.org/city/Algonac/MI</url>
<lat>42.6213</lat>
<lon>-82.535</lon>
<active>1</active>
</city>
<city>
<id>437128</id>
<name>Allegan</name>
<state>MI</state>
<rating>4</rating>
<url>http://www.greatschools.org/city/Allegan/MI</url>
<lat>42.5306</lat>
<lon>-85.8464</lon>
<active>1</active>
</city>
<city>
<id>437120</id>
<name>Allen Park</name>
<state>MI</state>
<rating>8</rating>
<url>http://www.greatschools.org/city/Allen_Park/MI</url>
<lat>42.2595</lat>
<lon>-83.2104</lon>
<active>1</active>
</city>
<city>
<id>437268</id>
<name>Allendale</name>
<state>MI</state>
<rating>8</rating>
<url>http://www.greatschools.org/city/Allendale/MI</url>
<lat>42.9858</lat>
<lon>-85.9525</lon>
<active>1</active>
</city>
<city>
<id>446103</id>
<name>Allendale Charter Township</name>
<state>MI</state>
<rating/>
<url>http://www.greatschools.org/city/Allendale_Charter_Township/MI</url>
<lat>42.9695</lat>
<lon>-85.9414</lon>
<active>1</active>
</city>
<city>
<id>445133</id>
<name>Allouez</name>
<state>MI</state>
<rating/>
<url>http://www.greatschools.org/city/Allouez/MI</url>
<lat>47.4103</lat>
<lon>-88.3054</lon>
<active>1</active>
</city>
<city>
<id>437037</id>
<name>Alma</name>
<state>MI</state>
<rating>6</rating>
<url>http://www.greatschools.org/city/Alma/MI</url>
<lat>43.3801</lat>
<lon>-84.6559</lon>
<active>1</active>
</city>
<city>
<id>437016</id>
<name>Almont</name>
<state>MI</state>
<rating>6</rating>
<url>http://www.greatschools.org/city/Almont/MI</url>
<lat>42.9202</lat>
<lon>-83.0432</lon>
<active>1</active>
</city>
<city>
<id>437014</id>
<name>Alpena</name>
<state>MI</state>
<rating>6</rating>
<url>http://www.greatschools.org/city/Alpena/MI</url>
<lat>45.0742</lat>
<lon>-83.443</lon>
<active>1</active>
</city>
<city>
<id>437424</id>
<name>Alto</name>
<state>MI</state>
<rating>7</rating>
<url>http://www.greatschools.org/city/Alto/MI</url>
<lat>42.8238</lat>
<lon>-85.405</lon>
<active>1</active>
</city>
<city>
<id>436933</id>
<name>Ann Arbor</name>
<state>MI</state>
<rating>9</rating>
<url>http://www.greatschools.org/city/Ann_Arbor/MI</url>
<lat>42.2756</lat>
<lon>-83.7313</lon>
<active>1</active>
</city>
<city>
<id>437160</id>
<name>Armada</name>
<state>MI</state>
<rating>6</rating>
<url>http://www.greatschools.org/city/Armada/MI</url>
<lat>42.8421</lat>
<lon>-82.8811</lon>
<active>1</active>
</city>
<city>
<id>437332</id>
<name>Arnold</name>
<state>MI</state>
<rating/>
<url>http://www.greatschools.org/city/Arnold/MI</url>
<lat>46.0475</lat>
<lon>-87.4742</lon>
<active>1</active>
</city>
<city>
<id>436969</id>
<name>Ashley</name>
<state>MI</state>
<rating>4</rating>
<url>http://www.greatschools.org/city/Ashley/MI</url>
<lat>43.1877</lat>
<lon>-84.4765</lon>
<active>1</active>
</city>
<city>
<id>437184</id>
<name>Athens</name>
<state>MI</state>
<rating>8</rating>
<url>http://www.greatschools.org/city/Athens/MI</url>
<lat>42.0874</lat>
<lon>-85.2362</lon>
<active>1</active>
</city>
<city>
<id>437555</id>
<name>Atlanta</name>
<state>MI</state>
<rating>3</rating>
<url>http://www.greatschools.org/city/Atlanta/MI</url>
<lat>45.0026</lat>
<lon>-84.1554</lon>
<active>1</active>
</city>
<city>
<id>437350</id>
<name>Atlantic Mine</name>
<state>MI</state>
<rating>4</rating>
<url>http://www.greatschools.org/city/Atlantic_Mine/MI</url>
<lat>47.083</lat>
<lon>-88.7416</lon>
<active>1</active>
</city>
<city>
<id>437038</id>
<name>Attica</name>
<state>MI</state>
<rating/>
<url>http://www.greatschools.org/city/Attica/MI</url>
<lat>43.0243</lat>
<lon>-83.1609</lon>
<active>1</active>
</city>
<city>
<id>437554</id>
<name>Au Gres</name>
<state>MI</state>
<rating>5</rating>
<url>http://www.greatschools.org/city/Au_Gres/MI</url>
<lat>44.0443</lat>
<lon>-83.6933</lon>
<active>1</active>
</city>
<city>
<id>446476</id>
<name>Au Sable Charter Township</name>
<state>MI</state>
<rating/>
<url>http://www.greatschools.org/city/Au_Sable_Charter_Township/MI</url>
<lat>44.425</lat>
<lon>-83.3784</lon>
<active>1</active>
</city>
<city>
<id>437277</id>
<name>Auburn</name>
<state>MI</state>
<rating>7</rating>
<url>http://www.greatschools.org/city/Auburn/MI</url>
<lat>43.602</lat>
<lon>-84.0751</lon>
<active>1</active>
</city>
<city>
<id>437124</id>
<name>Auburn Hills</name>
<state>MI</state>
<rating>7</rating>
<url>http://www.greatschools.org/city/Auburn_Hills/MI</url>
<lat>42.6747</lat>
<lon>-83.2436</lon>
<active>1</active>
</city>
<city>
<id>437474</id>
<name>Augusta</name>
<state>MI</state>
<rating>7</rating>
<url>http://www.greatschools.org/city/Augusta/MI</url>
<lat>42.3377</lat>
<lon>-85.3525</lon>
<active>1</active>
</city>
<city>
<id>437318</id>
<name>Avoca</name>
<state>MI</state>
<rating/>
<url>http://www.greatschools.org/city/Avoca/MI</url>
<lat>43.0746</lat>
<lon>-82.6964</lon>
<active>1</active>
</city>
<city>
<id>442550</id>
<name>Azalia</name>
<state>MI</state>
<rating/>
<url>http://www.greatschools.org/city/Azalia/MI</url>
<lat>42.0179</lat>
<lon>-83.6728</lon>
<active>1</active>
</city>
<city>
<id>437338</id>
<name>Bad Axe</name>
<state>MI</state>
<rating>7</rating>
<url>http://www.greatschools.org/city/Bad_Axe/MI</url>
<lat>43.8038</lat>
<lon>-82.9983</lon>
<active>1</active>
</city>
<city>
<id>437552</id>
<name>Baldwin</name>
<state>MI</state>
<rating>3</rating>
<url>http://www.greatschools.org/city/Baldwin/MI</url>
<lat>43.897</lat>
<lon>-85.8523</lon>
<active>1</active>
</city>
<city>
<id>437183</id>
<name>Bangor</name>
<state>MI</state>
<rating>4</rating>
<url>http://www.greatschools.org/city/Bangor/MI</url>
<lat>42.3124</lat>
<lon>-86.1134</lon>
<active>1</active>
</city>
<city>
<id>437550</id>
<name>Baraga</name>
<state>MI</state>
<rating>5</rating>
<url>http://www.greatschools.org/city/Baraga/MI</url>
<lat>46.7754</lat>
<lon>-88.5012</lon>
<active>1</active>
</city>
<city>
<id>445134</id>
<name>Bark River</name>
<state>MI</state>
<rating/>
<url>http://www.greatschools.org/city/Bark_River/MI</url>
<lat>45.7102</lat>
<lon>-87.3049</lon>
<active>1</active>
</city>
<city>
<id>437227</id>
<name>Barryton</name>
<state>MI</state>
<rating>4</rating>
<url>http://www.greatschools.org/city/Barryton/MI</url>
<lat>43.7514</lat>
<lon>-85.1446</lon>
<active>1</active>
</city>
<city>
<id>445135</id>
<name>Bath Township</name>
<state>MI</state>
<rating/>
<url>http://www.greatschools.org/city/Bath_Township/MI</url>
<lat>42.8117</lat>
<lon>-84.4483</lon>
<active>1</active>
</city>
<city>
<id>437025</id>
<name>Battle Creek</name>
<state>MI</state>
<rating>5</rating>
<url>http://www.greatschools.org/city/Battle_Creek/MI</url>
<lat>42.2992</lat>
<lon>-85.2293</lon>
<active>1</active>
</city>
<city>
<id>437113</id>
<name>Bay City</name>
<state>MI</state>
<rating>5</rating>
<url>http://www.greatschools.org/city/Bay_City/MI</url>
<lat>43.5901</lat>
<lon>-83.8884</lon>
<active>1</active>
</city>
<city>
<id>437547</id>
<name>Bear Lake</name>
<state>MI</state>
<rating>5</rating>
<url>http://www.greatschools.org/city/Bear_Lake/MI</url>
<lat>44.4313</lat>
<lon>-86.1125</lon>
<active>1</active>
</city>
<city>
<id>437546</id>
<name>Beaver Island</name>
<state>MI</state>
<rating/>
<url>http://www.greatschools.org/city/Beaver_Island/MI</url>
<lat>45.666</lat>
<lon>-85.5579</lon>
<active>1</active>
</city>
<city>
<id>437545</id>
<name>Beaverton</name>
<state>MI</state>
<rating>5</rating>
<url>http://www.greatschools.org/city/Beaverton/MI</url>
<lat>43.8807</lat>
<lon>-84.4877</lon>
<active>1</active>
</city>
<city>
<id>437246</id>
<name>Belding</name>
<state>MI</state>
<rating>5</rating>
<url>http://www.greatschools.org/city/Belding/MI</url>
<lat>43.0965</lat>
<lon>-85.233</lon>
<active>1</active>
</city>
<city>
<id>437544</id>
<name>Bellaire</name>
<state>MI</state>
<rating>7</rating>
<url>http://www.greatschools.org/city/Bellaire/MI</url>
<lat>44.9718</lat>
<lon>-85.2053</lon>
<active>1</active>
</city>
<city>
<id>436977</id>
<name>Belleville</name>
<state>MI</state>
<rating>4</rating>
<url>http://www.greatschools.org/city/Belleville/MI</url>
<lat>42.2019</lat>
<lon>-83.4828</lon>
<active>1</active>
</city>
<city>
<id>437096</id>
<name>Bellevue</name>
<state>MI</state>
<rating>5</rating>
<url>http://www.greatschools.org/city/Bellevue/MI</url>
<lat>42.4443</lat>
<lon>-85.0187</lon>
<active>1</active>
</city>
<city>
<id>437302</id>
<name>Belmont</name>
<state>MI</state>
<rating>8</rating>
<url>http://www.greatschools.org/city/Belmont/MI</url>
<lat>43.0798</lat>
<lon>-85.5306</lon>
<active>1</active>
</city>
<city>
<id>436992</id>
<name>Benton Harbor</name>
<state>MI</state>
<rating>3</rating>
<url>http://www.greatschools.org/city/Benton_Harbor/MI</url>
<lat>42.1142</lat>
<lon>-86.4468</lon>
<active>1</active>
</city>
<city>
<id>437543</id>
<name>Benzonia</name>
<state>MI</state>
<rating>6</rating>
<url>http://www.greatschools.org/city/Benzonia/MI</url>
<lat>44.6161</lat>
<lon>-86.099</lon>
<active>1</active>
</city>
<city>
<id>437311</id>
<name>Berkley</name>
<state>MI</state>
<rating>8</rating>
<url>http://www.greatschools.org/city/Berkley/MI</url>
<lat>42.4986</lat>
<lon>-83.1853</lon>
<active>1</active>
</city>
<city>
<id>446477</id>
<name>Berlin Charter Township</name>
<state>MI</state>
<rating/>
<url>http://www.greatschools.org/city/Berlin_Charter_Township/MI</url>
<lat>42.0626</lat>
<lon>-83.2779</lon>
<active>1</active>
</city>
<city>
<id>446105</id>
<name>Berrien Center</name>
<state>MI</state>
<rating/>
<url>http://www.greatschools.org/city/Berrien_Center/MI</url>
<lat>41.9548</lat>
<lon>-86.3043</lon>
<active>1</active>
</city>
<city>
<id>445136</id>
<name>Berrien Spgs</name>
<state>MI</state>
<rating/>
<url>http://www.greatschools.org/city/Berrien_Spgs/MI</url>
<lat>41.8955</lat>
<lon>-86.3181</lon>
<active>1</active>
</city>
<city>
<id>445137</id>
<name>Berrien Sprgs</name>
<state>MI</state>
<rating/>
<url>http://www.greatschools.org/city/Berrien_Sprgs/MI</url>
<lat>41.9637</lat>
<lon>-86.3556</lon>
<active>1</active>
</city>
<city>
<id>437076</id>
<name>Berrien Springs</name>
<state>MI</state>
<rating>8</rating>
<url>http://www.greatschools.org/city/Berrien_Springs/MI</url>
<lat>41.9473</lat>
<lon>-86.3402</lon>
<active>1</active>
</city>
<city>
<id>437293</id>
<name>Bessemer</name>
<state>MI</state>
<rating>7</rating>
<url>http://www.greatschools.org/city/Bessemer/MI</url>
<lat>46.4775</lat>
<lon>-90.0499</lon>
<active>1</active>
</city>
<city>
<id>437095</id>
<name>Beverly Hills</name>
<state>MI</state>
<rating>9</rating>
<url>http://www.greatschools.org/city/Beverly_Hills/MI</url>
<lat>42.5225</lat>
<lon>-83.2403</lon>
<active>1</active>
</city>
<city>
<id>437129</id>
<name>Big Rapids</name>
<state>MI</state>
<rating>5</rating>
<url>http://www.greatschools.org/city/Big_Rapids/MI</url>
<lat>43.699</lat>
<lon>-85.4797</lon>
<active>1</active>
</city>
<city>
<id>437538</id>
<name>Bingham Farms</name>
<state>MI</state>
<rating>10</rating>
<url>http://www.greatschools.org/city/Bingham_Farms/MI</url>
<lat>42.5177</lat>
<lon>-83.278</lon>
<active>1</active>
</city>
<city>
<id>436949</id>
<name>Birch Run</name>
<state>MI</state>
<rating>7</rating>
<url>http://www.greatschools.org/city/Birch_Run/MI</url>
<lat>43.2507</lat>
<lon>-83.7917</lon>
<active>1</active>
</city>
<city>
<id>437106</id>
<name>Birmingham</name>
<state>MI</state>
<rating>9</rating>
<url>http://www.greatschools.org/city/Birmingham/MI</url>
<lat>42.5448</lat>
<lon>-83.2166</lon>
<active>1</active>
</city>
<city>
<id>442548</id>
<name>Bitely</name>
<state>MI</state>
<rating/>
<url>http://www.greatschools.org/city/Bitely/MI</url>
<lat>43.7554</lat>
<lon>-85.8605</lon>
<active>1</active>
</city>
<city>
<id>437208</id>
<name>Blanchard</name>
<state>MI</state>
<rating>5</rating>
<url>http://www.greatschools.org/city/Blanchard/MI</url>
<lat>43.5131</lat>
<lon>-85.0701</lon>
<active>1</active>
</city>
<city>
<id>437537</id>
<name>Blissfield</name>
<state>MI</state>
<rating>6</rating>
<url>http://www.greatschools.org/city/Blissfield/MI</url>
<lat>41.831</lat>
<lon>-83.8642</lon>
<active>1</active>
</city>
<city>
<id>437100</id>
<name>Bloomfield</name>
<state>MI</state>
<rating/>
<url>http://www.greatschools.org/city/Bloomfield/MI</url>
<lat>42.5321</lat>
<lon>-83.2851</lon>
<active>1</active>
</city>
<city>
<id>437029</id>
<name>Bloomfield Hills</name>
<state>MI</state>
<rating>9</rating>
<url>http://www.greatschools.org/city/Bloomfield_Hills/MI</url>
<lat>42.5753</lat>
<lon>-83.2544</lon>
<active>1</active>
</city>
<city>
<id>437057</id>
<name>Bloomingdale</name>
<state>MI</state>
<rating>4</rating>
<url>http://www.greatschools.org/city/Bloomingdale/MI</url>
<lat>42.3833</lat>
<lon>-85.959</lon>
<active>1</active>
</city>
<city>
<id>437521</id>
<name>Boon</name>
<state>MI</state>
<rating>4</rating>
<url>http://www.greatschools.org/city/Boon/MI</url>
<lat>44.288</lat>
<lon>-85.5975</lon>
<active>1</active>
</city>
<city>
<id>437534</id>
<name>Boyne City</name>
<state>MI</state>
<rating>6</rating>
<url>http://www.greatschools.org/city/Boyne_City/MI</url>
<lat>45.2138</lat>
<lon>-85.0128</lon>
<active>1</active>
</city>
<city>
<id>437533</id>
<name>Boyne Falls</name>
<state>MI</state>
<rating>6</rating>
<url>http://www.greatschools.org/city/Boyne_Falls/MI</url>
<lat>45.1678</lat>
<lon>-84.9121</lon>
<active>1</active>
</city>
<city>
<id>446106</id>
<name>Brandon Township</name>
<state>MI</state>
<rating/>
<url>http://www.greatschools.org/city/Brandon_Township/MI</url>
<lat>42.8482</lat>
<lon>-83.4505</lon>
<active>1</active>
</city>
<city>
<id>437531</id>
<name>Breckenridge</name>
<state>MI</state>
<rating>5</rating>
<url>http://www.greatschools.org/city/Breckenridge/MI</url>
<lat>43.4077</lat>
<lon>-84.4785</lon>
<active>1</active>
</city>
<city>
<id>437445</id>
<name>Brethren</name>
<state>MI</state>
<rating>3</rating>
<url>http://www.greatschools.org/city/Brethren/MI</url>
<lat>44.2926</lat>
<lon>-86.0103</lon>
<active>1</active>
</city>
<city>
<id>437242</id>
<name>Bridgeport</name>
<state>MI</state>
<rating>3</rating>
<url>http://www.greatschools.org/city/Bridgeport/MI</url>
<lat>43.3708</lat>
<lon>-83.882</lon>
<active>1</active>
</city>
<city>
<id>446478</id>
<name>Bridgeport Charter Township</name>
<state>MI</state>
<rating/>
<url>http://www.greatschools.org/city/Bridgeport_Charter_Township/MI</url>
<lat>43.3648</lat>
<lon>-83.87</lon>
<active>1</active>
</city>
<city>
<id>437158</id>
<name>Bridgman</name>
<state>MI</state>
<rating>6</rating>
<url>http://www.greatschools.org/city/Bridgman/MI</url>
<lat>41.9352</lat>
<lon>-86.5671</lon>
<active>1</active>
</city>
<city>
<id>436955</id>
<name>Brighton</name>
<state>MI</state>
<rating>8</rating>
<url>http://www.greatschools.org/city/Brighton/MI</url>
<lat>42.5297</lat>
<lon>-83.7845</lon>
<active>1</active>
</city>
<city>
<id>437080</id>
<name>Brimley</name>
<state>MI</state>
<rating>6</rating>
<url>http://www.greatschools.org/city/Brimley/MI</url>
<lat>46.3568</lat>
<lon>-84.7066</lon>
<active>1</active>
</city>
<city>
<id>437529</id>
<name>Britton</name>
<state>MI</state>
<rating>6</rating>
<url>http://www.greatschools.org/city/Britton/MI</url>
<lat>41.9876</lat>
<lon>-83.8305</lon>
<active>1</active>
</city>
<city>
<id>437221</id>
<name>Bronson</name>
<state>MI</state>
<rating>6</rating>
<url>http://www.greatschools.org/city/Bronson/MI</url>
<lat>41.8721</lat>
<lon>-85.1908</lon>
<active>1</active>
</city>
<city>
<id>437027</id>
<name>Brooklyn</name>
<state>MI</state>
<rating>6</rating>
<url>http://www.greatschools.org/city/Brooklyn/MI</url>
<lat>42.1055</lat>
<lon>-84.2488</lon>
<active>1</active>
</city>
<city>
<id>437527</id>
<name>Brown City</name>
<state>MI</state>
<rating>8</rating>
<url>http://www.greatschools.org/city/Brown_City/MI</url>
<lat>43.2115</lat>
<lon>-82.9884</lon>
<active>1</active>
</city>
<city>
<id>437319</id>
<name>Brownstown</name>
<state>MI</state>
<rating>7</rating>
<url>http://www.greatschools.org/city/Brownstown/MI</url>
<lat>42.1237</lat>
<lon>-83.2754</lon>
<active>1</active>
</city>
<city>
<id>446107</id>
<name>Brownstown Charter Township</name>
<state>MI</state>
<rating/>
<url>http://www.greatschools.org/city/Brownstown_Charter_Township/MI</url>
<lat>42.1028</lat>
<lon>-83.2391</lon>
<active>1</active>
</city>
<city>
<id>442546</id>
<name>Brutus</name>
<state>MI</state>
<rating/>
<url>http://www.greatschools.org/city/Brutus/MI</url>
<lat>45.4944</lat>
<lon>-84.7818</lon>
<active>1</active>
</city>
<city>
<id>437200</id>
<name>Buchanan</name>
<state>MI</state>
<rating>6</rating>
<url>http://www.greatschools.org/city/Buchanan/MI</url>
<lat>41.8283</lat>
<lon>-86.366</lon>
<active>1</active>
</city>
<city>
<id>437525</id>
<name>Buckley</name>
<state>MI</state>
<rating>5</rating>
<url>http://www.greatschools.org/city/Buckley/MI</url>
<lat>44.5004</lat>
<lon>-85.6719</lon>
<active>1</active>
</city>
<city>
<id>437524</id>
<name>Burr Oak</name>
<state>MI</state>
<rating>6</rating>
<url>http://www.greatschools.org/city/Burr_Oak/MI</url>
<lat>41.8472</lat>
<lon>-85.3241</lon>
<active>1</active>
</city>
<city>
<id>437188</id>
<name>Burt Lake</name>
<state>MI</state>
<rating/>
<url>http://www.greatschools.org/city/Burt_Lake/MI</url>
<lat>45.437</lat>
<lon>-84.6957</lon>
<active>1</active>
</city>
<city>
<id>436996</id>
<name>Burton</name>
<state>MI</state>
<rating>5</rating>
<url>http://www.greatschools.org/city/Burton/MI</url>
<lat>43.0009</lat>
<lon>-83.6182</lon>
<active>1</active>
</city>
<city>
<id>437522</id>
<name>Byron</name>
<state>MI</state>
<rating>5</rating>
<url>http://www.greatschools.org/city/Byron/MI</url>
<lat>42.8266</lat>
<lon>-83.9508</lon>
<active>1</active>
</city>
<city>
<id>437026</id>
<name>Byron Center</name>
<state>MI</state>
<rating>8</rating>
<url>http://www.greatschools.org/city/Byron_Center/MI</url>
<lat>42.8117</lat>
<lon>-85.7279</lon>
<active>1</active>
</city>
<city>
<id>437237</id>
<name>Cadillac</name>
<state>MI</state>
<rating>6</rating>
<url>http://www.greatschools.org/city/Cadillac/MI</url>
<lat>44.2513</lat>
<lon>-85.414</lon>
<active>1</active>
</city>
<city>
<id>437009</id>
<name>Caledonia</name>
<state>MI</state>
<rating>8</rating>
<url>http://www.greatschools.org/city/Caledonia/MI</url>
<lat>42.7947</lat>
<lon>-85.5171</lon>
<active>1</active>
</city>
<city>
<id>437225</id>
<name>Calumet</name>
<state>MI</state>
<rating>6</rating>
<url>http://www.greatschools.org/city/Calumet/MI</url>
<lat>47.2477</lat>
<lon>-88.4535</lon>
<active>1</active>
</city>
<city>
<id>446479</id>
<name>Calumet Township</name>
<state>MI</state>
<rating/>
<url>http://www.greatschools.org/city/Calumet_Township/MI</url>
<lat>47.2436</lat>
<lon>-88.4478</lon>
<active>1</active>
</city>
<city>
<id>437092</id>
<name>Camden</name>
<state>MI</state>
<rating>5</rating>
<url>http://www.greatschools.org/city/Camden/MI</url>
<lat>41.7551</lat>
<lon>-84.7562</lon>
<active>1</active>
</city>
<city>
<id>436973</id>
<name>Canton</name>
<state>MI</state>
<rating>9</rating>
<url>http://www.greatschools.org/city/Canton/MI</url>
<lat>42.3291</lat>
<lon>-83.4879</lon>
<active>1</active>
</city>
<city>
<id>437520</id>
<name>Capac</name>
<state>MI</state>
<rating>6</rating>
<url>http://www.greatschools.org/city/Capac/MI</url>
<lat>43.0038</lat>
<lon>-82.9222</lon>
<active>1</active>
</city>
<city>
<id>437099</id>
<name>Carleton</name>
<state>MI</state>
<rating>6</rating>
<url>http://www.greatschools.org/city/Carleton/MI</url>
<lat>42.0572</lat>
<lon>-83.3898</lon>
<active>1</active>
</city>
<city>
<id>437519</id>
<name>Carney</name>
<state>MI</state>
<rating>6</rating>
<url>http://www.greatschools.org/city/Carney/MI</url>
<lat>45.5909</lat>
<lon>-87.5508</lon>
<active>1</active>
</city>
<city>
<id>437518</id>
<name>Caro</name>
<state>MI</state>
<rating>5</rating>
<url>http://www.greatschools.org/city/Caro/MI</url>
<lat>43.4893</lat>
<lon>-83.4017</lon>
<active>1</active>
</city>
<city>
<id>437223</id>
<name>Carson City</name>
<state>MI</state>
<rating>5</rating>
<url>http://www.greatschools.org/city/Carson_City/MI</url>
<lat>43.1815</lat>
<lon>-84.8452</lon>
<active>1</active>
</city>
<city>
<id>437013</id>
<name>Carsonville</name>
<state>MI</state>
<rating>5</rating>
<url>http://www.greatschools.org/city/Carsonville/MI</url>
<lat>43.4258</lat>
<lon>-82.673</lon>
<active>1</active>
</city>
<city>
<id>436948</id>
<name>Caseville</name>
<state>MI</state>
<rating>4</rating>
<url>http://www.greatschools.org/city/Caseville/MI</url>
<lat>43.9416</lat>
<lon>-83.2753</lon>
<active>1</active>
</city>
<city>
<id>437192</id>
<name>Cass City</name>
<state>MI</state>
<rating>9</rating>
<url>http://www.greatschools.org/city/Cass_City/MI</url>
<lat>43.6003</lat>
<lon>-83.1765</lon>
<active>1</active>
</city>
<city>
<id>437255</id>
<name>Cassopolis</name>
<state>MI</state>
<rating>3</rating>
<url>http://www.greatschools.org/city/Cassopolis/MI</url>
<lat>41.9107</lat>
<lon>-86.0094</lon>
<active>1</active>
</city>
<city>
<id>445138</id>
<name>Cedar</name>
<state>MI</state>
<rating/>
<url>http://www.greatschools.org/city/Cedar/MI</url>
<lat>44.8473</lat>
<lon>-85.7947</lon>
<active>1</active>
</city>
<city>
<id>437254</id>
<name>Cedar Lake</name>
<state>MI</state>
<rating>9</rating>
<url>http://www.greatschools.org/city/Cedar_Lake/MI</url>
<lat>43.405</lat>
<lon>-84.9701</lon>
<active>1</active>
</city>
<city>
<id>436986</id>
<name>Cedar Springs</name>
<state>MI</state>
<rating>7</rating>
<url>http://www.greatschools.org/city/Cedar_Springs/MI</url>
<lat>43.2194</lat>
<lon>-85.553</lon>
<active>1</active>
</city>
<city>
<id>437428</id>
<name>Cedarville</name>
<state>MI</state>
<rating>8</rating>
<url>http://www.greatschools.org/city/Cedarville/MI</url>
<lat>46.0202</lat>
<lon>-84.3082</lon>
<active>1</active>
</city>
<city>
<id>437528</id>
<name>Cement City</name>
<state>MI</state>
<rating/>
<url>http://www.greatschools.org/city/Cement_City/MI</url>
<lat>42.0684</lat>
<lon>-84.3273</lon>
<active>1</active>
</city>
<city>
<id>437312</id>
<name>Center Line</name>
<state>MI</state>
<rating>4</rating>
<url>http://www.greatschools.org/city/Center_Line/MI</url>
<lat>42.4806</lat>
<lon>-83.0273</lon>
<active>1</active>
</city>
<city>
<id>437516</id>
<name>Central Lake</name>
<state>MI</state>
<rating>6</rating>
<url>http://www.greatschools.org/city/Central_Lake/MI</url>
<lat>45.0692</lat>
<lon>-85.2618</lon>
<active>1</active>
</city>
<city>
<id>437515</id>
<name>Centreville</name>
<state>MI</state>
<rating>7</rating>
<url>http://www.greatschools.org/city/Centreville/MI</url>
<lat>41.9208</lat>
<lon>-85.5259</lon>
<active>1</active>
</city>
<city>
<id>437090</id>
<name>Charlevoix</name>
<state>MI</state>
<rating>7</rating>
<url>http://www.greatschools.org/city/Charlevoix/MI</url>
<lat>45.3144</lat>
<lon>-85.2542</lon>
<active>1</active>
</city>
<city>
<id>437218</id>
<name>Charlotte</name>
<state>MI</state>
<rating>5</rating>
<url>http://www.greatschools.org/city/Charlotte/MI</url>
<lat>42.5662</lat>
<lon>-84.8318</lon>
<active>1</active>
</city>
<city>
<id>446108</id>
<name>Charter Township of Clinton</name>
<state>MI</state>
<rating/>
<url>http://www.greatschools.org/city/Charter_Township_of_Clinton/MI</url>
<lat>42.5679</lat>
<lon>-82.9094</lon>
<active>1</active>
</city>
<city>
<id>437212</id>
<name>Chassell</name>
<state>MI</state>
<rating>7</rating>
<url>http://www.greatschools.org/city/Chassell/MI</url>
<lat>46.9839</lat>
<lon>-88.549</lon>
<active>1</active>
</city>
<city>
<id>437224</id>
<name>Cheboygan</name>
<state>MI</state>
<rating>7</rating>
<url>http://www.greatschools.org/city/Cheboygan/MI</url>
<lat>45.6419</lat>
<lon>-84.4688</lon>
<active>1</active>
</city>
<city>
<id>437514</id>
<name>Chelsea</name>
<state>MI</state>
<rating>10</rating>
<url>http://www.greatschools.org/city/Chelsea/MI</url>
<lat>42.3114</lat>
<lon>-84.0194</lon>
<active>1</active>
</city>
<city>
<id>437181</id>
<name>Chesaning</name>
<state>MI</state>
<rating>7</rating>
<url>http://www.greatschools.org/city/Chesaning/MI</url>
<lat>43.1846</lat>
<lon>-84.1199</lon>
<active>1</active>
</city>
<city>
<id>446480</id>
<name>China Township</name>
<state>MI</state>
<rating/>
<url>http://www.greatschools.org/city/China_Township/MI</url>
<lat>42.7997</lat>
<lon>-82.5112</lon>
<active>1</active>
</city>
<city>
<id>437201</id>
<name>Clare</name>
<state>MI</state>
<rating>5</rating>
<url>http://www.greatschools.org/city/Clare/MI</url>
<lat>43.8244</lat>
<lon>-84.7651</lon>
<active>1</active>
</city>
<city>
<id>443810</id>
<name>Clarklake</name>
<state>MI</state>
<rating/>
<url>http://www.greatschools.org/city/Clarklake/MI</url>
<lat>42.131</lat>
<lon>-84.3717</lon>
<active>1</active>
</city>
<city>
<id>437045</id>
<name>Clarkston</name>
<state>MI</state>
<rating>7</rating>
<url>http://www.greatschools.org/city/Clarkston/MI</url>
<lat>42.7637</lat>
<lon>-83.4109</lon>
<active>1</active>
</city>
<city>
<id>437435</id>
<name>Clarksville</name>
<state>MI</state>
<rating>5</rating>
<url>http://www.greatschools.org/city/Clarksville/MI</url>
<lat>42.8421</lat>
<lon>-85.2425</lon>
<active>1</active>
</city>
<city>
<id>437112</id>
<name>Clawson</name>
<state>MI</state>
<rating>5</rating>
<url>http://www.greatschools.org/city/Clawson/MI</url>
<lat>42.5367</lat>
<lon>-83.1504</lon>
<active>1</active>
</city>
<city>
<id>443812</id>
<name>Clay</name>
<state>MI</state>
<rating>6</rating>
<url>http://www.greatschools.org/city/Clay/MI</url>
<lat>42.6311</lat>
<lon>-82.5448</lon>
<active>1</active>
</city>
<city>
<id>437510</id>
<name>Climax</name>
<state>MI</state>
<rating>5</rating>
<url>http://www.greatschools.org/city/Climax/MI</url>
<lat>42.2383</lat>
<lon>-85.336</lon>
<active>1</active>
</city>
<city>
<id>437044</id>
<name>Clinton</name>
<state>MI</state>
<rating>8</rating>
<url>http://www.greatschools.org/city/Clinton/MI</url>
<lat>42.0679</lat>
<lon>-83.9658</lon>
<active>1</active>
</city>
<city>
<id>437259</id>
<name>Clinton Township</name>
<state>MI</state>
<rating>6</rating>
<url>http://www.greatschools.org/city/Clinton_Township/MI</url>
<lat>42.5991</lat>
<lon>-82.9312</lon>
<active>1</active>
</city>
<city>
<id>437509</id>
<name>Clio</name>
<state>MI</state>
<rating>7</rating>
<url>http://www.greatschools.org/city/Clio/MI</url>
<lat>43.177</lat>
<lon>-83.7356</lon>
<active>1</active>
</city>
<city>
<id>437075</id>
<name>Coldwater</name>
<state>MI</state>
<rating>5</rating>
<url>http://www.greatschools.org/city/Coldwater/MI</url>
<lat>41.9429</lat>
<lon>-85.0008</lon>
<active>1</active>
</city>
<city>
<id>437508</id>
<name>Coleman</name>
<state>MI</state>
<rating>5</rating>
<url>http://www.greatschools.org/city/Coleman/MI</url>
<lat>43.7592</lat>
<lon>-84.5869</lon>
<active>1</active>
</city>
<city>
<id>437289</id>
<name>Coloma</name>
<state>MI</state>
<rating>4</rating>
<url>http://www.greatschools.org/city/Coloma/MI</url>
<lat>42.1866</lat>
<lon>-86.3093</lon>
<active>1</active>
</city>
<city>
<id>437507</id>
<name>Colon</name>
<state>MI</state>
<rating>4</rating>
<url>http://www.greatschools.org/city/Colon/MI</url>
<lat>41.959</lat>
<lon>-85.3235</lon>
<active>1</active>
</city>
<city>
<id>437437</id>
<name>Columbiaville</name>
<state>MI</state>
<rating>8</rating>
<url>http://www.greatschools.org/city/Columbiaville/MI</url>
<lat>43.1555</lat>
<lon>-83.4048</lon>
<active>1</active>
</city>
<city>
<id>442545</id>
<name>Columbus</name>
<state>MI</state>
<rating/>
<url>http://www.greatschools.org/city/Columbus/MI</url>
<lat>42.856</lat>
<lon>-82.677</lon>
<active>1</active>
</city>
<city>
<id>437130</id>
<name>Commerce Township</name>
<state>MI</state>
<rating>8</rating>
<url>http://www.greatschools.org/city/Commerce_Township/MI</url>
<lat>42.584</lat>
<lon>-83.5007</lon>
<active>1</active>
</city>
<city>
<id>437303</id>
<name>Comstock Park</name>
<state>MI</state>
<rating>5</rating>
<url>http://www.greatschools.org/city/Comstock_Park/MI</url>
<lat>43.0441</lat>
<lon>-85.6763</lon>
<active>1</active>
</city>
<city>
<id>437504</id>
<name>Concord</name>
<state>MI</state>
<rating>4</rating>
<url>http://www.greatschools.org/city/Concord/MI</url>
<lat>42.177</lat>
<lon>-84.6455</lon>
<active>1</active>
</city>
<city>
<id>437281</id>
<name>Conklin</name>
<state>MI</state>
<rating/>
<url>http://www.greatschools.org/city/Conklin/MI</url>
<lat>43.1275</lat>
<lon>-85.8529</lon>
<active>1</active>
</city>
<city>
<id>437503</id>
<name>Constantine</name>
<state>MI</state>
<rating>4</rating>
<url>http://www.greatschools.org/city/Constantine/MI</url>
<lat>41.838</lat>
<lon>-85.6652</lon>
<active>1</active>
</city>
<city>
<id>437539</id>
<name>Cooks</name>
<state>MI</state>
<rating>5</rating>
<url>http://www.greatschools.org/city/Cooks/MI</url>
<lat>45.9925</lat>
<lon>-86.4753</lon>
<active>1</active>
</city>
<city>
<id>446481</id>
<name>Cooper Township</name>
<state>MI</state>
<rating/>
<url>http://www.greatschools.org/city/Cooper_Township/MI</url>
<lat>42.3701</lat>
<lon>-85.63</lon>
<active>1</active>
</city>
<city>
<id>437269</id>
<name>Coopersville</name>
<state>MI</state>
<rating>8</rating>
<url>http://www.greatschools.org/city/Coopersville/MI</url>
<lat>43.0655</lat>
<lon>-85.9338</lon>
<active>1</active>
</city>
<city>
<id>437464</id>
<name>Copper Harbor</name>
<state>MI</state>
<rating/>
<url>http://www.greatschools.org/city/Copper_Harbor/MI</url>
<lat>47.4679</lat>
<lon>-87.8699</lon>
<active>1</active>
</city>
<city>
<id>437022</id>
<name>Coral</name>
<state>MI</state>
<rating/>
<url>http://www.greatschools.org/city/Coral/MI</url>
<lat>43.3575</lat>
<lon>-85.3432</lon>
<active>1</active>
</city>
<city>
<id>437501</id>
<name>Corunna</name>
<state>MI</state>
<rating>6</rating>
<url>http://www.greatschools.org/city/Corunna/MI</url>
<lat>42.9834</lat>
<lon>-84.1159</lon>
<active>1</active>
</city>
<city>
<id>437500</id>
<name>Covert</name>
<state>MI</state>
<rating>5</rating>
<url>http://www.greatschools.org/city/Covert/MI</url>
<lat>42.284</lat>
<lon>-86.2695</lon>
<active>1</active>
</city>
<city>
<id>437498</id>
<name>Croswell</name>
<state>MI</state>
<rating>7</rating>
<url>http://www.greatschools.org/city/Croswell/MI</url>
<lat>43.2744</lat>
<lon>-82.6188</lon>
<active>1</active>
</city>
<city>
<id>437517</id>
<name>Crystal</name>
<state>MI</state>
<rating/>
<url>http://www.greatschools.org/city/Crystal/MI</url>
<lat>43.2781</lat>
<lon>-84.9</lon>
<active>1</active>
</city>
<city>
<id>437497</id>
<name>Crystal Falls</name>
<state>MI</state>
<rating>5</rating>
<url>http://www.greatschools.org/city/Crystal_Falls/MI</url>
<lat>46.0902</lat>
<lon>-88.3214</lon>
<active>1</active>
</city>
<city>
<id>437400</id>
<name>Curtis</name>
<state>MI</state>
<rating>3</rating>
<url>http://www.greatschools.org/city/Curtis/MI</url>
<lat>46.209</lat>
<lon>-85.6822</lon>
<active>1</active>
</city>
<city>
<id>437418</id>
<name>Custer</name>
<state>MI</state>
<rating>5</rating>
<url>http://www.greatschools.org/city/Custer/MI</url>
<lat>43.9505</lat>
<lon>-86.2182</lon>
<active>1</active>
</city>
<city>
<id>437496</id>
<name>Dansville</name>
<state>MI</state>
<rating>5</rating>
<url>http://www.greatschools.org/city/Dansville/MI</url>
<lat>42.5555</lat>
<lon>-84.3025</lon>
<active>1</active>
</city>
<city>
<id>437455</id>
<name>Davisburg</name>
<state>MI</state>
<rating>7</rating>
<url>http://www.greatschools.org/city/Davisburg/MI</url>
<lat>42.7572</lat>
<lon>-83.5319</lon>
<active>1</active>
</city>
<city>
<id>436956</id>
<name>Davison</name>
<state>MI</state>
<rating>7</rating>
<url>http://www.greatschools.org/city/Davison/MI</url>
<lat>43.0317</lat>
<lon>-83.5188</lon>
<active>1</active>
</city>
<city>
<id>437494</id>
<name>De Tour Village</name>
<state>MI</state>
<rating>7</rating>
<url>http://www.greatschools.org/city/De_Tour_Village/MI</url>
<lat>45.983</lat>
<lon>-83.9132</lon>
<active>1</active>
</city>
<city>
<id>445139</id>
<name>De Tour Vlle</name>
<state>MI</state>
<rating/>
<url>http://www.greatschools.org/city/De_Tour_Vlle/MI</url>
<lat>45.9944</lat>
<lon>-83.9026</lon>
<active>1</active>
</city>
<city>
<id>436928</id>
<name>Dearborn</name>
<state>MI</state>
<rating>6</rating>
<url>http://www.greatschools.org/city/Dearborn/MI</url>
<lat>42.3131</lat>
<lon>-83.2115</lon>
<active>1</active>
</city>
<city>
<id>436929</id>
<name>Dearborn Heights</name>
<state>MI</state>
<rating>6</rating>
<url>http://www.greatschools.org/city/Dearborn_Heights/MI</url>
<lat>42.3357</lat>
<lon>-83.2888</lon>
<active>1</active>
</city>
<city>
<id>437156</id>
<name>Decatur</name>
<state>MI</state>
<rating>3</rating>
<url>http://www.greatschools.org/city/Decatur/MI</url>
<lat>42.1077</lat>
<lon>-85.975</lon>
<active>1</active>
</city>
<city>
<id>441855</id>
<name>Decker</name>
<state>MI</state>
<rating/>
<url>http://www.greatschools.org/city/Decker/MI</url>
<lat>43.5065</lat>
<lon>-83.068</lon>
<active>1</active>
</city>
<city>
<id>437232</id>
<name>Deckerville</name>
<state>MI</state>
<rating>7</rating>
<url>http://www.greatschools.org/city/Deckerville/MI</url>
<lat>43.5265</lat>
<lon>-82.742</lon>
<active>1</active>
</city>
<city>
<id>437495</id>
<name>Deerfield</name>
<state>MI</state>
<rating/>
<url>http://www.greatschools.org/city/Deerfield/MI</url>
<lat>41.8901</lat>
<lon>-83.779</lon>
<active>1</active>
</city>
<city>
<id>437553</id>
<name>Deerton</name>
<state>MI</state>
<rating/>
<url>http://www.greatschools.org/city/Deerton/MI</url>
<lat>46.4712</lat>
<lon>-87.0452</lon>
<active>1</active>
</city>
<city>
<id>437238</id>
<name>Deford</name>
<state>MI</state>
<rating/>
<url>http://www.greatschools.org/city/Deford/MI</url>
<lat>43.5026</lat>
<lon>-83.1983</lon>
<active>1</active>
</city>
<city>
<id>446109</id>
<name>Delhi Charter Township</name>
<state>MI</state>
<rating/>
<url>http://www.greatschools.org/city/Delhi_Charter_Township/MI</url>
<lat>42.6529</lat>
<lon>-84.5233</lon>
<active>1</active>
</city>
<city>
<id>437228</id>
<name>Delton</name>
<state>MI</state>
<rating>4</rating>
<url>http://www.greatschools.org/city/Delton/MI</url>
<lat>42.4951</lat>
<lon>-85.4124</lon>
<active>1</active>
</city>
<city>
<id>446110</id>
<name>Denton Township</name>
<state>MI</state>
<rating/>
<url>http://www.greatschools.org/city/Denton_Township/MI</url>
<lat>44.2984</lat>
<lon>-84.652</lon>
<active>1</active>
</city>
<city>
<id>436930</id>
<name>Detroit</name>
<state>MI</state>
<rating>4</rating>
<url>http://www.greatschools.org/city/Detroit/MI</url>
<lat>42.383</lat>
<lon>-83.1022</lon>
<active>1</active>
</city>
<city>
<id>437169</id>
<name>Dewitt</name>
<state>MI</state>
<rating>8</rating>
<url>http://www.greatschools.org/city/Dewitt/MI</url>
<lat>42.8359</lat>
<lon>-84.5756</lon>
<active>1</active>
</city>
<city>
<id>437140</id>
<name>Dexter</name>
<state>MI</state>
<rating>8</rating>
<url>http://www.greatschools.org/city/Dexter/MI</url>
<lat>42.3323</lat>
<lon>-83.881</lon>
<active>1</active>
</city>
<city>
<id>437388</id>
<name>Dollar Bay</name>
<state>MI</state>
<rating>6</rating>
<url>http://www.greatschools.org/city/Dollar_Bay/MI</url>
<lat>47.1269</lat>
<lon>-88.5067</lon>
<active>1</active>
</city>
<city>
<id>437083</id>
<name>Dorr</name>
<state>MI</state>
<rating>9</rating>
<url>http://www.greatschools.org/city/Dorr/MI</url>
<lat>42.7262</lat>
<lon>-85.7932</lon>
<active>1</active>
</city>
<city>
<id>437034</id>
<name>Douglas</name>
<state>MI</state>
<rating>9</rating>
<url>http://www.greatschools.org/city/Douglas/MI</url>
<lat>42.6389</lat>
<lon>-86.2076</lon>
<active>1</active>
</city>
<city>
<id>437187</id>
<name>Dowagiac</name>
<state>MI</state>
<rating>5</rating>
<url>http://www.greatschools.org/city/Dowagiac/MI</url>
<lat>41.9834</lat>
<lon>-86.1128</lon>
<active>1</active>
</city>
<city>
<id>445140</id>
<name>Drummond</name>
<state>MI</state>
<rating/>
<url>http://www.greatschools.org/city/Drummond/MI</url>
<lat>46.0206</lat>
<lon>-83.74</lon>
<active>1</active>
</city>
<city>
<id>437493</id>
<name>Drummond Island</name>
<state>MI</state>
<rating/>
<url>http://www.greatschools.org/city/Drummond_Island/MI</url>
<lat>46.0091</lat>
<lon>-83.6782</lon>
<active>1</active>
</city>
<city>
<id>437492</id>
<name>Dryden</name>
<state>MI</state>
<rating>5</rating>
<url>http://www.greatschools.org/city/Dryden/MI</url>
<lat>42.9456</lat>
<lon>-83.124</lon>
<active>1</active>
</city>
<city>
<id>437491</id>
<name>Dundee</name>
<state>MI</state>
<rating>8</rating>
<url>http://www.greatschools.org/city/Dundee/MI</url>
<lat>41.9624</lat>
<lon>-83.6661</lon>
<active>1</active>
</city>
<city>
<id>437263</id>
<name>Durand</name>
<state>MI</state>
<rating>4</rating>
<url>http://www.greatschools.org/city/Durand/MI</url>
<lat>42.9142</lat>
<lon>-83.9885</lon>
<active>1</active>
</city>
<city>
<id>437465</id>
<name>Eagle</name>
<state>MI</state>
<rating>7</rating>
<url>http://www.greatschools.org/city/Eagle/MI</url>
<lat>42.8095</lat>
<lon>-84.7907</lon>
<active>1</active>
</city>
<city>
<id>437573</id>
<name>East China</name>
<state>MI</state>
<rating/>
<url>http://www.greatschools.org/city/East_China/MI</url>
<lat>42.771</lat>
<lon>-82.541</lon>
<active>1</active>
</city>
<city>
<id>437486</id>
<name>East Jordan</name>
<state>MI</state>
<rating>6</rating>
<url>http://www.greatschools.org/city/East_Jordan/MI</url>
<lat>45.1531</lat>
<lon>-85.1309</lon>
<active>1</active>
</city>
<city>
<id>437085</id>
<name>East Lansing</name>
<state>MI</state>
<rating>9</rating>
<url>http://www.greatschools.org/city/East_Lansing/MI</url>
<lat>42.7489</lat>
<lon>-84.4824</lon>
<active>1</active>
</city>
<city>
<id>437556</id>
<name>East Leroy</name>
<state>MI</state>
<rating>4</rating>
<url>http://www.greatschools.org/city/East_Leroy/MI</url>
<lat>42.1915</lat>
<lon>-85.2323</lon>
<active>1</active>
</city>
<city>
<id>437307</id>
<name>East Tawas</name>
<state>MI</state>
<rating/>
<url>http://www.greatschools.org/city/East_Tawas/MI</url>
<lat>44.2908</lat>
<lon>-83.4838</lon>
<active>1</active>
</city>
<city>
<id>437101</id>
<name>Eastpointe</name>
<state>MI</state>
<rating>3</rating>
<url>http://www.greatschools.org/city/Eastpointe/MI</url>
<lat>42.4661</lat>
<lon>-82.9463</lon>
<active>1</active>
</city>
<city>
<id>437204</id>
<name>Eaton Rapids</name>
<state>MI</state>
<rating>7</rating>
<url>http://www.greatschools.org/city/Eaton_Rapids/MI</url>
<lat>42.5089</lat>
<lon>-84.6519</lon>
<active>1</active>
</city>
<city>
<id>437258</id>
<name>Eau Claire</name>
<state>MI</state>
<rating>5</rating>
<url>http://www.greatschools.org/city/Eau_Claire/MI</url>
<lat>41.9839</lat>
<lon>-86.3038</lon>
<active>1</active>
</city>
<city>
<id>437571</id>
<name>Eben Junction</name>
<state>MI</state>
<rating>5</rating>
<url>http://www.greatschools.org/city/Eben_Junction/MI</url>
<lat>46.3548</lat>
<lon>-86.9726</lon>
<active>1</active>
</city>
<city>
<id>437010</id>
<name>Ecorse</name>
<state>MI</state>
<rating>3</rating>
<url>http://www.greatschools.org/city/Ecorse/MI</url>
<lat>42.2496</lat>
<lon>-83.1403</lon>
<active>1</active>
</city>
<city>
<id>446482</id>
<name>Edenville</name>
<state>MI</state>
<rating/>
<url>http://www.greatschools.org/city/Edenville/MI</url>
<lat>43.8095</lat>
<lon>-84.3844</lon>
<active>1</active>
</city>
<city>
<id>437485</id>
<name>Edmore</name>
<state>MI</state>
<rating/>
<url>http://www.greatschools.org/city/Edmore/MI</url>
<lat>43.4076</lat>
<lon>-85.0365</lon>
<active>1</active>
</city>
<city>
<id>437155</id>
<name>Edwardsburg</name>
<state>MI</state>
<rating>8</rating>
<url>http://www.greatschools.org/city/Edwardsburg/MI</url>
<lat>41.7954</lat>
<lon>-86.0835</lon>
<active>1</active>
</city>
<city>
<id>437484</id>
<name>Elk Rapids</name>
<state>MI</state>
<rating>7</rating>
<url>http://www.greatschools.org/city/Elk_Rapids/MI</url>
<lat>44.898</lat>
<lon>-85.4045</lon>
<active>1</active>
</city>
<city>
<id>437273</id>
<name>Ellsworth</name>
<state>MI</state>
<rating>5</rating>
<url>http://www.greatschools.org/city/Ellsworth/MI</url>
<lat>45.1672</lat>
<lon>-85.2429</lon>
<active>1</active>
</city>
<city>
<id>437384</id>
<name>Elsie</name>
<state>MI</state>
<rating>6</rating>
<url>http://www.greatschools.org/city/Elsie/MI</url>
<lat>43.0893</lat>
<lon>-84.3885</lon>
<active>1</active>
</city>
<city>
<id>437317</id>
<name>Emmett</name>
<state>MI</state>
<rating>5</rating>
<url>http://www.greatschools.org/city/Emmett/MI</url>
<lat>42.9934</lat>
<lon>-82.7654</lon>
<active>1</active>
</city>
<city>
<id>442542</id>
<name>Empire</name>
<state>MI</state>
<rating/>
<url>http://www.greatschools.org/city/Empire/MI</url>
<lat>44.8122</lat>
<lon>-86.0592</lon>
<active>1</active>
</city>
<city>
<id>437472</id>
<name>Engadine</name>
<state>MI</state>
<rating>3</rating>
<url>http://www.greatschools.org/city/Engadine/MI</url>
<lat>46.1565</lat>
<lon>-85.5456</lon>
<active>1</active>
</city>
<city>
<id>437251</id>
<name>Erie</name>
<state>MI</state>
<rating>5</rating>
<url>http://www.greatschools.org/city/Erie/MI</url>
<lat>41.7845</lat>
<lon>-83.4956</lon>
<active>1</active>
</city>
<city>
<id>437179</id>
<name>Escanaba</name>
<state>MI</state>
<rating>5</rating>
<url>http://www.greatschools.org/city/Escanaba/MI</url>
<lat>45.7463</lat>
<lon>-87.0836</lon>
<active>1</active>
</city>
<city>
<id>437248</id>
<name>Essexville</name>
<state>MI</state>
<rating>7</rating>
<url>http://www.greatschools.org/city/Essexville/MI</url>
<lat>43.6123</lat>
<lon>-83.842</lon>
<active>1</active>
</city>
<city>
<id>437352</id>
<name>Eureka</name>
<state>MI</state>
<rating>6</rating>
<url>http://www.greatschools.org/city/Eureka/MI</url>
<lat>43.1036</lat>
<lon>-84.5113</lon>
<active>1</active>
</city>
<city>
<id>437154</id>
<name>Evart</name>
<state>MI</state>
<rating>3</rating>
<url>http://www.greatschools.org/city/Evart/MI</url>
<lat>43.8988</lat>
<lon>-85.2705</lon>
<active>1</active>
</city>
<city>
<id>437572</id>
<name>Ewen</name>
<state>MI</state>
<rating>4</rating>
<url>http://www.greatschools.org/city/Ewen/MI</url>
<lat>46.5375</lat>
<lon>-89.3899</lon>
<active>1</active>
</city>
<city>
<id>437052</id>
<name>Fair Haven</name>
<state>MI</state>
<rating/>
<url>http://www.greatschools.org/city/Fair_Haven/MI</url>
<lat>42.6945</lat>
<lon>-82.6686</lon>
<active>1</active>
</city>
<city>
<id>437563</id>
<name>Fairgrove</name>
<state>MI</state>
<rating>4</rating>
<url>http://www.greatschools.org/city/Fairgrove/MI</url>
<lat>43.5245</lat>
<lon>-83.5434</lon>
<active>1</active>
</city>
<city>
<id>437505</id>
<name>Fairview</name>
<state>MI</state>
<rating>6</rating>
<url>http://www.greatschools.org/city/Fairview/MI</url>
<lat>44.714</lat>
<lon>-84.0054</lon>
<active>1</active>
</city>
<city>
<id>442541</id>
<name>Falmouth</name>
<state>MI</state>
<rating/>
<url>http://www.greatschools.org/city/Falmouth/MI</url>
<lat>44.2358</lat>
<lon>-84.98</lon>
<active>1</active>
</city>
<city>
<id>445141</id>
<name>Farmingtn Hls</name>
<state>MI</state>
<rating/>
<url>http://www.greatschools.org/city/Farmingtn_Hls/MI</url>
<lat>42.5049</lat>
<lon>-83.3469</lon>
<active>1</active>
</city>
<city>
<id>437053</id>
<name>Farmington</name>
<state>MI</state>
<rating>8</rating>
<url>http://www.greatschools.org/city/Farmington/MI</url>
<lat>42.4614</lat>
<lon>-83.3784</lon>
<active>1</active>
</city>
<city>
<id>436967</id>
<name>Farmington Hills</name>
<state>MI</state>
<rating>7</rating>
<url>http://www.greatschools.org/city/Farmington_Hills/MI</url>
<lat>42.4856</lat>
<lon>-83.376</lon>
<active>1</active>
</city>
<city>
<id>445142</id>
<name>Farmington Hl</name>
<state>MI</state>
<rating/>
<url>http://www.greatschools.org/city/Farmington_Hl/MI</url>
<lat>42.4658</lat>
<lon>-83.3469</lon>
<active>1</active>
</city>
<city>
<id>437008</id>
<name>Farwell</name>
<state>MI</state>
<rating>3</rating>
<url>http://www.greatschools.org/city/Farwell/MI</url>
<lat>43.8368</lat>
<lon>-84.8673</lon>
<active>1</active>
</city>
<city>
<id>437363</id>
<name>Felch</name>
<state>MI</state>
<rating>6</rating>
<url>http://www.greatschools.org/city/Felch/MI</url>
<lat>46.0571</lat>
<lon>-87.574</lon>
<active>1</active>
</city>
<city>
<id>437482</id>
<name>Fennville</name>
<state>MI</state>
<rating>5</rating>
<url>http://www.greatschools.org/city/Fennville/MI</url>
<lat>42.5947</lat>
<lon>-86.1051</lon>
<active>1</active>
</city>
<city>
<id>436998</id>
<name>Fenton</name>
<state>MI</state>
<rating>7</rating>
<url>http://www.greatschools.org/city/Fenton/MI</url>
<lat>42.7999</lat>
<lon>-83.7142</lon>
<active>1</active>
</city>
<city>
<id>436976</id>
<name>Ferndale</name>
<state>MI</state>
<rating>4</rating>
<url>http://www.greatschools.org/city/Ferndale/MI</url>
<lat>42.4592</lat>
<lon>-83.1313</lon>
<active>1</active>
</city>
<city>
<id>437481</id>
<name>Fife Lake</name>
<state>MI</state>
<rating>7</rating>
<url>http://www.greatschools.org/city/Fife_Lake/MI</url>
<lat>44.5753</lat>
<lon>-85.3488</lon>
<active>1</active>
</city>
<city>
<id>437526</id>
<name>Flat Rock</name>
<state>MI</state>
<rating>6</rating>
<url>http://www.greatschools.org/city/Flat_Rock/MI</url>
<lat>42.0971</lat>
<lon>-83.2698</lon>
<active>1</active>
</city>
<city>
<id>436945</id>
<name>Flint</name>
<state>MI</state>
<rating>4</rating>
<url>http://www.greatschools.org/city/Flint/MI</url>
<lat>43.0244</lat>
<lon>-83.692</lon>
<active>1</active>
</city>
<city>
<id>445143</id>
<name>Flint Township</name>
<state>MI</state>
<rating/>
<url>http://www.greatschools.org/city/Flint_Township/MI</url>
<lat>43.0144</lat>
<lon>-83.7107</lon>
<active>1</active>
</city>
<city>
<id>437007</id>
<name>Flushing</name>
<state>MI</state>
<rating>6</rating>
<url>http://www.greatschools.org/city/Flushing/MI</url>
<lat>43.0628</lat>
<lon>-83.8426</lon>
<active>1</active>
</city>
<city>
<id>437108</id>
<name>Fort Gratiot</name>
<state>MI</state>
<rating>7</rating>
<url>http://www.greatschools.org/city/Fort_Gratiot/MI</url>
<lat>43.0845</lat>
<lon>-82.4897</lon>
<active>1</active>
</city>
<city>
<id>445144</id>
<name>Fort Gratiot Township</name>
<state>MI</state>
<rating/>
<url>http://www.greatschools.org/city/Fort_Gratiot_Township/MI</url>
<lat>43.114</lat>
<lon>-82.4955</lon>
<active>1</active>
</city>
<city>
<id>442540</id>
<name>Fosters</name>
<state>MI</state>
<rating/>
<url>http://www.greatschools.org/city/Fosters/MI</url>
<lat>43.2495</lat>
<lon>-83.7945</lon>
<active>1</active>
</city>
<city>
<id>442539</id>
<name>Fountain</name>
<state>MI</state>
<rating/>
<url>http://www.greatschools.org/city/Fountain/MI</url>
<lat>44.0482</lat>
<lon>-86.1811</lon>
<active>1</active>
</city>
<city>
<id>437298</id>
<name>Fowler</name>
<state>MI</state>
<rating>9</rating>
<url>http://www.greatschools.org/city/Fowler/MI</url>
<lat>43.004</lat>
<lon>-84.7417</lon>
<active>1</active>
</city>
<city>
<id>437264</id>
<name>Fowlerville</name>
<state>MI</state>
<rating>6</rating>
<url>http://www.greatschools.org/city/Fowlerville/MI</url>
<lat>42.6594</lat>
<lon>-84.075</lon>
<active>1</active>
</city>
<city>
<id>437275</id>
<name>Frankenmuth</name>
<state>MI</state>
<rating>8</rating>
<url>http://www.greatschools.org/city/Frankenmuth/MI</url>
<lat>43.3328</lat>
<lon>-83.7391</lon>
<active>1</active>
</city>
<city>
<id>437479</id>
<name>Frankfort</name>
<state>MI</state>
<rating>8</rating>
<url>http://www.greatschools.org/city/Frankfort/MI</url>
<lat>44.6368</lat>
<lon>-86.232</lon>
<active>1</active>
</city>
<city>
<id>437219</id>
<name>Franklin</name>
<state>MI</state>
<rating>10</rating>
<url>http://www.greatschools.org/city/Franklin/MI</url>
<lat>42.5188</lat>
<lon>-83.303</lon>
<active>1</active>
</city>
<city>
<id>437142</id>
<name>Fraser</name>
<state>MI</state>
<rating>5</rating>
<url>http://www.greatschools.org/city/Fraser/MI</url>
<lat>42.5376</lat>
<lon>-82.9467</lon>
<active>1</active>
</city>
<city>
<id>437477</id>
<name>Free Soil</name>
<state>MI</state>
<rating/>
<url>http://www.greatschools.org/city/Free_Soil/MI</url>
<lat>44.1071</lat>
<lon>-86.211</lon>
<active>1</active>
</city>
<city>
<id>437478</id>
<name>Freeland</name>
<state>MI</state>
<rating>8</rating>
<url>http://www.greatschools.org/city/Freeland/MI</url>
<lat>43.5175</lat>
<lon>-84.1147</lon>
<active>1</active>
</city>
<city>
<id>437030</id>
<name>Fremont</name>
<state>MI</state>
<rating>6</rating>
<url>http://www.greatschools.org/city/Fremont/MI</url>
<lat>43.4639</lat>
<lon>-85.9533</lon>
<active>1</active>
</city>
<city>
<id>446111</id>
<name>Frenchtown Charter Township</name>
<state>MI</state>
<rating/>
<url>http://www.greatschools.org/city/Frenchtown_Charter_Township/MI</url>
<lat>41.9965</lat>
<lon>-83.3608</lon>
<active>1</active>
</city>
<city>
<id>437006</id>
<name>Fruitport</name>
<state>MI</state>
<rating>6</rating>
<url>http://www.greatschools.org/city/Fruitport/MI</url>
<lat>43.1255</lat>
<lon>-86.1561</lon>
<active>1</active>
</city>
<city>
<id>446483</id>
<name>Fruitport Charter township</name>
<state>MI</state>
<rating/>
<url>http://www.greatschools.org/city/Fruitport_Charter_township/MI</url>
<lat>43.1321</lat>
<lon>-86.1645</lon>
<active>1</active>
</city>
<city>
<id>437347</id>
<name>Gaines</name>
<state>MI</state>
<rating>6</rating>
<url>http://www.greatschools.org/city/Gaines/MI</url>
<lat>42.8726</lat>
<lon>-83.9111</lon>
<active>1</active>
</city>
<city>
<id>437475</id>
<name>Galesburg</name>
<state>MI</state>
<rating>6</rating>
<url>http://www.greatschools.org/city/Galesburg/MI</url>
<lat>42.2909</lat>
<lon>-85.4176</lon>
<active>1</active>
</city>
<city>
<id>437005</id>
<name>Galien</name>
<state>MI</state>
<rating/>
<url>http://www.greatschools.org/city/Galien/MI</url>
<lat>41.8016</lat>
<lon>-86.4996</lon>
<active>1</active>
</city>
<city>
<id>436952</id>
<name>Garden City</name>
<state>MI</state>
<rating>4</rating>
<url>http://www.greatschools.org/city/Garden_City/MI</url>
<lat>42.3244</lat>
<lon>-83.3412</lon>
<active>1</active>
</city>
<city>
<id>437123</id>
<name>Gaylord</name>
<state>MI</state>
<rating>8</rating>
<url>http://www.greatschools.org/city/Gaylord/MI</url>
<lat>45.0211</lat>
<lon>-84.6796</lon>
<active>1</active>
</city>
<city>
<id>446484</id>
<name>Genesee Township</name>
<state>MI</state>
<rating/>
<url>http://www.greatschools.org/city/Genesee_Township/MI</url>
<lat>43.1149</lat>
<lon>-83.6215</lon>
<active>1</active>
</city>
<city>
<id>446112</id>
<name>Georgetown Township</name>
<state>MI</state>
<rating/>
<url>http://www.greatschools.org/city/Georgetown_Township/MI</url>
<lat>42.9102</lat>
<lon>-85.8348</lon>
<active>1</active>
</city>
<city>
<id>437074</id>
<name>Gladstone</name>
<state>MI</state>
<rating>6</rating>
<url>http://www.greatschools.org/city/Gladstone/MI</url>
<lat>45.8503</lat>
<lon>-87.0263</lon>
<active>1</active>
</city>
<city>
<id>437194</id>
<name>Gladwin</name>
<state>MI</state>
<rating>7</rating>
<url>http://www.greatschools.org/city/Gladwin/MI</url>
<lat>43.984</lat>
<lon>-84.4872</lon>
<active>1</active>
</city>
<city>
<id>437265</id>
<name>Glen Arbor</name>
<state>MI</state>
<rating/>
<url>http://www.greatschools.org/city/Glen_Arbor/MI</url>
<lat>44.8957</lat>
<lon>-85.9895</lon>
<active>1</active>
</city>
<city>
<id>437256</id>
<name>Gobles</name>
<state>MI</state>
<rating>5</rating>
<url>http://www.greatschools.org/city/Gobles/MI</url>
<lat>42.3617</lat>
<lon>-85.8774</lon>
<active>1</active>
</city>
<city>
<id>437466</id>
<name>Goodrich</name>
<state>MI</state>
<rating>8</rating>
<url>http://www.greatschools.org/city/Goodrich/MI</url>
<lat>42.9109</lat>
<lon>-83.5173</lon>
<active>1</active>
</city>
<city>
<id>437003</id>
<name>Grand Blanc</name>
<state>MI</state>
<rating>8</rating>
<url>http://www.greatschools.org/city/Grand_Blanc/MI</url>
<lat>42.9285</lat>
<lon>-83.6169</lon>
<active>1</active>
</city>
<city>
<id>437119</id>
<name>Grand Haven</name>
<state>MI</state>
<rating>8</rating>
<url>http://www.greatschools.org/city/Grand_Haven/MI</url>
<lat>43.0552</lat>
<lon>-86.2242</lon>
<active>1</active>
</city>
<city>
<id>437138</id>
<name>Grand Ledge</name>
<state>MI</state>
<rating>6</rating>
<url>http://www.greatschools.org/city/Grand_Ledge/MI</url>
<lat>42.7532</lat>
<lon>-84.7413</lon>
<active>1</active>
</city>
<city>
<id>437523</id>
<name>Grand Marais</name>
<state>MI</state>
<rating/>
<url>http://www.greatschools.org/city/Grand_Marais/MI</url>
<lat>46.638</lat>
<lon>-85.9372</lon>
<active>1</active>
</city>
<city>
<id>436995</id>
<name>Grand Rapids</name>
<state>MI</state>
<rating>6</rating>
<url>http://www.greatschools.org/city/Grand_Rapids/MI</url>
<lat>42.9612</lat>
<lon>-85.6556</lon>
<active>1</active>
</city>
<city>
<id>437152</id>
<name>Grandville</name>
<state>MI</state>
<rating>8</rating>
<url>http://www.greatschools.org/city/Grandville/MI</url>
<lat>42.9005</lat>
<lon>-85.7521</lon>
<active>1</active>
</city>
<city>
<id>445146</id>
<name>Granger</name>
<state>MI</state>
<rating/>
<url>http://www.greatschools.org/city/Granger/MI</url>
<lat>41.7382</lat>
<lon>-86.2051</lon>
<active>1</active>
</city>
<city>
<id>437271</id>
<name>Grant</name>
<state>MI</state>
<rating>6</rating>
<url>http://www.greatschools.org/city/Grant/MI</url>
<lat>43.3346</lat>
<lon>-85.8061</lon>
<active>1</active>
</city>
<city>
<id>437073</id>
<name>Grass Lake</name>
<state>MI</state>
<rating>7</rating>
<url>http://www.greatschools.org/city/Grass_Lake/MI</url>
<lat>42.2508</lat>
<lon>-84.2062</lon>
<active>1</active>
</city>
<city>
<id>446485</id>
<name>Grass Lake Charter Township</name>
<state>MI</state>
<rating/>
<url>http://www.greatschools.org/city/Grass_Lake_Charter_Township/MI</url>
<lat>42.2484</lat>
<lon>-84.2</lon>
<active>1</active>
</city>
<city>
<id>437229</id>
<name>Grayling</name>
<state>MI</state>
<rating>7</rating>
<url>http://www.greatschools.org/city/Grayling/MI</url>
<lat>44.658</lat>
<lon>-84.7111</lon>
<active>1</active>
</city>
<city>
<id>437203</id>
<name>Greenbush</name>
<state>MI</state>
<rating/>
<url>http://www.greatschools.org/city/Greenbush/MI</url>
<lat>44.5633</lat>
<lon>-83.3393</lon>
<active>1</active>
</city>
<city>
<id>437082</id>
<name>Greenville</name>
<state>MI</state>
<rating>5</rating>
<url>http://www.greatschools.org/city/Greenville/MI</url>
<lat>43.1796</lat>
<lon>-85.254</lon>
<active>1</active>
</city>
<city>
<id>442538</id>
<name>Gregory</name>
<state>MI</state>
<rating/>
<url>http://www.greatschools.org/city/Gregory/MI</url>
<lat>42.4593</lat>
<lon>-84.0596</lon>
<active>1</active>
</city>
<city>
<id>437463</id>
<name>Grosse Ile</name>
<state>MI</state>
<rating>8</rating>
<url>http://www.greatschools.org/city/Grosse_Ile/MI</url>
<lat>42.1444</lat>
<lon>-83.1473</lon>
<active>1</active>
</city>
<city>
<id>446113</id>
<name>Grosse Ile Township</name>
<state>MI</state>
<rating/>
<url>http://www.greatschools.org/city/Grosse_Ile_Township/MI</url>
<lat>42.1518</lat>
<lon>-83.1592</lon>
<active>1</active>
</city>
<city>
<id>437019</id>
<name>Grosse Pointe</name>
<state>MI</state>
<rating>10</rating>
<url>http://www.greatschools.org/city/Grosse_Pointe/MI</url>
<lat>42.3839</lat>
<lon>-82.9041</lon>
<active>1</active>
</city>
<city>
<id>437098</id>
<name>Grosse Pointe Farms</name>
<state>MI</state>
<rating>9</rating>
<url>http://www.greatschools.org/city/Grosse_Pointe_Farms/MI</url>
<lat>42.3975</lat>
<lon>-82.8892</lon>
<active>1</active>
</city>
<city>
<id>437315</id>
<name>Grosse Pointe Park</name>
<state>MI</state>
<rating>9</rating>
<url>http://www.greatschools.org/city/Grosse_Pointe_Park/MI</url>
<lat>42.3739</lat>
<lon>-82.9234</lon>
<active>1</active>
</city>
<city>
<id>437166</id>
<name>Grosse Pointe Woods</name>
<state>MI</state>
<rating>8</rating>
<url>http://www.greatschools.org/city/Grosse_Pointe_Woods/MI</url>
<lat>42.4393</lat>
<lon>-82.899</lon>
<active>1</active>
</city>
<city>
<id>445148</id>
<name>Grosse Pte Pa</name>
<state>MI</state>
<rating/>
<url>http://www.greatschools.org/city/Grosse_Pte_Pa/MI</url>
<lat>42.3768</lat>
<lon>-82.9233</lon>
<active>1</active>
</city>
<city>
<id>445149</id>
<name>Grosse Pte Wo</name>
<state>MI</state>
<rating/>
<url>http://www.greatschools.org/city/Grosse_Pte_Wo/MI</url>
<lat>42.4192</lat>
<lon>-82.8964</lon>
<active>1</active>
</city>
<city>
<id>437480</id>
<name>Gwinn</name>
<state>MI</state>
<rating>6</rating>
<url>http://www.greatschools.org/city/Gwinn/MI</url>
<lat>46.2986</lat>
<lon>-87.434</lon>
<active>1</active>
</city>
<city>
<id>437031</id>
<name>Hale</name>
<state>MI</state>
<rating>5</rating>
<url>http://www.greatschools.org/city/Hale/MI</url>
<lat>44.3816</lat>
<lon>-83.8102</lon>
<active>1</active>
</city>
<city>
<id>445150</id>
<name>Hall Rd Br</name>
<state>MI</state>
<rating/>
<url>http://www.greatschools.org/city/Hall_Rd_Br/MI</url>
<lat>42.5977</lat>
<lon>-82.9394</lon>
<active>1</active>
</city>
<city>
<id>437375</id>
<name>Hamburg</name>
<state>MI</state>
<rating/>
<url>http://www.greatschools.org/city/Hamburg/MI</url>
<lat>42.4513</lat>
<lon>-83.8075</lon>
<active>1</active>
</city>
<city>
<id>437151</id>
<name>Hamilton</name>
<state>MI</state>
<rating>8</rating>
<url>http://www.greatschools.org/city/Hamilton/MI</url>
<lat>42.6846</lat>
<lon>-85.9935</lon>
<active>1</active>
</city>
<city>
<id>437001</id>
<name>Hamtramck</name>
<state>MI</state>
<rating>5</rating>
<url>http://www.greatschools.org/city/Hamtramck/MI</url>
<lat>42.3954</lat>
<lon>-83.056</lon>
<active>1</active>
</city>
<city>
<id>437144</id>
<name>Hancock</name>
<state>MI</state>
<rating>7</rating>
<url>http://www.greatschools.org/city/Hancock/MI</url>
<lat>47.1344</lat>
<lon>-88.5991</lon>
<active>1</active>
</city>
<city>
<id>437461</id>
<name>Hanover</name>
<state>MI</state>
<rating>4</rating>
<url>http://www.greatschools.org/city/Hanover/MI</url>
<lat>42.1005</lat>
<lon>-84.5545</lon>
<active>1</active>
</city>
<city>
<id>437284</id>
<name>Harbor Beach</name>
<state>MI</state>
<rating>7</rating>
<url>http://www.greatschools.org/city/Harbor_Beach/MI</url>
<lat>43.8448</lat>
<lon>-82.6546</lon>
<active>1</active>
</city>
<city>
<id>437220</id>
<name>Harbor Springs</name>
<state>MI</state>
<rating>8</rating>
<url>http://www.greatschools.org/city/Harbor_Springs/MI</url>
<lat>45.4325</lat>
<lon>-84.9889</lon>
<active>1</active>
</city>
<city>
<id>436944</id>
<name>Harper Woods</name>
<state>MI</state>
<rating>4</rating>
<url>http://www.greatschools.org/city/Harper_Woods/MI</url>
<lat>42.439</lat>
<lon>-82.9294</lon>
<active>1</active>
</city>
<city>
<id>437549</id>
<name>Harris</name>
<state>MI</state>
<rating>5</rating>
<url>http://www.greatschools.org/city/Harris/MI</url>
<lat>45.7025</lat>
<lon>-87.3446</lon>
<active>1</active>
</city>
<city>
<id>437000</id>
<name>Harrison</name>
<state>MI</state>
<rating>4</rating>
<url>http://www.greatschools.org/city/Harrison/MI</url>
<lat>44.013</lat>
<lon>-84.8106</lon>
<active>1</active>
</city>
<city>
<id>437425</id>
<name>Harrison Township</name>
<state>MI</state>
<rating>8</rating>
<url>http://www.greatschools.org/city/Harrison_Township/MI</url>
<lat>42.5856</lat>
<lon>-82.8186</lon>
<active>1</active>
</city>
<city>
<id>442537</id>
<name>Harrisville</name>
<state>MI</state>
<rating/>
<url>http://www.greatschools.org/city/Harrisville/MI</url>
<lat>44.6572</lat>
<lon>-83.2947</lon>
<active>1</active>
</city>
<city>
<id>437213</id>
<name>Hart</name>
<state>MI</state>
<rating>5</rating>
<url>http://www.greatschools.org/city/Hart/MI</url>
<lat>43.6965</lat>
<lon>-86.3714</lon>
<active>1</active>
</city>
<city>
<id>437459</id>
<name>Hartford</name>
<state>MI</state>
<rating>4</rating>
<url>http://www.greatschools.org/city/Hartford/MI</url>
<lat>42.205</lat>
<lon>-86.1661</lon>
<active>1</active>
</city>
<city>
<id>437137</id>
<name>Hartland</name>
<state>MI</state>
<rating>8</rating>
<url>http://www.greatschools.org/city/Hartland/MI</url>
<lat>42.6457</lat>
<lon>-83.7196</lon>
<active>1</active>
</city>
<city>
<id>437458</id>
<name>Haslett</name>
<state>MI</state>
<rating>9</rating>
<url>http://www.greatschools.org/city/Haslett/MI</url>
<lat>42.7521</lat>
<lon>-84.3974</lon>
<active>1</active>
</city>
<city>
<id>437249</id>
<name>Hastings</name>
<state>MI</state>
<rating>6</rating>
<url>http://www.greatschools.org/city/Hastings/MI</url>
<lat>42.6501</lat>
<lon>-85.2884</lon>
<active>1</active>
</city>
<city>
<id>437072</id>
<name>Hazel Park</name>
<state>MI</state>
<rating>4</rating>
<url>http://www.greatschools.org/city/Hazel_Park/MI</url>
<lat>42.4619</lat>
<lon>-83.0977</lon>
<active>1</active>
</city>
<city>
<id>437278</id>
<name>Hemlock</name>
<state>MI</state>
<rating>7</rating>
<url>http://www.greatschools.org/city/Hemlock/MI</url>
<lat>43.4216</lat>
<lon>-84.2399</lon>
<active>1</active>
</city>
<city>
<id>437369</id>
<name>Hermansville</name>
<state>MI</state>
<rating>7</rating>
<url>http://www.greatschools.org/city/Hermansville/MI</url>
<lat>45.7508</lat>
<lon>-87.6289</lon>
<active>1</active>
</city>
<city>
<id>437559</id>
<name>Herron</name>
<state>MI</state>
<rating>4</rating>
<url>http://www.greatschools.org/city/Herron/MI</url>
<lat>44.9967</lat>
<lon>-83.6582</lon>
<active>1</active>
</city>
<city>
<id>443811</id>
<name>Hersey</name>
<state>MI</state>
<rating/>
<url>http://www.greatschools.org/city/Hersey/MI</url>
<lat>43.8512</lat>
<lon>-85.442</lon>
<active>1</active>
</city>
<city>
<id>437457</id>
<name>Hesperia</name>
<state>MI</state>
<rating>6</rating>
<url>http://www.greatschools.org/city/Hesperia/MI</url>
<lat>43.5695</lat>
<lon>-86.0409</lon>
<active>1</active>
</city>
<city>
<id>437462</id>
<name>Hickory Corners</name>
<state>MI</state>
<rating/>
<url>http://www.greatschools.org/city/Hickory_Corners/MI</url>
<lat>42.4344</lat>
<lon>-85.3859</lon>
<active>1</active>
</city>
<city>
<id>436957</id>
<name>Highland</name>
<state>MI</state>
<rating>7</rating>
<url>http://www.greatschools.org/city/Highland/MI</url>
<lat>42.6542</lat>
<lon>-83.5901</lon>
<active>1</active>
</city>
<city>
<id>436951</id>
<name>Highland Park</name>
<state>MI</state>
<rating>5</rating>
<url>http://www.greatschools.org/city/Highland_Park/MI</url>
<lat>42.4052</lat>
<lon>-83.0976</lon>
<active>1</active>
</city>
<city>
<id>444672</id>
<name>Highland Township</name>
<state>MI</state>
<rating/>
<url>http://www.greatschools.org/city/Highland_Township/MI</url>
<lat>42.6569</lat>
<lon>-83.6208</lon>
<active>1</active>
</city>
<city>
<id>437456</id>
<name>Hillman</name>
<state>MI</state>
<rating>4</rating>
<url>http://www.greatschools.org/city/Hillman/MI</url>
<lat>45.0642</lat>
<lon>-83.8965</lon>
<active>1</active>
</city>
<city>
<id>436943</id>
<name>Hillsdale</name>
<state>MI</state>
<rating>6</rating>
<url>http://www.greatschools.org/city/Hillsdale/MI</url>
<lat>41.9284</lat>
<lon>-84.6367</lon>
<active>1</active>
</city>
<city>
<id>436965</id>
<name>Holland</name>
<state>MI</state>
<rating>7</rating>
<url>http://www.greatschools.org/city/Holland/MI</url>
<lat>42.7681</lat>
<lon>-86.0986</lon>
<active>1</active>
</city>
<city>
<id>436985</id>
<name>Holly</name>
<state>MI</state>
<rating>7</rating>
<url>http://www.greatschools.org/city/Holly/MI</url>
<lat>42.7988</lat>
<lon>-83.623</lon>
<active>1</active>
</city>
<city>
<id>437071</id>
<name>Holt</name>
<state>MI</state>
<rating>5</rating>
<url>http://www.greatschools.org/city/Holt/MI</url>
<lat>42.6421</lat>
<lon>-84.5308</lon>
<active>1</active>
</city>
<city>
<id>437150</id>
<name>Holton</name>
<state>MI</state>
<rating>4</rating>
<url>http://www.greatschools.org/city/Holton/MI</url>
<lat>43.4428</lat>
<lon>-86.1115</lon>
<active>1</active>
</city>
<city>
<id>446486</id>
<name>Home</name>
<state>MI</state>
<rating/>
<url>http://www.greatschools.org/city/Home/MI</url>
<lat>43.7422</lat>
<lon>-85.6999</lon>
<active>1</active>
</city>
<city>
<id>437226</id>
<name>Homer</name>
<state>MI</state>
<rating>6</rating>
<url>http://www.greatschools.org/city/Homer/MI</url>
<lat>42.1464</lat>
<lon>-84.8097</lon>
<active>1</active>
</city>
<city>
<id>437542</id>
<name>Honor</name>
<state>MI</state>
<rating>7</rating>
<url>http://www.greatschools.org/city/Honor/MI</url>
<lat>44.6664</lat>
<lon>-86.0195</lon>
<active>1</active>
</city>
<city>
<id>437168</id>
<name>Hopkins</name>
<state>MI</state>
<rating>7</rating>
<url>http://www.greatschools.org/city/Hopkins/MI</url>
<lat>42.6251</lat>
<lon>-85.7633</lon>
<active>1</active>
</city>
<city>
<id>437460</id>
<name>Horton</name>
<state>MI</state>
<rating>6</rating>
<url>http://www.greatschools.org/city/Horton/MI</url>
<lat>42.1152</lat>
<lon>-84.4746</lon>
<active>1</active>
</city>
<city>
<id>437372</id>
<name>Houghton</name>
<state>MI</state>
<rating>8</rating>
<url>http://www.greatschools.org/city/Houghton/MI</url>
<lat>47.1102</lat>
<lon>-88.5688</lon>
<active>1</active>
</city>
<city>
<id>437452</id>
<name>Houghton Lake</name>
<state>MI</state>
<rating>4</rating>
<url>http://www.greatschools.org/city/Houghton_Lake/MI</url>
<lat>44.3108</lat>
<lon>-84.7623</lon>
<active>1</active>
</city>
<city>
<id>437342</id>
<name>Howard City</name>
<state>MI</state>
<rating>5</rating>
<url>http://www.greatschools.org/city/Howard_City/MI</url>
<lat>43.3948</lat>
<lon>-85.4679</lon>
<active>1</active>
</city>
<city>
<id>436935</id>
<name>Howell</name>
<state>MI</state>
<rating>8</rating>
<url>http://www.greatschools.org/city/Howell/MI</url>
<lat>42.6081</lat>
<lon>-83.9343</lon>
<active>1</active>
</city>
<city>
<id>437297</id>
<name>Hudson</name>
<state>MI</state>
<rating>5</rating>
<url>http://www.greatschools.org/city/Hudson/MI</url>
<lat>41.8565</lat>
<lon>-84.3457</lon>
<active>1</active>
</city>
<city>
<id>437004</id>
<name>Hudsonville</name>
<state>MI</state>
<rating>8</rating>
<url>http://www.greatschools.org/city/Hudsonville/MI</url>
<lat>42.8634</lat>
<lon>-85.8622</lon>
<active>1</active>
</city>
<city>
<id>437540</id>
<name>Huntington Woods</name>
<state>MI</state>
<rating>10</rating>
<url>http://www.greatschools.org/city/Huntington_Woods/MI</url>
<lat>42.4819</lat>
<lon>-83.1681</lon>
<active>1</active>
</city>
<city>
<id>446114</id>
<name>Huron Charter Township</name>
<state>MI</state>
<rating/>
<url>http://www.greatschools.org/city/Huron_Charter_Township/MI</url>
<lat>42.1671</lat>
<lon>-83.403</lon>
<active>1</active>
</city>
<city>
<id>444635</id>
<name>Huron Township</name>
<state>MI</state>
<rating>6</rating>
<url>http://www.greatschools.org/city/Huron_Township/MI</url>
<lat>42.1666</lat>
<lon>-83.3205</lon>
<active>1</active>
</city>
<city>
<id>437450</id>
<name>Ida</name>
<state>MI</state>
<rating>7</rating>
<url>http://www.greatschools.org/city/Ida/MI</url>
<lat>41.8837</lat>
<lon>-83.578</lon>
<active>1</active>
</city>
<city>
<id>437270</id>
<name>Imlay City</name>
<state>MI</state>
<rating>5</rating>
<url>http://www.greatschools.org/city/Imlay_City/MI</url>
<lat>43.0169</lat>
<lon>-83.0764</lon>
<active>1</active>
</city>
<city>
<id>437449</id>
<name>Indian River</name>
<state>MI</state>
<rating>5</rating>
<url>http://www.greatschools.org/city/Indian_River/MI</url>
<lat>45.4339</lat>
<lon>-84.6217</lon>
<active>1</active>
</city>
<city>
<id>437011</id>
<name>Inkster</name>
<state>MI</state>
<rating>3</rating>
<url>http://www.greatschools.org/city/Inkster/MI</url>
<lat>42.2941</lat>
<lon>-83.3199</lon>
<active>1</active>
</city>
<city>
<id>437049</id>
<name>Interlochen</name>
<state>MI</state>
<rating>5</rating>
<url>http://www.greatschools.org/city/Interlochen/MI</url>
<lat>44.6501</lat>
<lon>-85.7674</lon>
<active>1</active>
</city>
<city>
<id>437175</id>
<name>Ionia</name>
<state>MI</state>
<rating>5</rating>
<url>http://www.greatschools.org/city/Ionia/MI</url>
<lat>42.9768</lat>
<lon>-85.0746</lon>
<active>1</active>
</city>
<city>
<id>437558</id>
<name>Ira</name>
<state>MI</state>
<rating>8</rating>
<url>http://www.greatschools.org/city/Ira/MI</url>
<lat>42.6933</lat>
<lon>-82.7055</lon>
<active>1</active>
</city>
<city>
<id>437167</id>
<name>Iron Mountain</name>
<state>MI</state>
<rating>8</rating>
<url>http://www.greatschools.org/city/Iron_Mountain/MI</url>
<lat>45.8281</lat>
<lon>-88.0606</lon>
<active>1</active>
</city>
<city>
<id>437234</id>
<name>Iron River</name>
<state>MI</state>
<rating>6</rating>
<url>http://www.greatschools.org/city/Iron_River/MI</url>
<lat>46.096</lat>
<lon>-88.6367</lon>
<active>1</active>
</city>
<city>
<id>437292</id>
<name>Ironwood</name>
<state>MI</state>
<rating>6</rating>
<url>http://www.greatschools.org/city/Ironwood/MI</url>
<lat>46.4528</lat>
<lon>-90.1502</lon>
<active>1</active>
</city>
<city>
<id>437398</id>
<name>Ishpeming</name>
<state>MI</state>
<rating>7</rating>
<url>http://www.greatschools.org/city/Ishpeming/MI</url>
<lat>46.4703</lat>
<lon>-87.6723</lon>
<active>1</active>
</city>
<city>
<id>437247</id>
<name>Ithaca</name>
<state>MI</state>
<rating>7</rating>
<url>http://www.greatschools.org/city/Ithaca/MI</url>
<lat>43.2923</lat>
<lon>-84.5986</lon>
<active>1</active>
</city>
<city>
<id>436939</id>
<name>Jackson</name>
<state>MI</state>
<rating>5</rating>
<url>http://www.greatschools.org/city/Jackson/MI</url>
<lat>42.2435</lat>
<lon>-84.4023</lon>
<active>1</active>
</city>
<city>
<id>437185</id>
<name>Jenison</name>
<state>MI</state>
<rating>9</rating>
<url>http://www.greatschools.org/city/Jenison/MI</url>
<lat>42.9018</lat>
<lon>-85.8274</lon>
<active>1</active>
</city>
<city>
<id>437446</id>
<name>Johannesburg</name>
<state>MI</state>
<rating>6</rating>
<url>http://www.greatschools.org/city/Johannesburg/MI</url>
<lat>45.0111</lat>
<lon>-84.4221</lon>
<active>1</active>
</city>
<city>
<id>437136</id>
<name>Jonesville</name>
<state>MI</state>
<rating>6</rating>
<url>http://www.greatschools.org/city/Jonesville/MI</url>
<lat>41.978</lat>
<lon>-84.6673</lon>
<active>1</active>
</city>
<city>
<id>437041</id>
<name>Kalamazoo</name>
<state>MI</state>
<rating>5</rating>
<url>http://www.greatschools.org/city/Kalamazoo/MI</url>
<lat>42.2752</lat>
<lon>-85.5885</lon>
<active>1</active>
</city>
<city>
<id>445151</id>
<name>Kalamazoo Township</name>
<state>MI</state>
<rating/>
<url>http://www.greatschools.org/city/Kalamazoo_Township/MI</url>
<lat>42.2788</lat>
<lon>-85.5172</lon>
<active>1</active>
</city>
<city>
<id>437210</id>
<name>Kaleva</name>
<state>MI</state>
<rating/>
<url>http://www.greatschools.org/city/Kaleva/MI</url>
<lat>44.3723</lat>
<lon>-86.0135</lon>
<active>1</active>
</city>
<city>
<id>437442</id>
<name>Kalkaska</name>
<state>MI</state>
<rating>5</rating>
<url>http://www.greatschools.org/city/Kalkaska/MI</url>
<lat>44.7315</lat>
<lon>-85.1787</lon>
<active>1</active>
</city>
<city>
<id>437287</id>
<name>Kawkawlin</name>
<state>MI</state>
<rating/>
<url>http://www.greatschools.org/city/Kawkawlin/MI</url>
<lat>43.6888</lat>
<lon>-84.0068</lon>
<active>1</active>
</city>
<city>
<id>437331</id>
<name>Keego Harbor</name>
<state>MI</state>
<rating>9</rating>
<url>http://www.greatschools.org/city/Keego_Harbor/MI</url>
<lat>42.6083</lat>
<lon>-83.3457</lon>
<active>1</active>
</city>
<city>
<id>436999</id>
<name>Kent City</name>
<state>MI</state>
<rating>7</rating>
<url>http://www.greatschools.org/city/Kent_City/MI</url>
<lat>43.2237</lat>
<lon>-85.7561</lon>
<active>1</active>
</city>
<city>
<id>436960</id>
<name>Kentwood</name>
<state>MI</state>
<rating/>
<url>http://www.greatschools.org/city/Kentwood/MI</url>
<lat>42.8848</lat>
<lon>-85.5927</lon>
<active>1</active>
</city>
<city>
<id>443806</id>
<name>Kincheloe</name>
<state>MI</state>
<rating/>
<url>http://www.greatschools.org/city/Kincheloe/MI</url>
<lat>46.2635</lat>
<lon>-84.4664</lon>
<active>1</active>
</city>
<city>
<id>437396</id>
<name>Kinde</name>
<state>MI</state>
<rating>6</rating>
<url>http://www.greatschools.org/city/Kinde/MI</url>
<lat>43.9414</lat>
<lon>-82.9967</lon>
<active>1</active>
</city>
<city>
<id>437530</id>
<name>Kingsford</name>
<state>MI</state>
<rating>5</rating>
<url>http://www.greatschools.org/city/Kingsford/MI</url>
<lat>45.8064</lat>
<lon>-88.1004</lon>
<active>1</active>
</city>
<city>
<id>437308</id>
<name>Kingsley</name>
<state>MI</state>
<rating>8</rating>
<url>http://www.greatschools.org/city/Kingsley/MI</url>
<lat>44.5883</lat>
<lon>-85.533</lon>
<active>1</active>
</city>
<city>
<id>437440</id>
<name>Kingston</name>
<state>MI</state>
<rating>5</rating>
<url>http://www.greatschools.org/city/Kingston/MI</url>
<lat>43.4128</lat>
<lon>-83.1863</lon>
<active>1</active>
</city>
<city>
<id>446115</id>
<name>Kinross Charter Township</name>
<state>MI</state>
<rating/>
<url>http://www.greatschools.org/city/Kinross_Charter_Township/MI</url>
<lat>46.2593</lat>
<lon>-84.436</lon>
<active>1</active>
</city>
<city>
<id>445152</id>
<name>L' Anse</name>
<state>MI</state>
<rating/>
<url>http://www.greatschools.org/city/L'_Anse/MI</url>
<lat>46.7566</lat>
<lon>-88.4529</lon>
<active>1</active>
</city>
<city>
<id>437163</id>
<name>L'Anse</name>
<state>MI</state>
<rating/>
<url>http://www.greatschools.org/city/L'Anse/MI</url>
<lat>46.7529</lat>
<lon>-88.4481</lon>
<active>1</active>
</city>
<city>
<id>437193</id>
<name>La Salle</name>
<state>MI</state>
<rating/>
<url>http://www.greatschools.org/city/La_Salle/MI</url>
<lat>41.8498</lat>
<lon>-83.464</lon>
<active>1</active>
</city>
<city>
<id>437050</id>
<name>Laingsburg</name>
<state>MI</state>
<rating>7</rating>
<url>http://www.greatschools.org/city/Laingsburg/MI</url>
<lat>42.8906</lat>
<lon>-84.3504</lon>
<active>1</active>
</city>
<city>
<id>437439</id>
<name>Lake City</name>
<state>MI</state>
<rating>4</rating>
<url>http://www.greatschools.org/city/Lake_City/MI</url>
<lat>44.3297</lat>
<lon>-85.2085</lon>
<active>1</active>
</city>
<city>
<id>437195</id>
<name>Lake Leelanau</name>
<state>MI</state>
<rating>9</rating>
<url>http://www.greatschools.org/city/Lake_Leelanau/MI</url>
<lat>44.9807</lat>
<lon>-85.7164</lon>
<active>1</active>
</city>
<city>
<id>437438</id>
<name>Lake Linden</name>
<state>MI</state>
<rating>6</rating>
<url>http://www.greatschools.org/city/Lake_Linden/MI</url>
<lat>47.1954</lat>
<lon>-88.4058</lon>
<active>1</active>
</city>
<city>
<id>437021</id>
<name>Lake Odessa</name>
<state>MI</state>
<rating>7</rating>
<url>http://www.greatschools.org/city/Lake_Odessa/MI</url>
<lat>42.7829</lat>
<lon>-85.1376</lon>
<active>1</active>
</city>
<city>
<id>437039</id>
<name>Lake Orion</name>
<state>MI</state>
<rating>9</rating>
<url>http://www.greatschools.org/city/Lake_Orion/MI</url>
<lat>42.7885</lat>
<lon>-83.2518</lon>
<active>1</active>
</city>
<city>
<id>437107</id>
<name>Lakeland</name>
<state>MI</state>
<rating>5</rating>
<url>http://www.greatschools.org/city/Lakeland/MI</url>
<lat>42.4532</lat>
<lon>-83.8321</lon>
<active>1</active>
</city>
<city>
<id>437211</id>
<name>Lakeview</name>
<state>MI</state>
<rating>5</rating>
<url>http://www.greatschools.org/city/Lakeview/MI</url>
<lat>43.4406</lat>
<lon>-85.2713</lon>
<active>1</active>
</city>
<city>
<id>437159</id>
<name>Lambertville</name>
<state>MI</state>
<rating>8</rating>
<url>http://www.greatschools.org/city/Lambertville/MI</url>
<lat>41.7528</lat>
<lon>-83.6218</lon>
<active>1</active>
</city>
<city>
<id>441822</id>
<name>Lanse</name>
<state>MI</state>
<rating>4</rating>
<url>http://www.greatschools.org/city/Lanse/MI</url>
<lat>46.7582</lat>
<lon>-88.3796</lon>
<active>1</active>
</city>
<city>
<id>436984</id>
<name>Lansing</name>
<state>MI</state>
<rating>4</rating>
<url>http://www.greatschools.org/city/Lansing/MI</url>
<lat>42.7098</lat>
<lon>-84.5562</lon>
<active>1</active>
</city>
<city>
<id>446116</id>
<name>Lansing Charter Township</name>
<state>MI</state>
<rating/>
<url>http://www.greatschools.org/city/Lansing_Charter_Township/MI</url>
<lat>42.7266</lat>
<lon>-84.626</lon>
<active>1</active>
</city>
<city>
<id>437180</id>
<name>Lapeer</name>
<state>MI</state>
<rating>6</rating>
<url>http://www.greatschools.org/city/Lapeer/MI</url>
<lat>43.0451</lat>
<lon>-83.3273</lon>
<active>1</active>
</city>
<city>
<id>437087</id>
<name>Lathrup Village</name>
<state>MI</state>
<rating>4</rating>
<url>http://www.greatschools.org/city/Lathrup_Village/MI</url>
<lat>42.4921</lat>
<lon>-83.2274</lon>
<active>1</active>
</city>
<city>
<id>442536</id>
<name>Laurium</name>
<state>MI</state>
<rating/>
<url>http://www.greatschools.org/city/Laurium/MI</url>
<lat>47.2351</lat>
<lon>-88.4382</lon>
<active>1</active>
</city>
<city>
<id>437430</id>
<name>Lawrence</name>
<state>MI</state>
<rating>7</rating>
<url>http://www.greatschools.org/city/Lawrence/MI</url>
<lat>42.2149</lat>
<lon>-86.0574</lon>
<active>1</active>
</city>
<city>
<id>437429</id>
<name>Lawton</name>
<state>MI</state>
<rating>5</rating>
<url>http://www.greatschools.org/city/Lawton/MI</url>
<lat>42.1673</lat>
<lon>-85.8465</lon>
<active>1</active>
</city>
<city>
<id>442535</id>
<name>Le Roy</name>
<state>MI</state>
<rating/>
<url>http://www.greatschools.org/city/Le_Roy/MI</url>
<lat>44.0382</lat>
<lon>-85.4537</lon>
<active>1</active>
</city>
<city>
<id>437105</id>
<name>Leland</name>
<state>MI</state>
<rating>9</rating>
<url>http://www.greatschools.org/city/Leland/MI</url>
<lat>45.0214</lat>
<lon>-85.7571</lon>
<active>1</active>
</city>
<city>
<id>437125</id>
<name>Leonard</name>
<state>MI</state>
<rating>6</rating>
<url>http://www.greatschools.org/city/Leonard/MI</url>
<lat>42.8651</lat>
<lon>-83.1425</lon>
<active>1</active>
</city>
<city>
<id>437506</id>
<name>Leonidas</name>
<state>MI</state>
<rating/>
<url>http://www.greatschools.org/city/Leonidas/MI</url>
<lat>42.0259</lat>
<lon>-85.3511</lon>
<active>1</active>
</city>
<city>
<id>437134</id>
<name>Leroy</name>
<state>MI</state>
<rating>7</rating>
<url>http://www.greatschools.org/city/Leroy/MI</url>
<lat>44.0231</lat>
<lon>-85.4505</lon>
<active>1</active>
</city>
<city>
<id>437427</id>
<name>Leslie</name>
<state>MI</state>
<rating>6</rating>
<url>http://www.greatschools.org/city/Leslie/MI</url>
<lat>42.4503</lat>
<lon>-84.4326</lon>
<active>1</active>
</city>
<city>
<id>437447</id>
<name>Lewiston</name>
<state>MI</state>
<rating>8</rating>
<url>http://www.greatschools.org/city/Lewiston/MI</url>
<lat>44.8725</lat>
<lon>-84.3302</lon>
<active>1</active>
</city>
<city>
<id>437499</id>
<name>Lexington</name>
<state>MI</state>
<rating>9</rating>
<url>http://www.greatschools.org/city/Lexington/MI</url>
<lat>43.2673</lat>
<lon>-82.537</lon>
<active>1</active>
</city>
<city>
<id>437170</id>
<name>Lincoln</name>
<state>MI</state>
<rating>5</rating>
<url>http://www.greatschools.org/city/Lincoln/MI</url>
<lat>44.6844</lat>
<lon>-83.4126</lon>
<active>1</active>
</city>
<city>
<id>437070</id>
<name>Lincoln Park</name>
<state>MI</state>
<rating>4</rating>
<url>http://www.greatschools.org/city/Lincoln_Park/MI</url>
<lat>42.2433</lat>
<lon>-83.1813</lon>
<active>1</active>
</city>
<city>
<id>437055</id>
<name>Linden</name>
<state>MI</state>
<rating>7</rating>
<url>http://www.greatschools.org/city/Linden/MI</url>
<lat>42.8192</lat>
<lon>-83.7812</lon>
<active>1</active>
</city>
<city>
<id>437290</id>
<name>Linwood</name>
<state>MI</state>
<rating>7</rating>
<url>http://www.greatschools.org/city/Linwood/MI</url>
<lat>43.752</lat>
<lon>-84.0493</lon>
<active>1</active>
</city>
<city>
<id>437042</id>
<name>Litchfield</name>
<state>MI</state>
<rating>2</rating>
<url>http://www.greatschools.org/city/Litchfield/MI</url>
<lat>42.0409</lat>
<lon>-84.755</lon>
<active>1</active>
</city>
<city>
<id>436959</id>
<name>Livonia</name>
<state>MI</state>
<rating>7</rating>
<url>http://www.greatschools.org/city/Livonia/MI</url>
<lat>42.3972</lat>
<lon>-83.3723</lon>
<active>1</active>
</city>
<city>
<id>437054</id>
<name>Lowell</name>
<state>MI</state>
<rating>8</rating>
<url>http://www.greatschools.org/city/Lowell/MI</url>
<lat>42.9346</lat>
<lon>-85.3462</lon>
<active>1</active>
</city>
<city>
<id>437177</id>
<name>Ludington</name>
<state>MI</state>
<rating>5</rating>
<url>http://www.greatschools.org/city/Ludington/MI</url>
<lat>43.9572</lat>
<lon>-86.4429</lon>
<active>1</active>
</city>
<city>
<id>441852</id>
<name>Lupton</name>
<state>MI</state>
<rating/>
<url>http://www.greatschools.org/city/Lupton/MI</url>
<lat>44.4292</lat>
<lon>-84.0239</lon>
<active>1</active>
</city>
<city>
<id>437374</id>
<name>Luther</name>
<state>MI</state>
<rating/>
<url>http://www.greatschools.org/city/Luther/MI</url>
<lat>44.0388</lat>
<lon>-85.683</lon>
<active>1</active>
</city>
<city>
<id>446117</id>
<name>Lyon Township</name>
<state>MI</state>
<rating/>
<url>http://www.greatschools.org/city/Lyon_Township/MI</url>
<lat>42.4935</lat>
<lon>-83.615</lon>
<active>1</active>
</city>
<city>
<id>437423</id>
<name>Mackinac Island</name>
<state>MI</state>
<rating/>
<url>http://www.greatschools.org/city/Mackinac_Island/MI</url>
<lat>45.8562</lat>
<lon>-84.6214</lon>
<active>1</active>
</city>
<city>
<id>437422</id>
<name>Mackinaw City</name>
<state>MI</state>
<rating>7</rating>
<url>http://www.greatschools.org/city/Mackinaw_City/MI</url>
<lat>45.7838</lat>
<lon>-84.7554</lon>
<active>1</active>
</city>
<city>
<id>436962</id>
<name>Macomb</name>
<state>MI</state>
<rating>8</rating>
<url>http://www.greatschools.org/city/Macomb/MI</url>
<lat>42.6502</lat>
<lon>-82.9258</lon>
<active>1</active>
</city>
<city>
<id>436938</id>
<name>Madison Heights</name>
<state>MI</state>
<rating>5</rating>
<url>http://www.greatschools.org/city/Madison_Heights/MI</url>
<lat>42.5073</lat>
<lon>-83.1034</lon>
<active>1</active>
</city>
<city>
<id>437205</id>
<name>Mancelona</name>
<state>MI</state>
<rating>5</rating>
<url>http://www.greatschools.org/city/Mancelona/MI</url>
<lat>44.9024</lat>
<lon>-85.0613</lon>
<active>1</active>
</city>
<city>
<id>437421</id>
<name>Manchester</name>
<state>MI</state>
<rating>6</rating>
<url>http://www.greatschools.org/city/Manchester/MI</url>
<lat>42.1483</lat>
<lon>-84.0346</lon>
<active>1</active>
</city>
<city>
<id>437285</id>
<name>Manistee</name>
<state>MI</state>
<rating>7</rating>
<url>http://www.greatschools.org/city/Manistee/MI</url>
<lat>44.2456</lat>
<lon>-86.3273</lon>
<active>1</active>
</city>
<city>
<id>437023</id>
<name>Manistique</name>
<state>MI</state>
<rating>4</rating>
<url>http://www.greatschools.org/city/Manistique/MI</url>
<lat>45.9576</lat>
<lon>-86.2494</lon>
<active>1</active>
</city>
<city>
<id>437420</id>
<name>Manton</name>
<state>MI</state>
<rating>6</rating>
<url>http://www.greatschools.org/city/Manton/MI</url>
<lat>44.4113</lat>
<lon>-85.4005</lon>
<active>1</active>
</city>
<city>
<id>437467</id>
<name>Maple City</name>
<state>MI</state>
<rating>8</rating>
<url>http://www.greatschools.org/city/Maple_City/MI</url>
<lat>44.8556</lat>
<lon>-85.8573</lon>
<active>1</active>
</city>
<city>
<id>437047</id>
<name>Marcellus</name>
<state>MI</state>
<rating>5</rating>
<url>http://www.greatschools.org/city/Marcellus/MI</url>
<lat>42.0262</lat>
<lon>-85.8114</lon>
<active>1</active>
</city>
<city>
<id>446487</id>
<name>Marenisco</name>
<state>MI</state>
<rating/>
<url>http://www.greatschools.org/city/Marenisco/MI</url>
<lat>46.5915</lat>
<lon>-89.5724</lon>
<active>1</active>
</city>
<city>
<id>437316</id>
<name>Marine City</name>
<state>MI</state>
<rating>7</rating>
<url>http://www.greatschools.org/city/Marine_City/MI</url>
<lat>42.7143</lat>
<lon>-82.5034</lon>
<active>1</active>
</city>
<city>
<id>437419</id>
<name>Marion</name>
<state>MI</state>
<rating>5</rating>
<url>http://www.greatschools.org/city/Marion/MI</url>
<lat>44.0998</lat>
<lon>-85.1409</lon>
<active>1</active>
</city>
<city>
<id>436994</id>
<name>Marlette</name>
<state>MI</state>
<rating>6</rating>
<url>http://www.greatschools.org/city/Marlette/MI</url>
<lat>43.3273</lat>
<lon>-83.0805</lon>
<active>1</active>
</city>
<city>
<id>436988</id>
<name>Marquette</name>
<state>MI</state>
<rating>7</rating>
<url>http://www.greatschools.org/city/Marquette/MI</url>
<lat>46.5507</lat>
<lon>-87.3958</lon>
<active>1</active>
</city>
<city>
<id>437067</id>
<name>Marshall</name>
<state>MI</state>
<rating>7</rating>
<url>http://www.greatschools.org/city/Marshall/MI</url>
<lat>42.2621</lat>
<lon>-84.9584</lon>
<active>1</active>
</city>
<city>
<id>437176</id>
<name>Martin</name>
<state>MI</state>
<rating>4</rating>
<url>http://www.greatschools.org/city/Martin/MI</url>
<lat>42.537</lat>
<lon>-85.6389</lon>
<active>1</active>
</city>
<city>
<id>436980</id>
<name>Marysville</name>
<state>MI</state>
<rating>8</rating>
<url>http://www.greatschools.org/city/Marysville/MI</url>
<lat>42.9086</lat>
<lon>-82.4804</lon>
<active>1</active>
</city>
<city>
<id>437143</id>
<name>Mason</name>
<state>MI</state>
<rating>6</rating>
<url>http://www.greatschools.org/city/Mason/MI</url>
<lat>42.5807</lat>
<lon>-84.4423</lon>
<active>1</active>
</city>
<city>
<id>437417</id>
<name>Mattawan</name>
<state>MI</state>
<rating>9</rating>
<url>http://www.greatschools.org/city/Mattawan/MI</url>
<lat>42.2188</lat>
<lon>-85.7901</lon>
<active>1</active>
</city>
<city>
<id>437416</id>
<name>Mayville</name>
<state>MI</state>
<rating>4</rating>
<url>http://www.greatschools.org/city/Mayville/MI</url>
<lat>43.336</lat>
<lon>-83.3508</lon>
<active>1</active>
</city>
<city>
<id>437214</id>
<name>McBain</name>
<state>MI</state>
<rating/>
<url>http://www.greatschools.org/city/McBain/MI</url>
<lat>44.196</lat>
<lon>-85.2154</lon>
<active>1</active>
</city>
<city>
<id>445153</id>
<name>Mears</name>
<state>MI</state>
<rating/>
<url>http://www.greatschools.org/city/Mears/MI</url>
<lat>43.6819</lat>
<lon>-86.4128</lon>
<active>1</active>
</city>
<city>
<id>437512</id>
<name>Mecosta</name>
<state>MI</state>
<rating>4</rating>
<url>http://www.greatschools.org/city/Mecosta/MI</url>
<lat>43.618</lat>
<lon>-85.2299</lon>
<active>1</active>
</city>
<city>
<id>437017</id>
<name>Melvindale</name>
<state>MI</state>
<rating>3</rating>
<url>http://www.greatschools.org/city/Melvindale/MI</url>
<lat>42.2785</lat>
<lon>-83.1826</lon>
<active>1</active>
</city>
<city>
<id>437415</id>
<name>Memphis</name>
<state>MI</state>
<rating>5</rating>
<url>http://www.greatschools.org/city/Memphis/MI</url>
<lat>42.8952</lat>
<lon>-82.7687</lon>
<active>1</active>
</city>
<city>
<id>437414</id>
<name>Mendon</name>
<state>MI</state>
<rating>5</rating>
<url>http://www.greatschools.org/city/Mendon/MI</url>
<lat>42.0085</lat>
<lon>-85.454</lon>
<active>1</active>
</city>
<city>
<id>436997</id>
<name>Menominee</name>
<state>MI</state>
<rating>5</rating>
<url>http://www.greatschools.org/city/Menominee/MI</url>
<lat>45.1221</lat>
<lon>-87.6236</lon>
<active>1</active>
</city>
<city>
<id>445154</id>
<name>Meridian Charter Township</name>
<state>MI</state>
<rating/>
<url>http://www.greatschools.org/city/Meridian_Charter_Township/MI</url>
<lat>42.747</lat>
<lon>-84.4011</lon>
<active>1</active>
</city>
<city>
<id>437412</id>
<name>Merrill</name>
<state>MI</state>
<rating>5</rating>
<url>http://www.greatschools.org/city/Merrill/MI</url>
<lat>43.4091</lat>
<lon>-84.3346</lon>
<active>1</active>
</city>
<city>
<id>442534</id>
<name>Merritt</name>
<state>MI</state>
<rating/>
<url>http://www.greatschools.org/city/Merritt/MI</url>
<lat>44.3485</lat>
<lon>-84.9221</lon>
<active>1</active>
</city>
<city>
<id>437411</id>
<name>Mesick</name>
<state>MI</state>
<rating>6</rating>
<url>http://www.greatschools.org/city/Mesick/MI</url>
<lat>44.4032</lat>
<lon>-85.7186</lon>
<active>1</active>
</city>
<city>
<id>437431</id>
<name>Metamora</name>
<state>MI</state>
<rating>6</rating>
<url>http://www.greatschools.org/city/Metamora/MI</url>
<lat>42.9454</lat>
<lon>-83.293</lon>
<active>1</active>
</city>
<city>
<id>437296</id>
<name>Michigan Center</name>
<state>MI</state>
<rating>5</rating>
<url>http://www.greatschools.org/city/Michigan_Center/MI</url>
<lat>42.226</lat>
<lon>-84.3236</lon>
<active>1</active>
</city>
<city>
<id>445155</id>
<name>Michigan Ctr</name>
<state>MI</state>
<rating/>
<url>http://www.greatschools.org/city/Michigan_Ctr/MI</url>
<lat>42.2293</lat>
<lon>-84.3279</lon>
<active>1</active>
</city>
<city>
<id>437476</id>
<name>Middleton</name>
<state>MI</state>
<rating>4</rating>
<url>http://www.greatschools.org/city/Middleton/MI</url>
<lat>43.1962</lat>
<lon>-84.7336</lon>
<active>1</active>
</city>
<city>
<id>437345</id>
<name>Middleville</name>
<state>MI</state>
<rating>7</rating>
<url>http://www.greatschools.org/city/Middleville/MI</url>
<lat>42.716</lat>
<lon>-85.4687</lon>
<active>1</active>
</city>
<city>
<id>436966</id>
<name>Midland</name>
<state>MI</state>
<rating>8</rating>
<url>http://www.greatschools.org/city/Midland/MI</url>
<lat>43.6248</lat>
<lon>-84.232</lon>
<active>1</active>
</city>
<city>
<id>437066</id>
<name>Milan</name>
<state>MI</state>
<rating>6</rating>
<url>http://www.greatschools.org/city/Milan/MI</url>
<lat>42.0808</lat>
<lon>-83.6823</lon>
<active>1</active>
</city>
<city>
<id>436972</id>
<name>Milford</name>
<state>MI</state>
<rating>7</rating>
<url>http://www.greatschools.org/city/Milford/MI</url>
<lat>42.5883</lat>
<lon>-83.6017</lon>
<active>1</active>
</city>
<city>
<id>446118</id>
<name>Milford Township</name>
<state>MI</state>
<rating/>
<url>http://www.greatschools.org/city/Milford_Township/MI</url>
<lat>42.5868</lat>
<lon>-83.5862</lon>
<active>1</active>
</city>
<city>
<id>437279</id>
<name>Millington</name>
<state>MI</state>
<rating>6</rating>
<url>http://www.greatschools.org/city/Millington/MI</url>
<lat>43.2761</lat>
<lon>-83.5264</lon>
<active>1</active>
</city>
<city>
<id>437032</id>
<name>Mio</name>
<state>MI</state>
<rating>4</rating>
<url>http://www.greatschools.org/city/Mio/MI</url>
<lat>44.6623</lat>
<lon>-84.146</lon>
<active>1</active>
</city>
<city>
<id>437267</id>
<name>Moline</name>
<state>MI</state>
<rating/>
<url>http://www.greatschools.org/city/Moline/MI</url>
<lat>42.7404</lat>
<lon>-85.6656</lon>
<active>1</active>
</city>
<city>
<id>436978</id>
<name>Monroe</name>
<state>MI</state>
<rating>6</rating>
<url>http://www.greatschools.org/city/Monroe/MI</url>
<lat>41.9167</lat>
<lon>-83.3849</lon>
<active>1</active>
</city>
<city>
<id>437306</id>
<name>Montague</name>
<state>MI</state>
<rating>6</rating>
<url>http://www.greatschools.org/city/Montague/MI</url>
<lat>43.4133</lat>
<lon>-86.3643</lon>
<active>1</active>
</city>
<city>
<id>437235</id>
<name>Montgomery</name>
<state>MI</state>
<rating/>
<url>http://www.greatschools.org/city/Montgomery/MI</url>
<lat>41.776</lat>
<lon>-84.809</lon>
<active>1</active>
</city>
<city>
<id>436991</id>
<name>Montrose</name>
<state>MI</state>
<rating>4</rating>
<url>http://www.greatschools.org/city/Montrose/MI</url>
<lat>43.1763</lat>
<lon>-83.8932</lon>
<active>1</active>
</city>
<city>
<id>437126</id>
<name>Morenci</name>
<state>MI</state>
<rating>4</rating>
<url>http://www.greatschools.org/city/Morenci/MI</url>
<lat>41.7227</lat>
<lon>-84.2168</lon>
<active>1</active>
</city>
<city>
<id>437245</id>
<name>Morley</name>
<state>MI</state>
<rating>4</rating>
<url>http://www.greatschools.org/city/Morley/MI</url>
<lat>43.4904</lat>
<lon>-85.4455</lon>
<active>1</active>
</city>
<city>
<id>437406</id>
<name>Morrice</name>
<state>MI</state>
<rating>4</rating>
<url>http://www.greatschools.org/city/Morrice/MI</url>
<lat>42.836</lat>
<lon>-84.1842</lon>
<active>1</active>
</city>
<city>
<id>436987</id>
<name>Mount Clemens</name>
<state>MI</state>
<rating>5</rating>
<url>http://www.greatschools.org/city/Mount_Clemens/MI</url>
<lat>42.5981</lat>
<lon>-82.8815</lon>
<active>1</active>
</city>
<city>
<id>437295</id>
<name>Mount Morris</name>
<state>MI</state>
<rating>3</rating>
<url>http://www.greatschools.org/city/Mount_Morris/MI</url>
<lat>43.1173</lat>
<lon>-83.6989</lon>
<active>1</active>
</city>
<city>
<id>437103</id>
<name>Mount Pleasant</name>
<state>MI</state>
<rating>6</rating>
<url>http://www.greatschools.org/city/Mount_Pleasant/MI</url>
<lat>43.5967</lat>
<lon>-84.776</lon>
<active>1</active>
</city>
<city>
<id>445156</id>
<name>Mt Pleasant</name>
<state>MI</state>
<rating/>
<url>http://www.greatschools.org/city/Mt_Pleasant/MI</url>
<lat>43.5908</lat>
<lon>-84.7789</lon>
<active>1</active>
</city>
<city>
<id>437448</id>
<name>Muir</name>
<state>MI</state>
<rating>5</rating>
<url>http://www.greatschools.org/city/Muir/MI</url>
<lat>42.9975</lat>
<lon>-84.9351</lon>
<active>1</active>
</city>
<city>
<id>442533</id>
<name>Munger</name>
<state>MI</state>
<rating/>
<url>http://www.greatschools.org/city/Munger/MI</url>
<lat>43.526</lat>
<lon>-83.7585</lon>
<active>1</active>
</city>
<city>
<id>437253</id>
<name>Munising</name>
<state>MI</state>
<rating>5</rating>
<url>http://www.greatschools.org/city/Munising/MI</url>
<lat>46.4312</lat>
<lon>-86.62</lon>
<active>1</active>
</city>
<city>
<id>436936</id>
<name>Muskegon</name>
<state>MI</state>
<rating>5</rating>
<url>http://www.greatschools.org/city/Muskegon/MI</url>
<lat>43.2282</lat>
<lon>-86.2554</lon>
<active>1</active>
</city>
<city>
<id>437405</id>
<name>Muskegon Heights</name>
<state>MI</state>
<rating/>
<url>http://www.greatschools.org/city/Muskegon_Heights/MI</url>
<lat>43.2019</lat>
<lon>-86.241</lon>
<active>1</active>
</city>
<city>
<id>437404</id>
<name>Napoleon</name>
<state>MI</state>
<rating>8</rating>
<url>http://www.greatschools.org/city/Napoleon/MI</url>
<lat>42.1647</lat>
<lon>-84.2424</lon>
<active>1</active>
</city>
<city>
<id>437068</id>
<name>Nashville</name>
<state>MI</state>
<rating>5</rating>
<url>http://www.greatschools.org/city/Nashville/MI</url>
<lat>42.603</lat>
<lon>-85.0939</lon>
<active>1</active>
</city>
<city>
<id>437403</id>
<name>Negaunee</name>
<state>MI</state>
<rating>7</rating>
<url>http://www.greatschools.org/city/Negaunee/MI</url>
<lat>46.4965</lat>
<lon>-87.5914</lon>
<active>1</active>
</city>
<city>
<id>437078</id>
<name>New Baltimore</name>
<state>MI</state>
<rating>7</rating>
<url>http://www.greatschools.org/city/New_Baltimore/MI</url>
<lat>42.6855</lat>
<lon>-82.7376</lon>
<active>1</active>
</city>
<city>
<id>437283</id>
<name>New Boston</name>
<state>MI</state>
<rating>7</rating>
<url>http://www.greatschools.org/city/New_Boston/MI</url>
<lat>42.1334</lat>
<lon>-83.3874</lon>
<active>1</active>
</city>
<city>
<id>437299</id>
<name>New Buffalo</name>
<state>MI</state>
<rating>7</rating>
<url>http://www.greatschools.org/city/New_Buffalo/MI</url>
<lat>41.7926</lat>
<lon>-86.7418</lon>
<active>1</active>
</city>
<city>
<id>437266</id>
<name>New Era</name>
<state>MI</state>
<rating>3</rating>
<url>http://www.greatschools.org/city/New_Era/MI</url>
<lat>43.5596</lat>
<lon>-86.3472</lon>
<active>1</active>
</city>
<city>
<id>436990</id>
<name>New Haven</name>
<state>MI</state>
<rating>4</rating>
<url>http://www.greatschools.org/city/New_Haven/MI</url>
<lat>42.7298</lat>
<lon>-82.797</lon>
<active>1</active>
</city>
<city>
<id>437356</id>
<name>New Hudson</name>
<state>MI</state>
<rating>7</rating>
<url>http://www.greatschools.org/city/New_Hudson/MI</url>
<lat>42.4982</lat>
<lon>-83.6181</lon>
<active>1</active>
</city>
<city>
<id>437401</id>
<name>New Lothrop</name>
<state>MI</state>
<rating>7</rating>
<url>http://www.greatschools.org/city/New_Lothrop/MI</url>
<lat>43.1162</lat>
<lon>-83.969</lon>
<active>1</active>
</city>
<city>
<id>437178</id>
<name>Newaygo</name>
<state>MI</state>
<rating>6</rating>
<url>http://www.greatschools.org/city/Newaygo/MI</url>
<lat>43.4164</lat>
<lon>-85.8025</lon>
<active>1</active>
</city>
<city>
<id>437399</id>
<name>Newberry</name>
<state>MI</state>
<rating>6</rating>
<url>http://www.greatschools.org/city/Newberry/MI</url>
<lat>46.3538</lat>
<lon>-85.5098</lon>
<active>1</active>
</city>
<city>
<id>437122</id>
<name>Newport</name>
<state>MI</state>
<rating>5</rating>
<url>http://www.greatschools.org/city/Newport/MI</url>
<lat>41.9841</lat>
<lon>-83.2953</lon>
<active>1</active>
</city>
<city>
<id>437065</id>
<name>Niles</name>
<state>MI</state>
<rating>5</rating>
<url>http://www.greatschools.org/city/Niles/MI</url>
<lat>41.8345</lat>
<lon>-86.2478</lon>
<active>1</active>
</city>
<city>
<id>437397</id>
<name>North Adams</name>
<state>MI</state>
<rating>5</rating>
<url>http://www.greatschools.org/city/North_Adams/MI</url>
<lat>41.9708</lat>
<lon>-84.5253</lon>
<active>1</active>
</city>
<city>
<id>437261</id>
<name>North Branch</name>
<state>MI</state>
<rating>6</rating>
<url>http://www.greatschools.org/city/North_Branch/MI</url>
<lat>43.2291</lat>
<lon>-83.1908</lon>
<active>1</active>
</city>
<city>
<id>437395</id>
<name>North Muskegon</name>
<state>MI</state>
<rating/>
<url>http://www.greatschools.org/city/North_Muskegon/MI</url>
<lat>43.2522</lat>
<lon>-86.2708</lon>
<active>1</active>
</city>
<city>
<id>437394</id>
<name>Northport</name>
<state>MI</state>
<rating>7</rating>
<url>http://www.greatschools.org/city/Northport/MI</url>
<lat>45.1303</lat>
<lon>-85.6177</lon>
<active>1</active>
</city>
<city>
<id>437064</id>
<name>Northville</name>
<state>MI</state>
<rating>9</rating>
<url>http://www.greatschools.org/city/Northville/MI</url>
<lat>42.4361</lat>
<lon>-83.4884</lon>
<active>1</active>
</city>
<city>
<id>437409</id>
<name>Norton Shores</name>
<state>MI</state>
<rating/>
<url>http://www.greatschools.org/city/Norton_Shores/MI</url>
<lat>43.1695</lat>
<lon>-86.2354</lon>
<active>1</active>
</city>
<city>
<id>436963</id>
<name>Norway</name>
<state>MI</state>
<rating>6</rating>
<url>http://www.greatschools.org/city/Norway/MI</url>
<lat>45.8058</lat>
<lon>-87.9166</lon>
<active>1</active>
</city>
<city>
<id>437109</id>
<name>Novi</name>
<state>MI</state>
<rating>9</rating>
<url>http://www.greatschools.org/city/Novi/MI</url>
<lat>42.4785</lat>
<lon>-83.4868</lon>
<active>1</active>
</city>
<city>
<id>437046</id>
<name>Oak Park</name>
<state>MI</state>
<rating>5</rating>
<url>http://www.greatschools.org/city/Oak_Park/MI</url>
<lat>42.465</lat>
<lon>-83.1823</lon>
<active>1</active>
</city>
<city>
<id>437084</id>
<name>Oakland</name>
<state>MI</state>
<rating>8</rating>
<url>http://www.greatschools.org/city/Oakland/MI</url>
<lat>42.769</lat>
<lon>-83.1573</lon>
<active>1</active>
</city>
<city>
<id>446488</id>
<name>Oakland Charter Township</name>
<state>MI</state>
<rating/>
<url>http://www.greatschools.org/city/Oakland_Charter_Township/MI</url>
<lat>42.7416</lat>
<lon>-83.1985</lon>
<active>1</active>
</city>
<city>
<id>437241</id>
<name>Oakley</name>
<state>MI</state>
<rating/>
