<?xml version="1.0" encoding="utf-8"?><greatschools-city-feed xmlns:xsi="http://www.w3.org/2001/XMLSchema-instance" xsi:noNamespaceSchemaLocation="http://www.greatschools.org/feeds/greatschools-city2.xsd">
<city>
<id>435197</id>
<name>Adrian</name>
<state>MO</state>
<rating>7</rating>
<url>http://www.greatschools.org/city/Adrian/MO</url>
<lat>38.3976</lat>
<lon>-94.3512</lon>
<active>1</active>
</city>
<city>
<id>435196</id>
<name>Advance</name>
<state>MO</state>
<rating>6</rating>
<url>http://www.greatschools.org/city/Advance/MO</url>
<lat>37.1041</lat>
<lon>-89.9146</lon>
<active>1</active>
</city>
<city>
<id>442640</id>
<name>Alba</name>
<state>MO</state>
<rating/>
<url>http://www.greatschools.org/city/Alba/MO</url>
<lat>37.2374</lat>
<lon>-94.4175</lon>
<active>1</active>
</city>
<city>
<id>435195</id>
<name>Albany</name>
<state>MO</state>
<rating>5</rating>
<url>http://www.greatschools.org/city/Albany/MO</url>
<lat>40.2481</lat>
<lon>-94.3293</lon>
<active>1</active>
</city>
<city>
<id>434791</id>
<name>Alma</name>
<state>MO</state>
<rating>7</rating>
<url>http://www.greatschools.org/city/Alma/MO</url>
<lat>39.0959</lat>
<lon>-93.5478</lon>
<active>1</active>
</city>
<city>
<id>435194</id>
<name>Altenburg</name>
<state>MO</state>
<rating>8</rating>
<url>http://www.greatschools.org/city/Altenburg/MO</url>
<lat>37.6305</lat>
<lon>-89.5851</lon>
<active>1</active>
</city>
<city>
<id>435193</id>
<name>Alton</name>
<state>MO</state>
<rating>4</rating>
<url>http://www.greatschools.org/city/Alton/MO</url>
<lat>36.694</lat>
<lon>-91.4012</lon>
<active>1</active>
</city>
<city>
<id>434929</id>
<name>Amazonia</name>
<state>MO</state>
<rating>4</rating>
<url>http://www.greatschools.org/city/Amazonia/MO</url>
<lat>39.8894</lat>
<lon>-94.8927</lon>
<active>1</active>
</city>
<city>
<id>444481</id>
<name>Amsterdam</name>
<state>MO</state>
<rating>4</rating>
<url>http://www.greatschools.org/city/Amsterdam/MO</url>
<lat>38.3495</lat>
<lon>-94.5891</lon>
<active>1</active>
</city>
<city>
<id>434622</id>
<name>Anderson</name>
<state>MO</state>
<rating>6</rating>
<url>http://www.greatschools.org/city/Anderson/MO</url>
<lat>36.6504</lat>
<lon>-94.4454</lon>
<active>1</active>
</city>
<city>
<id>434910</id>
<name>Annapolis</name>
<state>MO</state>
<rating>6</rating>
<url>http://www.greatschools.org/city/Annapolis/MO</url>
<lat>37.3611</lat>
<lon>-90.6969</lon>
<active>1</active>
</city>
<city>
<id>435082</id>
<name>Appleton City</name>
<state>MO</state>
<rating>4</rating>
<url>http://www.greatschools.org/city/Appleton_City/MO</url>
<lat>38.1899</lat>
<lon>-94.0285</lon>
<active>1</active>
</city>
<city>
<id>445185</id>
<name>Arbyrd</name>
<state>MO</state>
<rating/>
<url>http://www.greatschools.org/city/Arbyrd/MO</url>
<lat>36.0512</lat>
<lon>-90.2355</lon>
<active>1</active>
</city>
<city>
<id>435191</id>
<name>Archie</name>
<state>MO</state>
<rating>7</rating>
<url>http://www.greatschools.org/city/Archie/MO</url>
<lat>38.4835</lat>
<lon>-94.3537</lon>
<active>1</active>
</city>
<city>
<id>434676</id>
<name>Arnold</name>
<state>MO</state>
<rating>8</rating>
<url>http://www.greatschools.org/city/Arnold/MO</url>
<lat>38.4336</lat>
<lon>-90.376</lon>
<active>1</active>
</city>
<city>
<id>435189</id>
<name>Ash Grove</name>
<state>MO</state>
<rating>6</rating>
<url>http://www.greatschools.org/city/Ash_Grove/MO</url>
<lat>37.3166</lat>
<lon>-93.5825</lon>
<active>1</active>
</city>
<city>
<id>434718</id>
<name>Ashland</name>
<state>MO</state>
<rating>7</rating>
<url>http://www.greatschools.org/city/Ashland/MO</url>
<lat>38.7737</lat>
<lon>-92.2585</lon>
<active>1</active>
</city>
<city>
<id>435188</id>
<name>Atlanta</name>
<state>MO</state>
<rating>5</rating>
<url>http://www.greatschools.org/city/Atlanta/MO</url>
<lat>39.8983</lat>
<lon>-92.4803</lon>
<active>1</active>
</city>
<city>
<id>434862</id>
<name>Augusta</name>
<state>MO</state>
<rating>7</rating>
<url>http://www.greatschools.org/city/Augusta/MO</url>
<lat>38.5727</lat>
<lon>-90.8831</lon>
<active>1</active>
</city>
<city>
<id>434625</id>
<name>Aurora</name>
<state>MO</state>
<rating>5</rating>
<url>http://www.greatschools.org/city/Aurora/MO</url>
<lat>36.968</lat>
<lon>-93.7229</lon>
<active>1</active>
</city>
<city>
<id>434993</id>
<name>Auxvasse</name>
<state>MO</state>
<rating>7</rating>
<url>http://www.greatschools.org/city/Auxvasse/MO</url>
<lat>39.0163</lat>
<lon>-91.8964</lon>
<active>1</active>
</city>
<city>
<id>434753</id>
<name>Ava</name>
<state>MO</state>
<rating>6</rating>
<url>http://www.greatschools.org/city/Ava/MO</url>
<lat>36.9559</lat>
<lon>-92.6613</lon>
<active>1</active>
</city>
<city>
<id>435186</id>
<name>Avilla</name>
<state>MO</state>
<rating>6</rating>
<url>http://www.greatschools.org/city/Avilla/MO</url>
<lat>37.1945</lat>
<lon>-94.13</lon>
<active>1</active>
</city>
<city>
<id>442639</id>
<name>Baden</name>
<state>MO</state>
<rating/>
<url>http://www.greatschools.org/city/Baden/MO</url>
<lat>38.714</lat>
<lon>-90.2484</lon>
<active>1</active>
</city>
<city>
<id>435185</id>
<name>Bakersfield</name>
<state>MO</state>
<rating>7</rating>
<url>http://www.greatschools.org/city/Bakersfield/MO</url>
<lat>36.5243</lat>
<lon>-92.1455</lon>
<active>1</active>
</city>
<city>
<id>434690</id>
<name>Ballwin</name>
<state>MO</state>
<rating>9</rating>
<url>http://www.greatschools.org/city/Ballwin/MO</url>
<lat>38.5928</lat>
<lon>-90.5504</lon>
<active>1</active>
</city>
<city>
<id>434908</id>
<name>Barnard</name>
<state>MO</state>
<rating>8</rating>
<url>http://www.greatschools.org/city/Barnard/MO</url>
<lat>40.1758</lat>
<lon>-94.8231</lon>
<active>1</active>
</city>
<city>
<id>434847</id>
<name>Barnhart</name>
<state>MO</state>
<rating>9</rating>
<url>http://www.greatschools.org/city/Barnhart/MO</url>
<lat>38.3383</lat>
<lon>-90.4107</lon>
<active>1</active>
</city>
<city>
<id>434766</id>
<name>Bates City</name>
<state>MO</state>
<rating/>
<url>http://www.greatschools.org/city/Bates_City/MO</url>
<lat>39.0037</lat>
<lon>-94.0661</lon>
<active>1</active>
</city>
<city>
<id>434652</id>
<name>Battlefield</name>
<state>MO</state>
<rating>9</rating>
<url>http://www.greatschools.org/city/Battlefield/MO</url>
<lat>37.1178</lat>
<lon>-93.3682</lon>
<active>1</active>
</city>
<city>
<id>443625</id>
<name>Beaufort</name>
<state>MO</state>
<rating>5</rating>
<url>http://www.greatschools.org/city/Beaufort/MO</url>
<lat>38.4178</lat>
<lon>-91.1527</lon>
<active>1</active>
</city>
<city>
<id>434871</id>
<name>Belgrade</name>
<state>MO</state>
<rating/>
<url>http://www.greatschools.org/city/Belgrade/MO</url>
<lat>37.7911</lat>
<lon>-90.8612</lon>
<active>1</active>
</city>
<city>
<id>435184</id>
<name>Bell City</name>
<state>MO</state>
<rating>7</rating>
<url>http://www.greatschools.org/city/Bell_City/MO</url>
<lat>37.0225</lat>
<lon>-89.8192</lon>
<active>1</active>
</city>
<city>
<id>435202</id>
<name>Belle</name>
<state>MO</state>
<rating>5</rating>
<url>http://www.greatschools.org/city/Belle/MO</url>
<lat>38.2853</lat>
<lon>-91.7226</lon>
<active>1</active>
</city>
<city>
<id>435183</id>
<name>Belleview</name>
<state>MO</state>
<rating>6</rating>
<url>http://www.greatschools.org/city/Belleview/MO</url>
<lat>37.6798</lat>
<lon>-90.7966</lon>
<active>1</active>
</city>
<city>
<id>435015</id>
<name>Bellflower</name>
<state>MO</state>
<rating/>
<url>http://www.greatschools.org/city/Bellflower/MO</url>
<lat>39.0036</lat>
<lon>-91.3524</lon>
<active>1</active>
</city>
<city>
<id>434606</id>
<name>Belton</name>
<state>MO</state>
<rating>5</rating>
<url>http://www.greatschools.org/city/Belton/MO</url>
<lat>38.8191</lat>
<lon>-94.5285</lon>
<active>1</active>
</city>
<city>
<id>434803</id>
<name>Benton</name>
<state>MO</state>
<rating>5</rating>
<url>http://www.greatschools.org/city/Benton/MO</url>
<lat>37.0985</lat>
<lon>-89.5628</lon>
<active>1</active>
</city>
<city>
<id>435111</id>
<name>Berkeley</name>
<state>MO</state>
<rating>2</rating>
<url>http://www.greatschools.org/city/Berkeley/MO</url>
<lat>38.7468</lat>
<lon>-90.3317</lon>
<active>1</active>
</city>
<city>
<id>435182</id>
<name>Bernie</name>
<state>MO</state>
<rating>6</rating>
<url>http://www.greatschools.org/city/Bernie/MO</url>
<lat>36.6707</lat>
<lon>-89.9706</lon>
<active>1</active>
</city>
<city>
<id>435200</id>
<name>Bethany</name>
<state>MO</state>
<rating>5</rating>
<url>http://www.greatschools.org/city/Bethany/MO</url>
<lat>40.2657</lat>
<lon>-94.0332</lon>
<active>1</active>
</city>
<city>
<id>434741</id>
<name>Bethel</name>
<state>MO</state>
<rating/>
<url>http://www.greatschools.org/city/Bethel/MO</url>
<lat>39.8779</lat>
<lon>-92.0236</lon>
<active>1</active>
</city>
<city>
<id>435181</id>
<name>Bevier</name>
<state>MO</state>
<rating>6</rating>
<url>http://www.greatschools.org/city/Bevier/MO</url>
<lat>39.7491</lat>
<lon>-92.5641</lon>
<active>1</active>
</city>
<city>
<id>442638</id>
<name>Bigelow</name>
<state>MO</state>
<rating/>
<url>http://www.greatschools.org/city/Bigelow/MO</url>
<lat>40.1101</lat>
<lon>-95.2903</lon>
<active>1</active>
</city>
<city>
<id>435180</id>
<name>Billings</name>
<state>MO</state>
<rating>7</rating>
<url>http://www.greatschools.org/city/Billings/MO</url>
<lat>37.0642</lat>
<lon>-93.554</lon>
<active>1</active>
</city>
<city>
<id>435012</id>
<name>Birch Tree</name>
<state>MO</state>
<rating>3</rating>
<url>http://www.greatschools.org/city/Birch_Tree/MO</url>
<lat>36.9933</lat>
<lon>-91.4939</lon>
<active>1</active>
</city>
<city>
<id>435179</id>
<name>Bismarck</name>
<state>MO</state>
<rating>5</rating>
<url>http://www.greatschools.org/city/Bismarck/MO</url>
<lat>37.769</lat>
<lon>-90.6236</lon>
<active>1</active>
</city>
<city>
<id>435049</id>
<name>Black</name>
<state>MO</state>
<rating>1</rating>
<url>http://www.greatschools.org/city/Black/MO</url>
<lat>37.5537</lat>
<lon>-90.9905</lon>
<active>1</active>
</city>
<city>
<id>442637</id>
<name>Black Jack</name>
<state>MO</state>
<rating/>
<url>http://www.greatschools.org/city/Black_Jack/MO</url>
<lat>38.7955</lat>
<lon>-90.264</lon>
<active>1</active>
</city>
<city>
<id>435178</id>
<name>Blackwater</name>
<state>MO</state>
<rating>7</rating>
<url>http://www.greatschools.org/city/Blackwater/MO</url>
<lat>38.9796</lat>
<lon>-92.9928</lon>
<active>1</active>
</city>
<city>
<id>435201</id>
<name>Bland</name>
<state>MO</state>
<rating>4</rating>
<url>http://www.greatschools.org/city/Bland/MO</url>
<lat>38.3023</lat>
<lon>-91.6335</lon>
<active>1</active>
</city>
<city>
<id>435177</id>
<name>Bloomfield</name>
<state>MO</state>
<rating>6</rating>
<url>http://www.greatschools.org/city/Bloomfield/MO</url>
<lat>36.8871</lat>
<lon>-89.9315</lon>
<active>1</active>
</city>
<city>
<id>434839</id>
<name>Bloomsdale</name>
<state>MO</state>
<rating>7</rating>
<url>http://www.greatschools.org/city/Bloomsdale/MO</url>
<lat>38.0166</lat>
<lon>-90.2234</lon>
<active>1</active>
</city>
<city>
<id>435176</id>
<name>Blue Eye</name>
<state>MO</state>
<rating>6</rating>
<url>http://www.greatschools.org/city/Blue_Eye/MO</url>
<lat>36.5016</lat>
<lon>-93.3997</lon>
<active>1</active>
</city>
<city>
<id>434683</id>
<name>Blue Springs</name>
<state>MO</state>
<rating>8</rating>
<url>http://www.greatschools.org/city/Blue_Springs/MO</url>
<lat>39.0182</lat>
<lon>-94.2767</lon>
<active>1</active>
</city>
<city>
<id>435190</id>
<name>Bois D'Arc</name>
<state>MO</state>
<rating>8</rating>
<url>http://www.greatschools.org/city/Bois_D'Arc/MO</url>
<lat>37.2519</lat>
<lon>-93.5067</lon>
<active>1</active>
</city>
<city>
<id>434681</id>
<name>Bolivar</name>
<state>MO</state>
<rating>7</rating>
<url>http://www.greatschools.org/city/Bolivar/MO</url>
<lat>37.6091</lat>
<lon>-93.4141</lon>
<active>1</active>
</city>
<city>
<id>434775</id>
<name>Bonne Terre</name>
<state>MO</state>
<rating/>
<url>http://www.greatschools.org/city/Bonne_Terre/MO</url>
<lat>37.9215</lat>
<lon>-90.5523</lon>
<active>1</active>
</city>
<city>
<id>434811</id>
<name>Bonnots Mill</name>
<state>MO</state>
<rating/>
<url>http://www.greatschools.org/city/Bonnots_Mill/MO</url>
<lat>38.5509</lat>
<lon>-91.9374</lon>
<active>1</active>
</city>
<city>
<id>434812</id>
<name>Boonville</name>
<state>MO</state>
<rating>6</rating>
<url>http://www.greatschools.org/city/Boonville/MO</url>
<lat>38.9683</lat>
<lon>-92.74</lon>
<active>1</active>
</city>
<city>
<id>435174</id>
<name>Bosworth</name>
<state>MO</state>
<rating>3</rating>
<url>http://www.greatschools.org/city/Bosworth/MO</url>
<lat>39.4704</lat>
<lon>-93.3362</lon>
<active>1</active>
</city>
<city>
<id>434778</id>
<name>Bourbon</name>
<state>MO</state>
<rating>4</rating>
<url>http://www.greatschools.org/city/Bourbon/MO</url>
<lat>38.1506</lat>
<lon>-91.2488</lon>
<active>1</active>
</city>
<city>
<id>434813</id>
<name>Bowling Green</name>
<state>MO</state>
<rating>5</rating>
<url>http://www.greatschools.org/city/Bowling_Green/MO</url>
<lat>39.341</lat>
<lon>-91.2004</lon>
<active>1</active>
</city>
<city>
<id>435172</id>
<name>Bradleyville</name>
<state>MO</state>
<rating>4</rating>
<url>http://www.greatschools.org/city/Bradleyville/MO</url>
<lat>36.7613</lat>
<lon>-92.9092</lon>
<active>1</active>
</city>
<city>
<id>434662</id>
<name>Branson</name>
<state>MO</state>
<rating>7</rating>
<url>http://www.greatschools.org/city/Branson/MO</url>
<lat>36.639</lat>
<lon>-93.2463</lon>
<active>1</active>
</city>
<city>
<id>444520</id>
<name>Branson West</name>
<state>MO</state>
<rating/>
<url>http://www.greatschools.org/city/Branson_West/MO</url>
<lat>36.6886</lat>
<lon>-93.3931</lon>
<active>1</active>
</city>
<city>
<id>435170</id>
<name>Brashear</name>
<state>MO</state>
<rating>5</rating>
<url>http://www.greatschools.org/city/Brashear/MO</url>
<lat>40.1487</lat>
<lon>-92.378</lon>
<active>1</active>
</city>
<city>
<id>435169</id>
<name>Braymer</name>
<state>MO</state>
<rating>9</rating>
<url>http://www.greatschools.org/city/Braymer/MO</url>
<lat>39.591</lat>
<lon>-93.7964</lon>
<active>1</active>
</city>
<city>
<id>435168</id>
<name>Breckenridge</name>
<state>MO</state>
<rating/>
<url>http://www.greatschools.org/city/Breckenridge/MO</url>
<lat>39.7612</lat>
<lon>-93.8037</lon>
<active>1</active>
</city>
<city>
<id>434677</id>
<name>Brentwood</name>
<state>MO</state>
<rating>9</rating>
<url>http://www.greatschools.org/city/Brentwood/MO</url>
<lat>38.6207</lat>
<lon>-90.3503</lon>
<active>1</active>
</city>
<city>
<id>434762</id>
<name>Bridgeton</name>
<state>MO</state>
<rating>4</rating>
<url>http://www.greatschools.org/city/Bridgeton/MO</url>
<lat>38.7479</lat>
<lon>-90.4145</lon>
<active>1</active>
</city>
<city>
<id>434720</id>
<name>Brighton</name>
<state>MO</state>
<rating/>
<url>http://www.greatschools.org/city/Brighton/MO</url>
<lat>37.4662</lat>
<lon>-93.352</lon>
<active>1</active>
</city>
<city>
<id>435167</id>
<name>Bronaugh</name>
<state>MO</state>
<rating>3</rating>
<url>http://www.greatschools.org/city/Bronaugh/MO</url>
<lat>37.6932</lat>
<lon>-94.4671</lon>
<active>1</active>
</city>
<city>
<id>435166</id>
<name>Brookfield</name>
<state>MO</state>
<rating>6</rating>
<url>http://www.greatschools.org/city/Brookfield/MO</url>
<lat>39.7862</lat>
<lon>-93.0725</lon>
<active>1</active>
</city>
<city>
<id>434874</id>
<name>Broseley</name>
<state>MO</state>
<rating>2</rating>
<url>http://www.greatschools.org/city/Broseley/MO</url>
<lat>36.7043</lat>
<lon>-90.2415</lon>
<active>1</active>
</city>
<city>
<id>435164</id>
<name>Brunswick</name>
<state>MO</state>
<rating>4</rating>
<url>http://www.greatschools.org/city/Brunswick/MO</url>
<lat>39.4263</lat>
<lon>-93.1317</lon>
<active>1</active>
</city>
<city>
<id>435163</id>
<name>Bucklin</name>
<state>MO</state>
<rating>6</rating>
<url>http://www.greatschools.org/city/Bucklin/MO</url>
<lat>39.7827</lat>
<lon>-92.8881</lon>
<active>1</active>
</city>
<city>
<id>434704</id>
<name>Buckner</name>
<state>MO</state>
<rating>7</rating>
<url>http://www.greatschools.org/city/Buckner/MO</url>
<lat>39.1341</lat>
<lon>-94.1963</lon>
<active>1</active>
</city>
<city>
<id>435160</id>
<name>Buffalo</name>
<state>MO</state>
<rating>5</rating>
<url>http://www.greatschools.org/city/Buffalo/MO</url>
<lat>37.6442</lat>
<lon>-93.0968</lon>
<active>1</active>
</city>
<city>
<id>434794</id>
<name>Bunceton</name>
<state>MO</state>
<rating>3</rating>
<url>http://www.greatschools.org/city/Bunceton/MO</url>
<lat>38.7883</lat>
<lon>-92.7982</lon>
<active>1</active>
</city>
<city>
<id>435159</id>
<name>Bunker</name>
<state>MO</state>
<rating>4</rating>
<url>http://www.greatschools.org/city/Bunker/MO</url>
<lat>37.4554</lat>
<lon>-91.2107</lon>
<active>1</active>
</city>
<city>
<id>446142</id>
<name>Burlington Jct</name>
<state>MO</state>
<rating/>
<url>http://www.greatschools.org/city/Burlington_Jct/MO</url>
<lat>40.4416</lat>
<lon>-95.0479</lon>
<active>1</active>
</city>
<city>
<id>435158</id>
<name>Butler</name>
<state>MO</state>
<rating>4</rating>
<url>http://www.greatschools.org/city/Butler/MO</url>
<lat>38.2571</lat>
<lon>-94.3362</lon>
<active>1</active>
</city>
<city>
<id>435157</id>
<name>Cabool</name>
<state>MO</state>
<rating>5</rating>
<url>http://www.greatschools.org/city/Cabool/MO</url>
<lat>37.1273</lat>
<lon>-92.1053</lon>
<active>1</active>
</city>
<city>
<id>434831</id>
<name>Cadet</name>
<state>MO</state>
<rating>8</rating>
<url>http://www.greatschools.org/city/Cadet/MO</url>
<lat>38.0132</lat>
<lon>-90.7464</lon>
<active>1</active>
</city>
<city>
<id>435156</id>
<name>Cainsville</name>
<state>MO</state>
<rating>2</rating>
<url>http://www.greatschools.org/city/Cainsville/MO</url>
<lat>40.4404</lat>
<lon>-93.7736</lon>
<active>1</active>
</city>
<city>
<id>434987</id>
<name>Cairo</name>
<state>MO</state>
<rating>7</rating>
<url>http://www.greatschools.org/city/Cairo/MO</url>
<lat>39.5107</lat>
<lon>-92.4409</lon>
<active>1</active>
</city>
<city>
<id>434870</id>
<name>Caledonia</name>
<state>MO</state>
<rating>5</rating>
<url>http://www.greatschools.org/city/Caledonia/MO</url>
<lat>37.7645</lat>
<lon>-90.7719</lon>
<active>1</active>
</city>
<city>
<id>435155</id>
<name>Calhoun</name>
<state>MO</state>
<rating>2</rating>
<url>http://www.greatschools.org/city/Calhoun/MO</url>
<lat>38.4679</lat>
<lon>-93.6261</lon>
<active>1</active>
</city>
<city>
<id>434700</id>
<name>California</name>
<state>MO</state>
<rating>6</rating>
<url>http://www.greatschools.org/city/California/MO</url>
<lat>38.6298</lat>
<lon>-92.5697</lon>
<active>1</active>
</city>
<city>
<id>435154</id>
<name>Callao</name>
<state>MO</state>
<rating/>
<url>http://www.greatschools.org/city/Callao/MO</url>
<lat>39.7622</lat>
<lon>-92.6231</lon>
<active>1</active>
</city>
<city>
<id>434989</id>
<name>Camden Point</name>
<state>MO</state>
<rating>10</rating>
<url>http://www.greatschools.org/city/Camden_Point/MO</url>
<lat>39.4549</lat>
<lon>-94.7491</lon>
<active>1</active>
</city>
<city>
<id>434624</id>
<name>Camdenton</name>
<state>MO</state>
<rating>7</rating>
<url>http://www.greatschools.org/city/Camdenton/MO</url>
<lat>38.0065</lat>
<lon>-92.752</lon>
<active>1</active>
</city>
<city>
<id>435152</id>
<name>Cameron</name>
<state>MO</state>
<rating>7</rating>
<url>http://www.greatschools.org/city/Cameron/MO</url>
<lat>39.7487</lat>
<lon>-94.236</lon>
<active>1</active>
</city>
<city>
<id>434804</id>
<name>Campbell</name>
<state>MO</state>
<rating>6</rating>
<url>http://www.greatschools.org/city/Campbell/MO</url>
<lat>36.4929</lat>
<lon>-90.0749</lon>
<active>1</active>
</city>
<city>
<id>434742</id>
<name>Canton</name>
<state>MO</state>
<rating>5</rating>
<url>http://www.greatschools.org/city/Canton/MO</url>
<lat>40.1303</lat>
<lon>-91.5275</lon>
<active>1</active>
</city>
<city>
<id>434653</id>
<name>Cape Girardeau</name>
<state>MO</state>
<rating>5</rating>
<url>http://www.greatschools.org/city/Cape_Girardeau/MO</url>
<lat>37.3161</lat>
<lon>-89.5479</lon>
<active>1</active>
</city>
<city>
<id>434905</id>
<name>Cardwell</name>
<state>MO</state>
<rating>3</rating>
<url>http://www.greatschools.org/city/Cardwell/MO</url>
<lat>36.047</lat>
<lon>-90.2915</lon>
<active>1</active>
</city>
<city>
<id>434729</id>
<name>Carl Junction</name>
<state>MO</state>
<rating>7</rating>
<url>http://www.greatschools.org/city/Carl_Junction/MO</url>
<lat>37.1638</lat>
<lon>-94.5435</lon>
<active>1</active>
</city>
<city>
<id>435151</id>
<name>Carrollton</name>
<state>MO</state>
<rating>6</rating>
<url>http://www.greatschools.org/city/Carrollton/MO</url>
<lat>39.3642</lat>
<lon>-93.4962</lon>
<active>1</active>
</city>
<city>
<id>434857</id>
<name>Carterville</name>
<state>MO</state>
<rating>7</rating>
<url>http://www.greatschools.org/city/Carterville/MO</url>
<lat>37.1508</lat>
<lon>-94.4398</lon>
<active>1</active>
</city>
<city>
<id>434628</id>
<name>Carthage</name>
<state>MO</state>
<rating>5</rating>
<url>http://www.greatschools.org/city/Carthage/MO</url>
<lat>37.1667</lat>
<lon>-94.3123</lon>
<active>1</active>
</city>
<city>
<id>434962</id>
<name>Caruthersville</name>
<state>MO</state>
<rating>3</rating>
<url>http://www.greatschools.org/city/Caruthersville/MO</url>
<lat>36.1839</lat>
<lon>-89.662</lon>
<active>1</active>
</city>
<city>
<id>434737</id>
<name>Cassville</name>
<state>MO</state>
<rating>6</rating>
<url>http://www.greatschools.org/city/Cassville/MO</url>
<lat>36.6818</lat>
<lon>-93.8681</lon>
<active>1</active>
</city>
<city>
<id>434971</id>
<name>Catawissa</name>
<state>MO</state>
<rating>7</rating>
<url>http://www.greatschools.org/city/Catawissa/MO</url>
<lat>38.3916</lat>
<lon>-90.7482</lon>
<active>1</active>
</city>
<city>
<id>434985</id>
<name>Cedar Hill</name>
<state>MO</state>
<rating>6</rating>
<url>http://www.greatschools.org/city/Cedar_Hill/MO</url>
<lat>38.3574</lat>
<lon>-90.6394</lon>
<active>1</active>
</city>
<city>
<id>434949</id>
<name>Center</name>
<state>MO</state>
<rating>5</rating>
<url>http://www.greatschools.org/city/Center/MO</url>
<lat>39.5096</lat>
<lon>-91.5288</lon>
<active>1</active>
</city>
<city>
<id>435150</id>
<name>Centerview</name>
<state>MO</state>
<rating>6</rating>
<url>http://www.greatschools.org/city/Centerview/MO</url>
<lat>38.7456</lat>
<lon>-93.8452</lon>
<active>1</active>
</city>
<city>
<id>435149</id>
<name>Centerville</name>
<state>MO</state>
<rating>9</rating>
<url>http://www.greatschools.org/city/Centerville/MO</url>
<lat>37.4358</lat>
<lon>-90.9595</lon>
<active>1</active>
</city>
<city>
<id>434657</id>
<name>Centralia</name>
<state>MO</state>
<rating>7</rating>
<url>http://www.greatschools.org/city/Centralia/MO</url>
<lat>39.2082</lat>
<lon>-92.1369</lon>
<active>1</active>
</city>
<city>
<id>435148</id>
<name>Chadwick</name>
<state>MO</state>
<rating>7</rating>
<url>http://www.greatschools.org/city/Chadwick/MO</url>
<lat>36.9186</lat>
<lon>-93.0416</lon>
<active>1</active>
</city>
<city>
<id>434805</id>
<name>Chaffee</name>
<state>MO</state>
<rating>5</rating>
<url>http://www.greatschools.org/city/Chaffee/MO</url>
<lat>37.1788</lat>
<lon>-89.6603</lon>
<active>1</active>
</city>
<city>
<id>435147</id>
<name>Chamois</name>
<state>MO</state>
<rating>7</rating>
<url>http://www.greatschools.org/city/Chamois/MO</url>
<lat>38.6753</lat>
<lon>-91.7691</lon>
<active>1</active>
</city>
<city>
<id>434806</id>
<name>Charleston</name>
<state>MO</state>
<rating>3</rating>
<url>http://www.greatschools.org/city/Charleston/MO</url>
<lat>36.9209</lat>
<lon>-89.3487</lon>
<active>1</active>
</city>
<city>
<id>434696</id>
<name>Chesterfield</name>
<state>MO</state>
<rating>9</rating>
<url>http://www.greatschools.org/city/Chesterfield/MO</url>
<lat>38.6484</lat>
<lon>-90.5479</lon>
<active>1</active>
</city>
<city>
<id>446143</id>
<name>Chestnutridge</name>
<state>MO</state>
<rating/>
<url>http://www.greatschools.org/city/Chestnutridge/MO</url>
<lat>36.8592</lat>
<lon>-93.3024</lon>
<active>1</active>
</city>
<city>
<id>434919</id>
<name>Chilhowee</name>
<state>MO</state>
<rating>4</rating>
<url>http://www.greatschools.org/city/Chilhowee/MO</url>
<lat>38.5899</lat>
<lon>-93.8556</lon>
<active>1</active>
</city>
<city>
<id>434728</id>
<name>Chillicothe</name>
<state>MO</state>
<rating>6</rating>
<url>http://www.greatschools.org/city/Chillicothe/MO</url>
<lat>39.7966</lat>
<lon>-93.555</lon>
<active>1</active>
</city>
<city>
<id>435146</id>
<name>Chula</name>
<state>MO</state>
<rating>10</rating>
<url>http://www.greatschools.org/city/Chula/MO</url>
<lat>39.9217</lat>
<lon>-93.4784</lon>
<active>1</active>
</city>
<city>
<id>434918</id>
<name>Clarence</name>
<state>MO</state>
<rating>5</rating>
<url>http://www.greatschools.org/city/Clarence/MO</url>
<lat>39.7424</lat>
<lon>-92.2598</lon>
<active>1</active>
</city>
<city>
<id>435145</id>
<name>Clarksburg</name>
<state>MO</state>
<rating>7</rating>
<url>http://www.greatschools.org/city/Clarksburg/MO</url>
<lat>38.6609</lat>
<lon>-92.6669</lon>
<active>1</active>
</city>
<city>
<id>434959</id>
<name>Clarksville</name>
<state>MO</state>
<rating>5</rating>
<url>http://www.greatschools.org/city/Clarksville/MO</url>
<lat>39.3681</lat>
<lon>-90.905</lon>
<active>1</active>
</city>
<city>
<id>435144</id>
<name>Clarkton</name>
<state>MO</state>
<rating>4</rating>
<url>http://www.greatschools.org/city/Clarkton/MO</url>
<lat>36.452</lat>
<lon>-89.9653</lon>
<active>1</active>
</city>
<city>
<id>434680</id>
<name>Clayton</name>
<state>MO</state>
<rating>9</rating>
<url>http://www.greatschools.org/city/Clayton/MO</url>
<lat>38.6431</lat>
<lon>-90.3296</lon>
<active>1</active>
</city>
<city>
<id>434853</id>
<name>Cleveland</name>
<state>MO</state>
<rating>6</rating>
<url>http://www.greatschools.org/city/Cleveland/MO</url>
<lat>38.6767</lat>
<lon>-94.5967</lon>
<active>1</active>
</city>
<city>
<id>434736</id>
<name>Clever</name>
<state>MO</state>
<rating>4</rating>
<url>http://www.greatschools.org/city/Clever/MO</url>
<lat>37.03</lat>
<lon>-93.4705</lon>
<active>1</active>
</city>
<city>
<id>434851</id>
<name>Clifton Hill</name>
<state>MO</state>
<rating>5</rating>
<url>http://www.greatschools.org/city/Clifton_Hill/MO</url>
<lat>39.4393</lat>
<lon>-92.6666</lon>
<active>1</active>
</city>
<city>
<id>435143</id>
<name>Climax Springs</name>
<state>MO</state>
<rating>5</rating>
<url>http://www.greatschools.org/city/Climax_Springs/MO</url>
<lat>38.1029</lat>
<lon>-93.0504</lon>
<active>1</active>
</city>
<city>
<id>434810</id>
<name>Clinton</name>
<state>MO</state>
<rating>5</rating>
<url>http://www.greatschools.org/city/Clinton/MO</url>
<lat>38.3687</lat>
<lon>-93.7711</lon>
<active>1</active>
</city>
<city>
<id>434793</id>
<name>Cole Camp</name>
<state>MO</state>
<rating>7</rating>
<url>http://www.greatschools.org/city/Cole_Camp/MO</url>
<lat>38.4598</lat>
<lon>-93.2052</lon>
<active>1</active>
</city>
<city>
<id>445187</id>
<name>Collinsville</name>
<state>MO</state>
<rating/>
<url>http://www.greatschools.org/city/Collinsville/MO</url>
<lat>38.6799</lat>
<lon>-89.9827</lon>
<active>1</active>
</city>
<city>
<id>434660</id>
<name>Columbia</name>
<state>MO</state>
<rating>5</rating>
<url>http://www.greatschools.org/city/Columbia/MO</url>
<lat>38.9469</lat>
<lon>-92.3355</lon>
<active>1</active>
</city>
<city>
<id>446144</id>
<name>Conception Jct</name>
<state>MO</state>
<rating/>
<url>http://www.greatschools.org/city/Conception_Jct/MO</url>
<lat>40.2579</lat>
<lon>-94.6878</lon>
<active>1</active>
</city>
<city>
<id>434779</id>
<name>Concordia</name>
<state>MO</state>
<rating>6</rating>
<url>http://www.greatschools.org/city/Concordia/MO</url>
<lat>38.9832</lat>
<lon>-93.5696</lon>
<active>1</active>
</city>
<city>
<id>434715</id>
<name>Conway</name>
<state>MO</state>
<rating>5</rating>
<url>http://www.greatschools.org/city/Conway/MO</url>
<lat>37.502</lat>
<lon>-92.8234</lon>
<active>1</active>
</city>
<city>
<id>435141</id>
<name>Cooter</name>
<state>MO</state>
<rating>7</rating>
<url>http://www.greatschools.org/city/Cooter/MO</url>
<lat>36.0471</lat>
<lon>-89.8117</lon>
<active>1</active>
</city>
<city>
<id>435187</id>
<name>Cosby</name>
<state>MO</state>
<rating>10</rating>
<url>http://www.greatschools.org/city/Cosby/MO</url>
<lat>39.864</lat>
<lon>-94.6797</lon>
<active>1</active>
</city>
<city>
<id>445188</id>
<name>Cottleville</name>
<state>MO</state>
<rating/>
<url>http://www.greatschools.org/city/Cottleville/MO</url>
<lat>38.7448</lat>
<lon>-90.6523</lon>
<active>1</active>
</city>
<city>
<id>435139</id>
<name>Cowgill</name>
<state>MO</state>
<rating/>
<url>http://www.greatschools.org/city/Cowgill/MO</url>
<lat>39.5611</lat>
<lon>-93.9268</lon>
<active>1</active>
</city>
<city>
<id>435138</id>
<name>Craig</name>
<state>MO</state>
<rating/>
<url>http://www.greatschools.org/city/Craig/MO</url>
<lat>40.1924</lat>
<lon>-95.3739</lon>
<active>1</active>
</city>
<city>
<id>435137</id>
<name>Crane</name>
<state>MO</state>
<rating>4</rating>
<url>http://www.greatschools.org/city/Crane/MO</url>
<lat>36.9045</lat>
<lon>-93.5708</lon>
<active>1</active>
</city>
<city>
<id>435136</id>
<name>Creighton</name>
<state>MO</state>
<rating>5</rating>
<url>http://www.greatschools.org/city/Creighton/MO</url>
<lat>38.4953</lat>
<lon>-94.0722</lon>
<active>1</active>
</city>
<city>
<id>434935</id>
<name>Crestwood</name>
<state>MO</state>
<rating>9</rating>
<url>http://www.greatschools.org/city/Crestwood/MO</url>
<lat>38.5569</lat>
<lon>-90.3783</lon>
<active>1</active>
</city>
<city>
<id>434965</id>
<name>Creve Coeur</name>
<state>MO</state>
<rating>8</rating>
<url>http://www.greatschools.org/city/Creve_Coeur/MO</url>
<lat>38.6643</lat>
<lon>-90.4489</lon>
<active>1</active>
</city>
<city>
<id>435135</id>
<name>Crocker</name>
<state>MO</state>
<rating>5</rating>
<url>http://www.greatschools.org/city/Crocker/MO</url>
<lat>37.9485</lat>
<lon>-92.268</lon>
<active>1</active>
</city>
<city>
<id>434678</id>
<name>Crystal City</name>
<state>MO</state>
<rating>6</rating>
<url>http://www.greatschools.org/city/Crystal_City/MO</url>
<lat>38.2281</lat>
<lon>-90.3832</lon>
<active>1</active>
</city>
<city>
<id>434740</id>
<name>Cuba</name>
<state>MO</state>
<rating>5</rating>
<url>http://www.greatschools.org/city/Cuba/MO</url>
<lat>38.0645</lat>
<lon>-91.4036</lon>
<active>1</active>
</city>
<city>
<id>444521</id>
<name>Curryville</name>
<state>MO</state>
<rating/>
<url>http://www.greatschools.org/city/Curryville/MO</url>
<lat>39.3457</lat>
<lon>-91.3415</lon>
<active>1</active>
</city>
<city>
<id>435134</id>
<name>Dadeville</name>
<state>MO</state>
<rating>8</rating>
<url>http://www.greatschools.org/city/Dadeville/MO</url>
<lat>37.4785</lat>
<lon>-93.6745</lon>
<active>1</active>
</city>
<city>
<id>434900</id>
<name>Dardenne Prairie</name>
<state>MO</state>
<rating>10</rating>
<url>http://www.greatschools.org/city/Dardenne_Prairie/MO</url>
<lat>38.7692</lat>
<lon>-90.7305</lon>
<active>1</active>
</city>
<city>
<id>434621</id>
<name>De Soto</name>
<state>MO</state>
<rating>5</rating>
<url>http://www.greatschools.org/city/De_Soto/MO</url>
<lat>38.14</lat>
<lon>-90.5589</lon>
<active>1</active>
</city>
<city>
<id>434722</id>
<name>Dearborn</name>
<state>MO</state>
<rating>9</rating>
<url>http://www.greatschools.org/city/Dearborn/MO</url>
<lat>39.523</lat>
<lon>-94.7695</lon>
<active>1</active>
</city>
<city>
<id>435133</id>
<name>Deepwater</name>
<state>MO</state>
<rating>5</rating>
<url>http://www.greatschools.org/city/Deepwater/MO</url>
<lat>38.259</lat>
<lon>-93.7767</lon>
<active>1</active>
</city>
<city>
<id>435171</id>
<name>Deering</name>
<state>MO</state>
<rating>4</rating>
<url>http://www.greatschools.org/city/Deering/MO</url>
<lat>36.1488</lat>
<lon>-89.9558</lon>
<active>1</active>
</city>
<city>
<id>446145</id>
<name>Dekalb</name>
<state>MO</state>
<rating/>
<url>http://www.greatschools.org/city/Dekalb/MO</url>
<lat>39.5865</lat>
<lon>-94.9289</lon>
<active>1</active>
</city>
<city>
<id>435130</id>
<name>Delta</name>
<state>MO</state>
<rating>4</rating>
<url>http://www.greatschools.org/city/Delta/MO</url>
<lat>37.1979</lat>
<lon>-89.7384</lon>
<active>1</active>
</city>
<city>
<id>434669</id>
<name>Des Peres</name>
<state>MO</state>
<rating/>
<url>http://www.greatschools.org/city/Des_Peres/MO</url>
<lat>38.5977</lat>
<lon>-90.4473</lon>
<active>1</active>
</city>
<city>
<id>435175</id>
<name>Desloge</name>
<state>MO</state>
<rating>7</rating>
<url>http://www.greatschools.org/city/Desloge/MO</url>
<lat>37.873</lat>
<lon>-90.5224</lon>
<active>1</active>
</city>
<city>
<id>446146</id>
<name>Desoto</name>
<state>MO</state>
<rating/>
<url>http://www.greatschools.org/city/Desoto/MO</url>
<lat>38.1228</lat>
<lon>-90.4749</lon>
<active>1</active>
</city>
<city>
<id>435129</id>
<name>Dexter</name>
<state>MO</state>
<rating>6</rating>
<url>http://www.greatschools.org/city/Dexter/MO</url>
<lat>36.7955</lat>
<lon>-89.9614</lon>
<active>1</active>
</city>
<city>
<id>435128</id>
<name>Diamond</name>
<state>MO</state>
<rating>4</rating>
<url>http://www.greatschools.org/city/Diamond/MO</url>
<lat>36.9956</lat>
<lon>-94.3144</lon>
<active>1</active>
</city>
<city>
<id>434986</id>
<name>Dittmer</name>
<state>MO</state>
<rating>5</rating>
<url>http://www.greatschools.org/city/Dittmer/MO</url>
<lat>38.2909</lat>
<lon>-90.7002</lon>
<active>1</active>
</city>
<city>
<id>435127</id>
<name>Dixon</name>
<state>MO</state>
<rating>4</rating>
<url>http://www.greatschools.org/city/Dixon/MO</url>
<lat>37.9965</lat>
<lon>-92.0959</lon>
<active>1</active>
</city>
<city>
<id>434664</id>
<name>Doniphan</name>
<state>MO</state>
<rating>4</rating>
<url>http://www.greatschools.org/city/Doniphan/MO</url>
<lat>36.6219</lat>
<lon>-90.8216</lon>
<active>1</active>
</city>
<city>
<id>435126</id>
<name>Dora</name>
<state>MO</state>
<rating>5</rating>
<url>http://www.greatschools.org/city/Dora/MO</url>
<lat>36.7728</lat>
<lon>-92.2217</lon>
<active>1</active>
</city>
<city>
<id>442636</id>
<name>Downing</name>
<state>MO</state>
<rating/>
<url>http://www.greatschools.org/city/Downing/MO</url>
<lat>40.4868</lat>
<lon>-92.3682</lon>
<active>1</active>
</city>
<city>
<id>435125</id>
<name>Drexel</name>
<state>MO</state>
<rating>5</rating>
<url>http://www.greatschools.org/city/Drexel/MO</url>
<lat>38.4826</lat>
<lon>-94.6068</lon>
<active>1</active>
</city>
<city>
<id>442635</id>
<name>Dutzow</name>
<state>MO</state>
<rating/>
<url>http://www.greatschools.org/city/Dutzow/MO</url>
<lat>38.5396</lat>
<lon>-91.0229</lon>
<active>1</active>
</city>
<city>
<id>434990</id>
<name>Eagleville</name>
<state>MO</state>
<rating>7</rating>
<url>http://www.greatschools.org/city/Eagleville/MO</url>
<lat>40.468</lat>
<lon>-93.9882</lon>
<active>1</active>
</city>
<city>
<id>444612</id>
<name>Earth City</name>
<state>MO</state>
<rating/>
<url>http://www.greatschools.org/city/Earth_City/MO</url>
<lat>38.7685</lat>
<lon>-90.4679</lon>
<active>1</active>
</city>
<city>
<id>435124</id>
<name>East Lynne</name>
<state>MO</state>
<rating>5</rating>
<url>http://www.greatschools.org/city/East_Lynne/MO</url>
<lat>38.6681</lat>
<lon>-94.2295</lon>
<active>1</active>
</city>
<city>
<id>434735</id>
<name>East Prairie</name>
<state>MO</state>
<rating>6</rating>
<url>http://www.greatschools.org/city/East_Prairie/MO</url>
<lat>36.7783</lat>
<lon>-89.3833</lon>
<active>1</active>
</city>
<city>
<id>435122</id>
<name>Easton</name>
<state>MO</state>
<rating>8</rating>
<url>http://www.greatschools.org/city/Easton/MO</url>
<lat>39.7222</lat>
<lon>-94.6393</lon>
<active>1</active>
</city>
<city>
<id>434961</id>
<name>Edgar Springs</name>
<state>MO</state>
<rating>6</rating>
<url>http://www.greatschools.org/city/Edgar_Springs/MO</url>
<lat>37.7019</lat>
<lon>-91.8655</lon>
<active>1</active>
</city>
<city>
<id>434988</id>
<name>Edgerton</name>
<state>MO</state>
<rating>8</rating>
<url>http://www.greatschools.org/city/Edgerton/MO</url>
<lat>39.5051</lat>
<lon>-94.6312</lon>
<active>1</active>
</city>
<city>
<id>435121</id>
<name>Edina</name>
<state>MO</state>
<rating>5</rating>
<url>http://www.greatschools.org/city/Edina/MO</url>
<lat>40.1693</lat>
<lon>-92.1724</lon>
<active>1</active>
</city>
<city>
<id>434864</id>
<name>Edwards</name>
<state>MO</state>
<rating>6</rating>
<url>http://www.greatschools.org/city/Edwards/MO</url>
<lat>38.1946</lat>
<lon>-93.1469</lon>
<active>1</active>
</city>
<city>
<id>434663</id>
<name>El Dorado Springs</name>
<state>MO</state>
<rating>4</rating>
<url>http://www.greatschools.org/city/El_Dorado_Springs/MO</url>
<lat>37.8701</lat>
<lon>-94.0204</lon>
<active>1</active>
</city>
<city>
<id>434688</id>
<name>Eldon</name>
<state>MO</state>
<rating>6</rating>
<url>http://www.greatschools.org/city/Eldon/MO</url>
<lat>38.3502</lat>
<lon>-92.5801</lon>
<active>1</active>
</city>
<city>
<id>434906</id>
<name>Ellington</name>
<state>MO</state>
<rating>3</rating>
<url>http://www.greatschools.org/city/Ellington/MO</url>
<lat>37.2369</lat>
<lon>-90.9721</lon>
<active>1</active>
</city>
<city>
<id>434777</id>
<name>Ellisville</name>
<state>MO</state>
<rating>8</rating>
<url>http://www.greatschools.org/city/Ellisville/MO</url>
<lat>38.591</lat>
<lon>-90.5877</lon>
<active>1</active>
</city>
<city>
<id>434640</id>
<name>Ellsinore</name>
<state>MO</state>
<rating>4</rating>
<url>http://www.greatschools.org/city/Ellsinore/MO</url>
<lat>36.9343</lat>
<lon>-90.7464</lon>
<active>1</active>
</city>
<city>
<id>435120</id>
<name>Elsberry</name>
<state>MO</state>
<rating>4</rating>
<url>http://www.greatschools.org/city/Elsberry/MO</url>
<lat>39.1691</lat>
<lon>-90.7889</lon>
<active>1</active>
</city>
<city>
<id>435119</id>
<name>Eminence</name>
<state>MO</state>
<rating>7</rating>
<url>http://www.greatschools.org/city/Eminence/MO</url>
<lat>37.1458</lat>
<lon>-91.3605</lon>
<active>1</active>
</city>
<city>
<id>434786</id>
<name>Emma</name>
<state>MO</state>
<rating/>
<url>http://www.greatschools.org/city/Emma/MO</url>
<lat>38.972</lat>
<lon>-93.4949</lon>
<active>1</active>
</city>
<city>
<id>434960</id>
<name>Eolia</name>
<state>MO</state>
<rating/>
<url>http://www.greatschools.org/city/Eolia/MO</url>
<lat>39.2371</lat>
<lon>-91.0097</lon>
<active>1</active>
</city>
<city>
<id>434943</id>
<name>Essex</name>
<state>MO</state>
<rating>6</rating>
<url>http://www.greatschools.org/city/Essex/MO</url>
<lat>36.813</lat>
<lon>-89.8628</lon>
<active>1</active>
</city>
<city>
<id>434814</id>
<name>Eugene</name>
<state>MO</state>
<rating>7</rating>
<url>http://www.greatschools.org/city/Eugene/MO</url>
<lat>38.4159</lat>
<lon>-92.3635</lon>
<active>1</active>
</city>
<city>
<id>434731</id>
<name>Eureka</name>
<state>MO</state>
<rating>9</rating>
<url>http://www.greatschools.org/city/Eureka/MO</url>
<lat>38.5038</lat>
<lon>-90.6407</lon>
<active>1</active>
</city>
<city>
<id>435118</id>
<name>Everton</name>
<state>MO</state>
<rating>4</rating>
<url>http://www.greatschools.org/city/Everton/MO</url>
<lat>37.3437</lat>
<lon>-93.7024</lon>
<active>1</active>
</city>
<city>
<id>445189</id>
<name>Excelsior Spg</name>
<state>MO</state>
<rating/>
<url>http://www.greatschools.org/city/Excelsior_Spg/MO</url>
<lat>39.3069</lat>
<lon>-94.2128</lon>
<active>1</active>
</city>
<city>
<id>434769</id>
<name>Excelsior Springs</name>
<state>MO</state>
<rating>6</rating>
<url>http://www.greatschools.org/city/Excelsior_Springs/MO</url>
<lat>39.3439</lat>
<lon>-94.2355</lon>
<active>1</active>
</city>
<city>
<id>445190</id>
<name>Exclsor Sprgs</name>
<state>MO</state>
<rating/>
<url>http://www.greatschools.org/city/Exclsor_Sprgs/MO</url>
<lat>39.3069</lat>
<lon>-94.2128</lon>
<active>1</active>
</city>
<city>
<id>435117</id>
<name>Exeter</name>
<state>MO</state>
<rating>4</rating>
<url>http://www.greatschools.org/city/Exeter/MO</url>
<lat>36.6706</lat>
<lon>-93.9401</lon>
<active>1</active>
</city>
<city>
<id>435116</id>
<name>Fair Grove</name>
<state>MO</state>
<rating>7</rating>
<url>http://www.greatschools.org/city/Fair_Grove/MO</url>
<lat>37.3855</lat>
<lon>-93.1523</lon>
<active>1</active>
</city>
<city>
<id>435115</id>
<name>Fair Play</name>
<state>MO</state>
<rating>3</rating>
<url>http://www.greatschools.org/city/Fair_Play/MO</url>
<lat>37.6325</lat>
<lon>-93.5766</lon>
<active>1</active>
</city>
<city>
<id>435114</id>
<name>Fairfax</name>
<state>MO</state>
<rating>8</rating>
<url>http://www.greatschools.org/city/Fairfax/MO</url>
<lat>40.3393</lat>
<lon>-95.3907</lon>
<active>1</active>
</city>
<city>
<id>435103</id>
<name>Falcon</name>
<state>MO</state>
<rating/>
<url>http://www.greatschools.org/city/Falcon/MO</url>
<lat>37.564</lat>
<lon>-92.3977</lon>
<active>1</active>
</city>
<city>
<id>434710</id>
<name>Farmington</name>
<state>MO</state>
<rating>8</rating>
<url>http://www.greatschools.org/city/Farmington/MO</url>
<lat>37.7813</lat>
<lon>-90.4239</lon>
<active>1</active>
</city>
<city>
<id>434789</id>
<name>Farrar</name>
<state>MO</state>
<rating/>
<url>http://www.greatschools.org/city/Farrar/MO</url>
<lat>37.667</lat>
<lon>-89.6454</lon>
<active>1</active>
</city>
<city>
<id>435113</id>
<name>Faucett</name>
<state>MO</state>
<rating>8</rating>
<url>http://www.greatschools.org/city/Faucett/MO</url>
<lat>39.6011</lat>
<lon>-94.7969</lon>
<active>1</active>
</city>
<city>
<id>435112</id>
<name>Fayette</name>
<state>MO</state>
<rating>3</rating>
<url>http://www.greatschools.org/city/Fayette/MO</url>
<lat>39.1477</lat>
<lon>-92.687</lon>
<active>1</active>
</city>
<city>
<id>434748</id>
<name>Fenton</name>
<state>MO</state>
<rating>9</rating>
<url>http://www.greatschools.org/city/Fenton/MO</url>
<lat>38.5244</lat>
<lon>-90.454</lon>
<active>1</active>
</city>
<city>
<id>434714</id>
<name>Ferguson</name>
<state>MO</state>
<rating>2</rating>
<url>http://www.greatschools.org/city/Ferguson/MO</url>
<lat>38.7458</lat>
<lon>-90.2957</lon>
<active>1</active>
</city>
<city>
<id>434713</id>
<name>Festus</name>
<state>MO</state>
<rating>8</rating>
<url>http://www.greatschools.org/city/Festus/MO</url>
<lat>38.2211</lat>
<lon>-90.4035</lon>
<active>1</active>
</city>
<city>
<id>434876</id>
<name>Fisk</name>
<state>MO</state>
<rating>4</rating>
<url>http://www.greatschools.org/city/Fisk/MO</url>
<lat>36.783</lat>
<lon>-90.2065</lon>
<active>1</active>
</city>
<city>
<id>434614</id>
<name>Florissant</name>
<state>MO</state>
<rating>4</rating>
<url>http://www.greatschools.org/city/Florissant/MO</url>
<lat>38.7982</lat>
<lon>-90.3265</lon>
<active>1</active>
</city>
<city>
<id>442633</id>
<name>Foley</name>
<state>MO</state>
<rating/>
<url>http://www.greatschools.org/city/Foley/MO</url>
<lat>39.0458</lat>
<lon>-90.7417</lon>
<active>1</active>
</city>
<city>
<id>435110</id>
<name>Fordland</name>
<state>MO</state>
<rating>7</rating>
<url>http://www.greatschools.org/city/Fordland/MO</url>
<lat>37.1571</lat>
<lon>-92.9429</lon>
<active>1</active>
</city>
<city>
<id>434751</id>
<name>Foristell</name>
<state>MO</state>
<rating/>
<url>http://www.greatschools.org/city/Foristell/MO</url>
<lat>38.8163</lat>
<lon>-90.9542</lon>
<active>1</active>
</city>
<city>
<id>434770</id>
<name>Forsyth</name>
<state>MO</state>
<rating>6</rating>
<url>http://www.greatschools.org/city/Forsyth/MO</url>
<lat>36.6903</lat>
<lon>-93.1138</lon>
<active>1</active>
</city>
<city>
<id>434632</id>
<name>Fort Leonard Wood</name>
<state>MO</state>
<rating>7</rating>
<url>http://www.greatschools.org/city/Fort_Leonard_Wood/MO</url>
<lat>37.7632</lat>
<lon>-92.1202</lon>
<active>1</active>
</city>
<city>
<id>435173</id>
<name>Frankford</name>
<state>MO</state>
<rating>7</rating>
<url>http://www.greatschools.org/city/Frankford/MO</url>
<lat>39.4929</lat>
<lon>-91.3209</lon>
<active>1</active>
</city>
<city>
<id>435109</id>
<name>Fredericktown</name>
<state>MO</state>
<rating>6</rating>
<url>http://www.greatschools.org/city/Fredericktown/MO</url>
<lat>37.5574</lat>
<lon>-90.2938</lon>
<active>1</active>
</city>
<city>
<id>434815</id>
<name>Freeburg</name>
<state>MO</state>
<rating/>
<url>http://www.greatschools.org/city/Freeburg/MO</url>
<lat>38.3171</lat>
<lon>-91.9226</lon>
<active>1</active>
</city>
<city>
<id>434787</id>
<name>Freistatt</name>
<state>MO</state>
<rating/>
<url>http://www.greatschools.org/city/Freistatt/MO</url>
<lat>37.0213</lat>
<lon>-93.8977</lon>
<active>1</active>
</city>
<city>
<id>442632</id>
<name>Fremont</name>
<state>MO</state>
<rating/>
<url>http://www.greatschools.org/city/Fremont/MO</url>
<lat>36.9109</lat>
<lon>-91.1581</lon>
<active>1</active>
</city>
<city>
<id>445191</id>
<name>Friedheim</name>
<state>MO</state>
<rating/>
<url>http://www.greatschools.org/city/Friedheim/MO</url>
<lat>37.5598</lat>
<lon>-89.8288</lon>
<active>1</active>
</city>
<city>
<id>434783</id>
<name>Frohna</name>
<state>MO</state>
<rating/>
<url>http://www.greatschools.org/city/Frohna/MO</url>
<lat>37.6366</lat>
<lon>-89.6205</lon>
<active>1</active>
</city>
<city>
<id>434701</id>
<name>Fulton</name>
<state>MO</state>
<rating>5</rating>
<url>http://www.greatschools.org/city/Fulton/MO</url>
<lat>38.8499</lat>
<lon>-91.947</lon>
<active>1</active>
</city>
<city>
<id>435108</id>
<name>Gainesville</name>
<state>MO</state>
<rating>6</rating>
<url>http://www.greatschools.org/city/Gainesville/MO</url>
<lat>36.6082</lat>
<lon>-92.4235</lon>
<active>1</active>
</city>
<city>
<id>435107</id>
<name>Galena</name>
<state>MO</state>
<rating>2</rating>
<url>http://www.greatschools.org/city/Galena/MO</url>
<lat>36.8044</lat>
<lon>-93.4691</lon>
<active>1</active>
</city>
<city>
<id>435106</id>
<name>Gallatin</name>
<state>MO</state>
<rating>6</rating>
<url>http://www.greatschools.org/city/Gallatin/MO</url>
<lat>39.9117</lat>
<lon>-93.9629</lon>
<active>1</active>
</city>
<city>
<id>435104</id>
<name>Galt</name>
<state>MO</state>
<rating>4</rating>
<url>http://www.greatschools.org/city/Galt/MO</url>
<lat>40.1278</lat>
<lon>-93.3871</lon>
<active>1</active>
</city>
<city>
<id>434773</id>
<name>Garden City</name>
<state>MO</state>
<rating/>
<url>http://www.greatschools.org/city/Garden_City/MO</url>
<lat>38.56</lat>
<lon>-94.1918</lon>
<active>1</active>
</city>
<city>
<id>434940</id>
<name>Gatewood</name>
<state>MO</state>
<rating>6</rating>
<url>http://www.greatschools.org/city/Gatewood/MO</url>
<lat>36.5635</lat>
<lon>-91.0698</lon>
<active>1</active>
</city>
<city>
<id>434974</id>
<name>Gerald</name>
<state>MO</state>
<rating>6</rating>
<url>http://www.greatschools.org/city/Gerald/MO</url>
<lat>38.3993</lat>
<lon>-91.3313</lon>
<active>1</active>
</city>
<city>
<id>435102</id>
<name>Gideon</name>
<state>MO</state>
<rating>5</rating>
<url>http://www.greatschools.org/city/Gideon/MO</url>
<lat>36.4536</lat>
<lon>-89.9205</lon>
<active>1</active>
</city>
<city>
<id>435101</id>
<name>Gilliam</name>
<state>MO</state>
<rating/>
<url>http://www.greatschools.org/city/Gilliam/MO</url>
<lat>39.2326</lat>
<lon>-93.0038</lon>
<active>1</active>
</city>
<city>
<id>435100</id>
<name>Gilman City</name>
<state>MO</state>
<rating>4</rating>
<url>http://www.greatschools.org/city/Gilman_City/MO</url>
<lat>40.1401</lat>
<lon>-93.8723</lon>
<active>1</active>
</city>
<city>
<id>434780</id>
<name>Gladstone</name>
<state>MO</state>
<rating>5</rating>
<url>http://www.greatschools.org/city/Gladstone/MO</url>
<lat>39.213</lat>
<lon>-94.5584</lon>
<active>1</active>
</city>
<city>
<id>434817</id>
<name>Glasgow</name>
<state>MO</state>
<rating>3</rating>
<url>http://www.greatschools.org/city/Glasgow/MO</url>
<lat>39.2284</lat>
<lon>-92.8406</lon>
<active>1</active>
</city>
<city>
<id>434933</id>
<name>Glencoe</name>
<state>MO</state>
<rating>10</rating>
<url>http://www.greatschools.org/city/Glencoe/MO</url>
<lat>38.5862</lat>
<lon>-90.6614</lon>
<active>1</active>
</city>
<city>
<id>442631</id>
<name>Glenwood</name>
<state>MO</state>
<rating/>
<url>http://www.greatschools.org/city/Glenwood/MO</url>
<lat>40.5219</lat>
<lon>-92.5734</lon>
<active>1</active>
</city>
<city>
<id>435099</id>
<name>Golden City</name>
<state>MO</state>
<rating>5</rating>
<url>http://www.greatschools.org/city/Golden_City/MO</url>
<lat>37.3923</lat>
<lon>-94.0934</lon>
<active>1</active>
</city>
<city>
<id>435003</id>
<name>Goodman</name>
<state>MO</state>
<rating>6</rating>
<url>http://www.greatschools.org/city/Goodman/MO</url>
<lat>36.74</lat>
<lon>-94.4095</lon>
<active>1</active>
</city>
<city>
<id>442630</id>
<name>Gordonville</name>
<state>MO</state>
<rating/>
<url>http://www.greatschools.org/city/Gordonville/MO</url>
<lat>37.3105</lat>
<lon>-89.6745</lon>
<active>1</active>
</city>
<city>
<id>435098</id>
<name>Gorin</name>
<state>MO</state>
<rating/>
<url>http://www.greatschools.org/city/Gorin/MO</url>
<lat>40.3609</lat>
<lon>-92.0199</lon>
<active>1</active>
</city>
<city>
<id>435123</id>
<name>Gower</name>
<state>MO</state>
<rating>8</rating>
<url>http://www.greatschools.org/city/Gower/MO</url>
<lat>39.6132</lat>
<lon>-94.5951</lon>
<active>1</active>
</city>
<city>
<id>434996</id>
<name>Graham</name>
<state>MO</state>
<rating>6</rating>
<url>http://www.greatschools.org/city/Graham/MO</url>
<lat>40.2012</lat>
<lon>-95.0388</lon>
<active>1</active>
</city>
<city>
<id>434626</id>
<name>Grain Valley</name>
<state>MO</state>
<rating>7</rating>
<url>http://www.greatschools.org/city/Grain_Valley/MO</url>
<lat>39.0081</lat>
<lon>-94.2117</lon>
<active>1</active>
</city>
<city>
<id>434881</id>
<name>Granby</name>
<state>MO</state>
<rating>7</rating>
<url>http://www.greatschools.org/city/Granby/MO</url>
<lat>36.915</lat>
<lon>-94.2574</lon>
<active>1</active>
</city>
<city>
<id>445192</id>
<name>Grandin</name>
<state>MO</state>
<rating/>
<url>http://www.greatschools.org/city/Grandin/MO</url>
<lat>36.8292</lat>
<lon>-90.8229</lon>
<active>1</active>
</city>
<city>
<id>434739</id>
<name>Grandview</name>
<state>MO</state>
<rating>4</rating>
<url>http://www.greatschools.org/city/Grandview/MO</url>
<lat>38.8834</lat>
<lon>-94.5209</lon>
<active>1</active>
</city>
<city>
<id>434844</id>
<name>Grant City</name>
<state>MO</state>
<rating>4</rating>
<url>http://www.greatschools.org/city/Grant_City/MO</url>
<lat>40.4853</lat>
<lon>-94.4152</lon>
<active>1</active>
</city>
<city>
<id>445193</id>
<name>Gray Summit</name>
<state>MO</state>
<rating/>
<url>http://www.greatschools.org/city/Gray_Summit/MO</url>
<lat>38.5052</lat>
<lon>-90.85</lon>
<active>1</active>
</city>
<city>
<id>435097</id>
<name>Green City</name>
<state>MO</state>
<rating>4</rating>
<url>http://www.greatschools.org/city/Green_City/MO</url>
<lat>40.267</lat>
<lon>-92.9547</lon>
<active>1</active>
</city>
<city>
<id>435096</id>
<name>Green Ridge</name>
<state>MO</state>
<rating>8</rating>
<url>http://www.greatschools.org/city/Green_Ridge/MO</url>
<lat>38.6205</lat>
<lon>-93.4101</lon>
<active>1</active>
</city>
<city>
<id>434661</id>
<name>Greenfield</name>
<state>MO</state>
<rating>5</rating>
<url>http://www.greatschools.org/city/Greenfield/MO</url>
<lat>37.4163</lat>
<lon>-93.8427</lon>
<active>1</active>
</city>
<city>
<id>434675</id>
<name>Greenville</name>
<state>MO</state>
<rating>5</rating>
<url>http://www.greatschools.org/city/Greenville/MO</url>
<lat>37.1283</lat>
<lon>-90.4483</lon>
<active>1</active>
</city>
<city>
<id>435052</id>
<name>Greenwood</name>
<state>MO</state>
<rating>7</rating>
<url>http://www.greatschools.org/city/Greenwood/MO</url>
<lat>38.8476</lat>
<lon>-94.3507</lon>
<active>1</active>
</city>
<city>
<id>435091</id>
<name>Grovespring</name>
<state>MO</state>
<rating>8</rating>
<url>http://www.greatschools.org/city/Grovespring/MO</url>
<lat>37.4379</lat>
<lon>-92.5747</lon>
<active>1</active>
</city>
<city>
<id>434909</id>
<name>Guilford</name>
<state>MO</state>
<rating>7</rating>
<url>http://www.greatschools.org/city/Guilford/MO</url>
<lat>40.1685</lat>
<lon>-94.7355</lon>
<active>1</active>
</city>
<city>
<id>445194</id>
<name>Guthrie</name>
<state>MO</state>
<rating/>
<url>http://www.greatschools.org/city/Guthrie/MO</url>
<lat>38.757</lat>
<lon>-92.0966</lon>
<active>1</active>
</city>
<city>
<id>435094</id>
<name>Hale</name>
<state>MO</state>
<rating>9</rating>
<url>http://www.greatschools.org/city/Hale/MO</url>
<lat>39.6052</lat>
<lon>-93.3439</lon>
<active>1</active>
</city>
<city>
<id>445195</id>
<name>Halfway</name>
<state>MO</state>
<rating/>
<url>http://www.greatschools.org/city/Halfway/MO</url>
<lat>37.6163</lat>
<lon>-93.2427</lon>
<active>1</active>
</city>
<city>
<id>434610</id>
<name>Hallsville</name>
<state>MO</state>
<rating>6</rating>
<url>http://www.greatschools.org/city/Hallsville/MO</url>
<lat>39.1177</lat>
<lon>-92.2236</lon>
<active>1</active>
</city>
<city>
<id>435000</id>
<name>Hamilton</name>
<state>MO</state>
<rating>6</rating>
<url>http://www.greatschools.org/city/Hamilton/MO</url>
<lat>39.7435</lat>
<lon>-93.9989</lon>
<active>1</active>
</city>
<city>
<id>434689</id>
<name>Hannibal</name>
<state>MO</state>
<rating>5</rating>
<url>http://www.greatschools.org/city/Hannibal/MO</url>
<lat>39.7081</lat>
<lon>-91.3821</lon>
<active>1</active>
</city>
<city>
<id>435092</id>
<name>Hardin</name>
<state>MO</state>
<rating>5</rating>
<url>http://www.greatschools.org/city/Hardin/MO</url>
<lat>39.27</lat>
<lon>-93.8333</lon>
<active>1</active>
</city>
<city>
<id>434695</id>
<name>Harrisburg</name>
<state>MO</state>
<rating>5</rating>
<url>http://www.greatschools.org/city/Harrisburg/MO</url>
<lat>39.1411</lat>
<lon>-92.4592</lon>
<active>1</active>
</city>
<city>
<id>434745</id>
<name>Harrisonville</name>
<state>MO</state>
<rating>6</rating>
<url>http://www.greatschools.org/city/Harrisonville/MO</url>
<lat>38.6532</lat>
<lon>-94.342</lon>
<active>1</active>
</city>
<city>
<id>442629</id>
<name>Hartsburg</name>
<state>MO</state>
<rating/>
<url>http://www.greatschools.org/city/Hartsburg/MO</url>
<lat>38.6954</lat>
<lon>-92.3102</lon>
<active>1</active>
</city>
<city>
<id>446147</id>
<name>Hartshorn</name>
<state>MO</state>
<rating/>
<url>http://www.greatschools.org/city/Hartshorn/MO</url>
<lat>37.2654</lat>
<lon>-91.6706</lon>
<active>1</active>
</city>
<city>
<id>435090</id>
<name>Hartville</name>
<state>MO</state>
<rating>7</rating>
<url>http://www.greatschools.org/city/Hartville/MO</url>
<lat>37.2504</lat>
<lon>-92.5127</lon>
<active>1</active>
</city>
<city>
<id>435005</id>
<name>Harviell</name>
<state>MO</state>
<rating/>
<url>http://www.greatschools.org/city/Harviell/MO</url>
<lat>36.6776</lat>
<lon>-90.5716</lon>
<active>1</active>
</city>
<city>
<id>434879</id>
<name>Hawk Point</name>
<state>MO</state>
<rating>3</rating>
<url>http://www.greatschools.org/city/Hawk_Point/MO</url>
<lat>38.9711</lat>
<lon>-91.1347</lon>
<active>1</active>
</city>
<city>
<id>434963</id>
<name>Hayti</name>
<state>MO</state>
<rating>6</rating>
<url>http://www.greatschools.org/city/Hayti/MO</url>
<lat>36.2344</lat>
<lon>-89.751</lon>
<active>1</active>
</city>
<city>
<id>434651</id>
<name>Hazelwood</name>
<state>MO</state>
<rating>4</rating>
<url>http://www.greatschools.org/city/Hazelwood/MO</url>
<lat>38.7846</lat>
<lon>-90.365</lon>
<active>1</active>
</city>
<city>
<id>434928</id>
<name>Helena</name>
<state>MO</state>
<rating>7</rating>
<url>http://www.greatschools.org/city/Helena/MO</url>
<lat>39.9222</lat>
<lon>-94.6558</lon>
<active>1</active>
</city>
<city>
<id>435088</id>
<name>Herculaneum</name>
<state>MO</state>
<rating>6</rating>
<url>http://www.greatschools.org/city/Herculaneum/MO</url>
<lat>38.2584</lat>
<lon>-90.3902</lon>
<active>1</active>
</city>
<city>
<id>434818</id>
<name>Hermann</name>
<state>MO</state>
<rating>6</rating>
<url>http://www.greatschools.org/city/Hermann/MO</url>
<lat>38.6995</lat>
<lon>-91.4408</lon>
<active>1</active>
</city>
<city>
<id>435087</id>
<name>Hermitage</name>
<state>MO</state>
<rating>5</rating>
<url>http://www.greatschools.org/city/Hermitage/MO</url>
<lat>37.9444</lat>
<lon>-93.3251</lon>
<active>1</active>
</city>
<city>
<id>435086</id>
<name>Higbee</name>
<state>MO</state>
<rating>7</rating>
<url>http://www.greatschools.org/city/Higbee/MO</url>
<lat>39.3059</lat>
<lon>-92.5126</lon>
<active>1</active>
</city>
<city>
<id>434784</id>
<name>Higginsville</name>
<state>MO</state>
<rating>5</rating>
<url>http://www.greatschools.org/city/Higginsville/MO</url>
<lat>39.0739</lat>
<lon>-93.7223</lon>
<active>1</active>
</city>
<city>
<id>435016</id>
<name>High Point</name>
<state>MO</state>
<rating>5</rating>
<url>http://www.greatschools.org/city/High_Point/MO</url>
<lat>38.478</lat>
<lon>-92.6061</lon>
<active>1</active>
</city>
<city>
<id>434835</id>
<name>High Ridge</name>
<state>MO</state>
<rating>7</rating>
<url>http://www.greatschools.org/city/High_Ridge/MO</url>
<lat>38.4651</lat>
<lon>-90.5331</lon>
<active>1</active>
</city>
<city>
<id>434901</id>
<name>Highlandville</name>
<state>MO</state>
<rating>6</rating>
<url>http://www.greatschools.org/city/Highlandville/MO</url>
<lat>36.9435</lat>
<lon>-93.2819</lon>
<active>1</active>
</city>
<city>
<id>434749</id>
<name>Hillsboro</name>
<state>MO</state>
<rating>6</rating>
<url>http://www.greatschools.org/city/Hillsboro/MO</url>
<lat>38.2299</lat>
<lon>-90.5647</lon>
<active>1</active>
</city>
<city>
<id>435085</id>
<name>Holcomb</name>
<state>MO</state>
<rating>5</rating>
<url>http://www.greatschools.org/city/Holcomb/MO</url>
<lat>36.4023</lat>
<lon>-90.0244</lon>
<active>1</active>
</city>
<city>
<id>435084</id>
<name>Holden</name>
<state>MO</state>
<rating>6</rating>
<url>http://www.greatschools.org/city/Holden/MO</url>
<lat>38.7132</lat>
<lon>-93.9904</lon>
<active>1</active>
</city>
<city>
<id>435083</id>
<name>Holliday</name>
<state>MO</state>
<rating>8</rating>
<url>http://www.greatschools.org/city/Holliday/MO</url>
<lat>39.4931</lat>
<lon>-92.13</lon>
<active>1</active>
</city>
<city>
<id>434629</id>
<name>Hollister</name>
<state>MO</state>
<rating>6</rating>
<url>http://www.greatschools.org/city/Hollister/MO</url>
<lat>36.6249</lat>
<lon>-93.2115</lon>
<active>1</active>
</city>
<city>
<id>434702</id>
<name>Holt</name>
<state>MO</state>
<rating/>
<url>http://www.greatschools.org/city/Holt/MO</url>
<lat>39.4542</lat>
<lon>-94.3453</lon>
<active>1</active>
</city>
<city>
<id>435069</id>
<name>Holts Summit</name>
<state>MO</state>
<rating>4</rating>
<url>http://www.greatschools.org/city/Holts_Summit/MO</url>
<lat>38.6454</lat>
<lon>-92.1164</lon>
<active>1</active>
</city>
<city>
<id>435008</id>
<name>Hopkins</name>
<state>MO</state>
<rating>3</rating>
<url>http://www.greatschools.org/city/Hopkins/MO</url>
<lat>40.5495</lat>
<lon>-94.8169</lon>
<active>1</active>
</city>
<city>
<id>434922</id>
<name>Hornersville</name>
<state>MO</state>
<rating>3</rating>
<url>http://www.greatschools.org/city/Hornersville/MO</url>
<lat>36.0418</lat>
<lon>-90.1139</lon>
<active>1</active>
</city>
<city>
<id>434833</id>
<name>House Springs</name>
<state>MO</state>
<rating>6</rating>
<url>http://www.greatschools.org/city/House_Springs/MO</url>
<lat>38.4107</lat>
<lon>-90.553</lon>
<active>1</active>
</city>
<city>
<id>434682</id>
<name>Houston</name>
<state>MO</state>
<rating>5</rating>
<url>http://www.greatschools.org/city/Houston/MO</url>
<lat>37.3227</lat>
<lon>-91.9611</lon>
<active>1</active>
</city>
<city>
<id>435081</id>
<name>Houstonia</name>
<state>MO</state>
<rating>4</rating>
<url>http://www.greatschools.org/city/Houstonia/MO</url>
<lat>38.8988</lat>
<lon>-93.3593</lon>
<active>1</active>
</city>
<city>
<id>445196</id>
<name>Howardville</name>
<state>MO</state>
<rating/>
<url>http://www.greatschools.org/city/Howardville/MO</url>
<lat>36.5699</lat>
<lon>-89.5901</lon>
<active>1</active>
</city>
<city>
<id>435080</id>
<name>Hughesville</name>
<state>MO</state>
<rating>4</rating>
<url>http://www.greatschools.org/city/Hughesville/MO</url>
<lat>38.838</lat>
<lon>-93.2953</lon>
<active>1</active>
</city>
<city>
<id>435079</id>
<name>Humansville</name>
<state>MO</state>
<rating>3</rating>
<url>http://www.greatschools.org/city/Humansville/MO</url>
<lat>37.7951</lat>
<lon>-93.5775</lon>
<active>1</active>
</city>
<city>
<id>435078</id>
<name>Hume</name>
<state>MO</state>
<rating>6</rating>
<url>http://www.greatschools.org/city/Hume/MO</url>
<lat>38.0904</lat>
<lon>-94.5834</lon>
<active>1</active>
</city>
<city>
<id>435105</id>
<name>Humphreys</name>
<state>MO</state>
<rating>8</rating>
<url>http://www.greatschools.org/city/Humphreys/MO</url>
<lat>40.1267</lat>
<lon>-93.3191</lon>
<active>1</active>
</city>
<city>
<id>434852</id>
<name>Huntsville</name>
<state>MO</state>
<rating>4</rating>
<url>http://www.greatschools.org/city/Huntsville/MO</url>
<lat>39.4379</lat>
<lon>-92.5444</lon>
<active>1</active>
</city>
<city>
<id>435077</id>
<name>Hurley</name>
<state>MO</state>
<rating>5</rating>
<url>http://www.greatschools.org/city/Hurley/MO</url>
<lat>36.9315</lat>
<lon>-93.4983</lon>
<active>1</active>
</city>
<city>
<id>435076</id>
<name>Iberia</name>
<state>MO</state>
<rating>5</rating>
<url>http://www.greatschools.org/city/Iberia/MO</url>
<lat>38.0887</lat>
<lon>-92.2948</lon>
<active>1</active>
</city>
<city>
<id>434650</id>
<name>Imperial</name>
<state>MO</state>
<rating>8</rating>
<url>http://www.greatschools.org/city/Imperial/MO</url>
<lat>38.3738</lat>
<lon>-90.3743</lon>
<active>1</active>
</city>
<city>
<id>434617</id>
<name>Independence</name>
<state>MO</state>
<rating>5</rating>
<url>http://www.greatschools.org/city/Independence/MO</url>
<lat>39.0794</lat>
<lon>-94.4033</lon>
<active>1</active>
</city>
<city>
<id>446148</id>
<name>Independnce</name>
<state>MO</state>
<rating/>
<url>http://www.greatschools.org/city/Independnce/MO</url>
<lat>39.0964</lat>
<lon>-94.4642</lon>
<active>1</active>
</city>
<city>
<id>435192</id>
<name>Ironton</name>
<state>MO</state>
<rating>7</rating>
<url>http://www.greatschools.org/city/Ironton/MO</url>
<lat>37.5994</lat>
<lon>-90.631</lon>
<active>1</active>
</city>
<city>
<id>434790</id>
<name>Jackson</name>
<state>MO</state>
<rating>8</rating>
<url>http://www.greatschools.org/city/Jackson/MO</url>
<lat>37.3826</lat>
<lon>-89.6608</lon>
<active>1</active>
</city>
<city>
<id>435072</id>
<name>Jameson</name>
<state>MO</state>
<rating/>
<url>http://www.greatschools.org/city/Jameson/MO</url>
<lat>40.0061</lat>
<lon>-93.9862</lon>
<active>1</active>
</city>
<city>
<id>434659</id>
<name>Jamesport</name>
<state>MO</state>
<rating>5</rating>
<url>http://www.greatschools.org/city/Jamesport/MO</url>
<lat>39.9751</lat>
<lon>-93.8024</lon>
<active>1</active>
</city>
<city>
<id>435071</id>
<name>Jamestown</name>
<state>MO</state>
<rating>6</rating>
<url>http://www.greatschools.org/city/Jamestown/MO</url>
<lat>38.7657</lat>
<lon>-92.4806</lon>
<active>1</active>
</city>
<city>
<id>435070</id>
<name>Jasper</name>
<state>MO</state>
<rating>6</rating>
<url>http://www.greatschools.org/city/Jasper/MO</url>
<lat>37.3358</lat>
<lon>-94.3012</lon>
<active>1</active>
</city>
<city>
<id>434755</id>
<name>Jefferson City</name>
<state>MO</state>
<rating>6</rating>
<url>http://www.greatschools.org/city/Jefferson_City/MO</url>
<lat>38.571</lat>
<lon>-92.188</lon>
<active>1</active>
</city>
<city>
<id>434609</id>
<name>Jennings</name>
<state>MO</state>
<rating>3</rating>
<url>http://www.greatschools.org/city/Jennings/MO</url>
<lat>38.7221</lat>
<lon>-90.261</lon>
<active>1</active>
</city>
<city>
<id>435014</id>
<name>Jonesburg</name>
<state>MO</state>
<rating>5</rating>
<url>http://www.greatschools.org/city/Jonesburg/MO</url>
<lat>38.854</lat>
<lon>-91.3057</lon>
<active>1</active>
</city>
<city>
<id>434712</id>
<name>Joplin</name>
<state>MO</state>
<rating>5</rating>
<url>http://www.greatschools.org/city/Joplin/MO</url>
<lat>37.077</lat>
<lon>-94.5074</lon>
<active>1</active>
</city>
<city>
<id>434692</id>
<name>Kahoka</name>
<state>MO</state>
<rating>4</rating>
<url>http://www.greatschools.org/city/Kahoka/MO</url>
<lat>40.4238</lat>
<lon>-91.7223</lon>
<active>1</active>
</city>
<city>
<id>434612</id>
<name>Kansas City</name>
<state>MO</state>
<rating>4</rating>
<url>http://www.greatschools.org/city/Kansas_City/MO</url>
<lat>39.0749</lat>
<lon>-94.5547</lon>
<active>1</active>
</city>
<city>
<id>434637</id>
<name>Kearney</name>
<state>MO</state>
<rating>8</rating>
<url>http://www.greatschools.org/city/Kearney/MO</url>
<lat>39.3632</lat>
<lon>-94.3582</lon>
<active>1</active>
</city>
<city>
<id>434796</id>
<name>Kelso</name>
<state>MO</state>
<rating/>
<url>http://www.greatschools.org/city/Kelso/MO</url>
<lat>37.1929</lat>
<lon>-89.5503</lon>
<active>1</active>
</city>
<city>
<id>434756</id>
<name>Kennett</name>
<state>MO</state>
<rating>6</rating>
<url>http://www.greatschools.org/city/Kennett/MO</url>
<lat>36.2411</lat>
<lon>-90.0496</lon>
<active>1</active>
</city>
<city>
<id>435065</id>
<name>Keytesville</name>
<state>MO</state>
<rating>7</rating>
<url>http://www.greatschools.org/city/Keytesville/MO</url>
<lat>39.4336</lat>
<lon>-92.936</lon>
<active>1</active>
</city>
<city>
<id>445197</id>
<name>Kimberling City</name>
<state>MO</state>
<rating/>
<url>http://www.greatschools.org/city/Kimberling_City/MO</url>
<lat>36.6357</lat>
<lon>-93.4296</lon>
<active>1</active>
</city>
<city>
<id>444482</id>
<name>Kimmswick</name>
<state>MO</state>
<rating/>
<url>http://www.greatschools.org/city/Kimmswick/MO</url>
<lat>38.3656</lat>
<lon>-90.3647</lon>
<active>1</active>
</city>
<city>
<id>435064</id>
<name>King City</name>
<state>MO</state>
<rating>8</rating>
<url>http://www.greatschools.org/city/King_City/MO</url>
<lat>40.0503</lat>
<lon>-94.5231</lon>
<active>1</active>
</city>
<city>
<id>434992</id>
<name>Kingdom City</name>
<state>MO</state>
<rating>5</rating>
<url>http://www.greatschools.org/city/Kingdom_City/MO</url>
<lat>38.9554</lat>
<lon>-91.9376</lon>
<active>1</active>
</city>
<city>
<id>435063</id>
<name>Kingston</name>
<state>MO</state>
<rating/>
<url>http://www.greatschools.org/city/Kingston/MO</url>
<lat>39.6426</lat>
<lon>-94.0377</lon>
<active>1</active>
</city>
<city>
<id>435062</id>
<name>Kingsville</name>
<state>MO</state>
<rating>7</rating>
<url>http://www.greatschools.org/city/Kingsville/MO</url>
<lat>38.7428</lat>
<lon>-94.0698</lon>
<active>1</active>
</city>
<city>
<id>442627</id>
<name>Kinloch</name>
<state>MO</state>
<rating/>
<url>http://www.greatschools.org/city/Kinloch/MO</url>
<lat>38.7378</lat>
<lon>-90.3205</lon>
<active>1</active>
</city>
<city>
<id>434727</id>
<name>Kirbyville</name>
<state>MO</state>
<rating>9</rating>
<url>http://www.greatschools.org/city/Kirbyville/MO</url>
<lat>36.6215</lat>
<lon>-93.112</lon>
<active>1</active>
</city>
<city>
<id>434746</id>
<name>Kirksville</name>
<state>MO</state>
<rating>7</rating>
<url>http://www.greatschools.org/city/Kirksville/MO</url>
<lat>40.1946</lat>
<lon>-92.5797</lon>
<active>1</active>
</city>
<city>
<id>434674</id>
<name>Kirkwood</name>
<state>MO</state>
<rating>9</rating>
<url>http://www.greatschools.org/city/Kirkwood/MO</url>
<lat>38.5827</lat>
<lon>-90.4166</lon>
<active>1</active>
</city>
<city>
<id>442626</id>
<name>Kissee Mills</name>
<state>MO</state>
<rating/>
<url>http://www.greatschools.org/city/Kissee_Mills/MO</url>
<lat>36.6626</lat>
<lon>-93.0317</lon>
<active>1</active>
</city>
<city>
<id>435060</id>
<name>Knob Noster</name>
<state>MO</state>
<rating>8</rating>
<url>http://www.greatschools.org/city/Knob_Noster/MO</url>
<lat>38.764</lat>
<lon>-93.5601</lon>
<active>1</active>
</city>
<city>
<id>435059</id>
<name>Koshkonong</name>
<state>MO</state>
<rating>5</rating>
<url>http://www.greatschools.org/city/Koshkonong/MO</url>
<lat>36.597</lat>
<lon>-91.646</lon>
<active>1</active>
</city>
<city>
<id>442625</id>
<name>La Grange</name>
<state>MO</state>
<rating/>
<url>http://www.greatschools.org/city/La_Grange/MO</url>
<lat>40.0438</lat>
<lon>-91.503</lon>
<active>1</active>
</city>
<city>
<id>434705</id>
<name>La Monte</name>
<state>MO</state>
<rating>5</rating>
<url>http://www.greatschools.org/city/La_Monte/MO</url>
<lat>38.7702</lat>
<lon>-93.4235</lon>
<active>1</active>
</city>
<city>
<id>435058</id>
<name>La Plata</name>
<state>MO</state>
<rating>7</rating>
<url>http://www.greatschools.org/city/La_Plata/MO</url>
<lat>40.0241</lat>
<lon>-92.4906</lon>
<active>1</active>
</city>
<city>
<id>434861</id>
<name>Labadie</name>
<state>MO</state>
<rating>9</rating>
<url>http://www.greatschools.org/city/Labadie/MO</url>
<lat>38.5185</lat>
<lon>-90.8417</lon>
<active>1</active>
</city>
<city>
<id>435142</id>
<name>Laddonia</name>
<state>MO</state>
<rating>5</rating>
<url>http://www.greatschools.org/city/Laddonia/MO</url>
<lat>39.2409</lat>
<lon>-91.6434</lon>
<active>1</active>
</city>
<city>
<id>434938</id>
<name>Ladue</name>
<state>MO</state>
<rating>8</rating>
<url>http://www.greatschools.org/city/Ladue/MO</url>
<lat>38.6408</lat>
<lon>-90.3781</lon>
<active>1</active>
</city>
<city>
<id>434694</id>
<name>Lake Ozark</name>
<state>MO</state>
<rating/>
<url>http://www.greatschools.org/city/Lake_Ozark/MO</url>
<lat>38.1893</lat>
<lon>-92.6245</lon>
<active>1</active>
</city>
<city>
<id>445198</id>
<name>Lake Saint Louis</name>
<state>MO</state>
<rating/>
<url>http://www.greatschools.org/city/Lake_Saint_Louis/MO</url>
<lat>38.7838</lat>
<lon>-90.7627</lon>
<active>1</active>
</city>
<city>
<id>446149</id>
<name>Lake St Louis</name>
<state>MO</state>
<rating/>
<url>http://www.greatschools.org/city/Lake_St_Louis/MO</url>
<lat>38.7826</lat>
<lon>-90.781</lon>
<active>1</active>
</city>
<city>
<id>434620</id>
<name>Lake St. Louis</name>
<state>MO</state>
<rating>8</rating>
<url>http://www.greatschools.org/city/Lake_St._Louis/MO</url>
<lat>38.7933</lat>
<lon>-90.783</lon>
<active>1</active>
</city>
<city>
<id>434703</id>
<name>Lamar</name>
<state>MO</state>
<rating>5</rating>
<url>http://www.greatschools.org/city/Lamar/MO</url>
<lat>37.4963</lat>
<lon>-94.2727</lon>
<active>1</active>
</city>
<city>
<id>442624</id>
<name>Lampe</name>
<state>MO</state>
<rating/>
<url>http://www.greatschools.org/city/Lampe/MO</url>
<lat>36.5734</lat>
<lon>-93.4552</lon>
<active>1</active>
</city>
<city>
<id>442623</id>
<name>Lancaster</name>
<state>MO</state>
<rating/>
<url>http://www.greatschools.org/city/Lancaster/MO</url>
<lat>40.5231</lat>
<lon>-92.5305</lon>
<active>1</active>
</city>
<city>
<id>435057</id>
<name>Laquey</name>
<state>MO</state>
<rating>3</rating>
<url>http://www.greatschools.org/city/Laquey/MO</url>
<lat>37.7263</lat>
<lon>-92.3308</lon>
<active>1</active>
</city>
<city>
<id>435056</id>
<name>Laredo</name>
<state>MO</state>
<rating/>
<url>http://www.greatschools.org/city/Laredo/MO</url>
<lat>40.0258</lat>
<lon>-93.4482</lon>
<active>1</active>
</city>
<city>
<id>434691</id>
<name>Latham</name>
<state>MO</state>
<rating>5</rating>
<url>http://www.greatschools.org/city/Latham/MO</url>
<lat>38.5381</lat>
<lon>-92.6907</lon>
<active>1</active>
</city>
<city>
<id>435055</id>
<name>Lathrop</name>
<state>MO</state>
<rating>7</rating>
<url>http://www.greatschools.org/city/Lathrop/MO</url>
<lat>39.5487</lat>
<lon>-94.3291</lon>
<active>1</active>
</city>
<city>
<id>442622</id>
<name>Laurie</name>
<state>MO</state>
<rating/>
<url>http://www.greatschools.org/city/Laurie/MO</url>
<lat>38.2062</lat>
<lon>-92.8254</lon>
<active>1</active>
</city>
<city>
<id>435054</id>
<name>Lawson</name>
<state>MO</state>
<rating>8</rating>
<url>http://www.greatschools.org/city/Lawson/MO</url>
<lat>39.4375</lat>
<lon>-94.2056</lon>
<active>1</active>
</city>
<city>
<id>435053</id>
<name>Leadwood</name>
<state>MO</state>
<rating>8</rating>
<url>http://www.greatschools.org/city/Leadwood/MO</url>
<lat>37.8636</lat>
<lon>-90.5909</lon>
<active>1</active>
</city>
<city>
<id>434726</id>
<name>Lebanon</name>
<state>MO</state>
<rating>7</rating>
<url>http://www.greatschools.org/city/Lebanon/MO</url>
<lat>37.6755</lat>
<lon>-92.662</lon>
<active>1</active>
</city>
<city>
<id>434649</id>
<name>Lee's Summit</name>
<state>MO</state>
<rating>8</rating>
<url>http://www.greatschools.org/city/Lee's_Summit/MO</url>
<lat>38.9232</lat>
<lon>-94.3711</lon>
<active>1</active>
</city>
<city>
<id>445199</id>
<name>Lees Summit</name>
<state>MO</state>
<rating/>
<url>http://www.greatschools.org/city/Lees_Summit/MO</url>
<lat>38.9197</lat>
<lon>-94.2846</lon>
<active>1</active>
</city>
<city>
<id>434725</id>
<name>Leeton</name>
<state>MO</state>
<rating>6</rating>
<url>http://www.greatschools.org/city/Leeton/MO</url>
<lat>38.5837</lat>
<lon>-93.6949</lon>
<active>1</active>
</city>
<city>
<id>435093</id>
<name>Lemay</name>
<state>MO</state>
<rating>6</rating>
<url>http://www.greatschools.org/city/Lemay/MO</url>
<lat>38.5314</lat>
<lon>-90.2856</lon>
<active>1</active>
</city>
<city>
<id>435051</id>
<name>Leopold</name>
<state>MO</state>
<rating>9</rating>
<url>http://www.greatschools.org/city/Leopold/MO</url>
<lat>37.2612</lat>
<lon>-89.9189</lon>
<active>1</active>
</city>
<city>
<id>435050</id>
<name>Lesterville</name>
<state>MO</state>
<rating>7</rating>
<url>http://www.greatschools.org/city/Lesterville/MO</url>
<lat>37.4789</lat>
<lon>-90.8398</lon>
<active>1</active>
</city>
<city>
<id>435048</id>
<name>Lewistown</name>
<state>MO</state>
<rating>7</rating>
<url>http://www.greatschools.org/city/Lewistown/MO</url>
<lat>40.085</lat>
<lon>-91.8133</lon>
<active>1</active>
</city>
<city>
<id>434788</id>
<name>Lexington</name>
<state>MO</state>
<rating>4</rating>
<url>http://www.greatschools.org/city/Lexington/MO</url>
<lat>39.1809</lat>
<lon>-93.8739</lon>
<active>1</active>
</city>
<city>
<id>434734</id>
<name>Liberal</name>
<state>MO</state>
<rating>4</rating>
<url>http://www.greatschools.org/city/Liberal/MO</url>
<lat>37.5595</lat>
<lon>-94.5183</lon>
<active>1</active>
</city>
<city>
<id>434627</id>
<name>Liberty</name>
<state>MO</state>
<rating>7</rating>
<url>http://www.greatschools.org/city/Liberty/MO</url>
<lat>39.242</lat>
<lon>-94.4273</lon>
<active>1</active>
</city>
<city>
<id>435047</id>
<name>Licking</name>
<state>MO</state>
<rating>6</rating>
<url>http://www.greatschools.org/city/Licking/MO</url>
<lat>37.4967</lat>
<lon>-91.8573</lon>
<active>1</active>
</city>
<city>
<id>435199</id>
<name>Lilbourn</name>
<state>MO</state>
<rating>4</rating>
<url>http://www.greatschools.org/city/Lilbourn/MO</url>
<lat>36.5902</lat>
<lon>-89.6132</lon>
<active>1</active>
</city>
<city>
<id>435046</id>
<name>Lincoln</name>
<state>MO</state>
<rating>7</rating>
<url>http://www.greatschools.org/city/Lincoln/MO</url>
<lat>38.3936</lat>
<lon>-93.3308</lon>
<active>1</active>
</city>
<city>
<id>434819</id>
<name>Linn</name>
<state>MO</state>
<rating>6</rating>
<url>http://www.greatschools.org/city/Linn/MO</url>
<lat>38.4796</lat>
<lon>-91.8441</lon>
<active>1</active>
</city>
<city>
<id>442621</id>
<name>Linn Creek</name>
<state>MO</state>
<rating/>
<url>http://www.greatschools.org/city/Linn_Creek/MO</url>
<lat>38.0405</lat>
<lon>-92.711</lon>
<active>1</active>
</city>
<city>
<id>434785</id>
<name>Lockwood</name>
<state>MO</state>
<rating>4</rating>
<url>http://www.greatschools.org/city/Lockwood/MO</url>
<lat>37.3868</lat>
<lon>-93.9538</lon>
<active>1</active>
</city>
<city>
<id>442620</id>
<name>Lohman</name>
<state>MO</state>
<rating/>
<url>http://www.greatschools.org/city/Lohman/MO</url>
<lat>38.5439</lat>
<lon>-92.3641</lon>
<active>1</active>
</city>
<city>
<id>434733</id>
<name>Lone Jack</name>
<state>MO</state>
<rating>7</rating>
<url>http://www.greatschools.org/city/Lone_Jack/MO</url>
<lat>38.8715</lat>
<lon>-94.1722</lon>
<active>1</active>
</city>
<city>
<id>435044</id>
<name>Lonedell</name>
<state>MO</state>
<rating>7</rating>
<url>http://www.greatschools.org/city/Lonedell/MO</url>
<lat>38.2686</lat>
<lon>-90.8422</lon>
<active>1</active>
</city>
<city>
<id>435161</id>
<name>Long Lane</name>
<state>MO</state>
<rating>5</rating>
<url>http://www.greatschools.org/city/Long_Lane/MO</url>
<lat>37.5905</lat>
<lon>-92.9469</lon>
<active>1</active>
</city>
<city>
<id>434820</id>
<name>Loose Creek</name>
<state>MO</state>
<rating/>
<url>http://www.greatschools.org/city/Loose_Creek/MO</url>
<lat>38.4731</lat>
<lon>-91.9604</lon>
<active>1</active>
</city>
<city>
<id>435162</id>
<name>Louisburg</name>
<state>MO</state>
<rating/>
<url>http://www.greatschools.org/city/Louisburg/MO</url>
<lat>37.7565</lat>
<lon>-93.1418</lon>
<active>1</active>
</city>
<city>
<id>435043</id>
<name>Louisiana</name>
<state>MO</state>
<rating>4</rating>
<url>http://www.greatschools.org/city/Louisiana/MO</url>
<lat>39.4457</lat>
<lon>-91.0592</lon>
<active>1</active>
</city>
<city>
<id>445200</id>
<name>Lowry City</name>
<state>MO</state>
<rating/>
<url>http://www.greatschools.org/city/Lowry_City/MO</url>
<lat>38.1458</lat>
<lon>-93.7231</lon>
<active>1</active>
</city>
<city>
<id>434904</id>
<name>Ludlow</name>
<state>MO</state>
<rating>5</rating>
<url>http://www.greatschools.org/city/Ludlow/MO</url>
<lat>39.6544</lat>
<lon>-93.7027</lon>
<active>1</active>
</city>
<city>
<id>442619</id>
<name>Luebbering</name>
<state>MO</state>
<rating/>
<url>http://www.greatschools.org/city/Luebbering/MO</url>
<lat>38.2686</lat>
<lon>-90.8422</lon>
<active>1</active>
</city>
<city>
<id>435042</id>
<name>Luray</name>
<state>MO</state>
<rating/>
<url>http://www.greatschools.org/city/Luray/MO</url>
<lat>40.4526</lat>
<lon>-91.8841</lon>
<active>1</active>
</city>
<city>
<id>435041</id>
<name>Macks Creek</name>
<state>MO</state>
<rating>5</rating>
<url>http://www.greatschools.org/city/Macks_Creek/MO</url>
<lat>37.9645</lat>
<lon>-92.9742</lon>
<active>1</active>
</city>
<city>
<id>434685</id>
<name>Macon</name>
<state>MO</state>
<rating>6</rating>
<url>http://www.greatschools.org/city/Macon/MO</url>
<lat>39.7414</lat>
<lon>-92.4697</lon>
<active>1</active>
</city>
<city>
<id>435020</id>
<name>Madison</name>
<state>MO</state>
<rating>5</rating>
<url>http://www.greatschools.org/city/Madison/MO</url>
<lat>39.474</lat>
<lon>-92.2118</lon>
<active>1</active>
</city>
<city>
<id>434723</id>
<name>Maitland</name>
<state>MO</state>
<rating>6</rating>
<url>http://www.greatschools.org/city/Maitland/MO</url>
<lat>40.2018</lat>
<lon>-95.0763</lon>
<active>1</active>
</city>
<city>
<id>435040</id>
<name>Malden</name>
<state>MO</state>
<rating>7</rating>
<url>http://www.greatschools.org/city/Malden/MO</url>
<lat>36.5663</lat>
<lon>-89.9686</lon>
<active>1</active>
</city>
<city>
<id>435039</id>
<name>Malta Bend</name>
<state>MO</state>
<rating>3</rating>
<url>http://www.greatschools.org/city/Malta_Bend/MO</url>
<lat>39.1937</lat>
<lon>-93.3632</lon>
<active>1</active>
</city>
<city>
<id>434776</id>
<name>Manchester</name>
<state>MO</state>
<rating>9</rating>
<url>http://www.greatschools.org/city/Manchester/MO</url>
<lat>38.5806</lat>
<lon>-90.5038</lon>
<active>1</active>
</city>
<city>
<id>442618</id>
<name>Manes</name>
<state>MO</state>
<rating/>
<url>http://www.greatschools.org/city/Manes/MO</url>
<lat>37.1338</lat>
<lon>-92.2633</lon>
<active>1</active>
</city>
<city>
<id>435038</id>
<name>Mansfield</name>
<state>MO</state>
<rating>6</rating>
<url>http://www.greatschools.org/city/Mansfield/MO</url>
<lat>37.1083</lat>
<lon>-92.5813</lon>
<active>1</active>
</city>
<city>
<id>444483</id>
<name>Mapaville</name>
<state>MO</state>
<rating/>
<url>http://www.greatschools.org/city/Mapaville/MO</url>
<lat>38.2469</lat>
<lon>-90.4796</lon>
<active>1</active>
</city>
<city>
<id>435037</id>
<name>Maplewood</name>
<state>MO</state>
<rating>6</rating>
<url>http://www.greatschools.org/city/Maplewood/MO</url>
<lat>38.6132</lat>
<lon>-90.3218</lon>
<active>1</active>
</city>
<city>
<id>434604</id>
<name>Marble Hill</name>
<state>MO</state>
<rating>5</rating>
<url>http://www.greatschools.org/city/Marble_Hill/MO</url>
<lat>37.302</lat>
<lon>-89.9769</lon>
<active>1</active>
</city>
<city>
<id>434821</id>
<name>Marceline</name>
<state>MO</state>
<rating>7</rating>
<url>http://www.greatschools.org/city/Marceline/MO</url>
<lat>39.7167</lat>
<lon>-92.9478</lon>
<active>1</active>
</city>
<city>
<id>435034</id>
<name>Marionville</name>
<state>MO</state>
<rating>5</rating>
<url>http://www.greatschools.org/city/Marionville/MO</url>
<lat>36.9996</lat>
<lon>-93.6393</lon>
<active>1</active>
</city>
<city>
<id>435032</id>
<name>Marquand</name>
<state>MO</state>
<rating>5</rating>
<url>http://www.greatschools.org/city/Marquand/MO</url>
<lat>37.4285</lat>
<lon>-90.1672</lon>
<active>1</active>
</city>
<city>
<id>434743</id>
<name>Marshall</name>
<state>MO</state>
<rating/>
<url>http://www.greatschools.org/city/Marshall/MO</url>
<lat>39.1155</lat>
<lon>-93.1966</lon>
<active>1</active>
</city>
<city>
<id>435031</id>
<name>Marshfield</name>
<state>MO</state>
<rating>7</rating>
<url>http://www.greatschools.org/city/Marshfield/MO</url>
<lat>37.3395</lat>
<lon>-92.9087</lon>
<active>1</active>
</city>
<city>
<id>434834</id>
<name>Marthasville</name>
<state>MO</state>
<rating>6</rating>
<url>http://www.greatschools.org/city/Marthasville/MO</url>
<lat>38.6299</lat>
<lon>-91.0537</lon>
<active>1</active>
</city>
<city>
<id>434822</id>
<name>Martinsburg</name>
<state>MO</state>
<rating/>
<url>http://www.greatschools.org/city/Martinsburg/MO</url>
<lat>39.1006</lat>
<lon>-91.6471</lon>
<active>1</active>
</city>
<city>
<id>434668</id>
<name>Maryland Heights</name>
<state>MO</state>
<rating>8</rating>
<url>http://www.greatschools.org/city/Maryland_Heights/MO</url>
<lat>38.7196</lat>
<lon>-90.4493</lon>
<active>1</active>
</city>
<city>
<id>434771</id>
<name>Maryville</name>
<state>MO</state>
<rating>7</rating>
<url>http://www.greatschools.org/city/Maryville/MO</url>
<lat>40.3472</lat>
<lon>-94.8762</lon>
<active>1</active>
</city>
<city>
<id>435198</id>
<name>Matthews</name>
<state>MO</state>
<rating>6</rating>
<url>http://www.greatschools.org/city/Matthews/MO</url>
<lat>36.7568</lat>
<lon>-89.5871</lon>
<active>1</active>
</city>
<city>
<id>435030</id>
<name>Maysville</name>
<state>MO</state>
<rating>7</rating>
<url>http://www.greatschools.org/city/Maysville/MO</url>
<lat>39.8864</lat>
<lon>-94.3625</lon>
<active>1</active>
</city>
<city>
<id>442617</id>
<name>Maywood</name>
<state>MO</state>
<rating/>
<url>http://www.greatschools.org/city/Maywood/MO</url>
<lat>39.9318</lat>
<lon>-91.6188</lon>
<active>1</active>
</city>
<city>
<id>435025</id>
<name>Meadville</name>
<state>MO</state>
<rating>7</rating>
<url>http://www.greatschools.org/city/Meadville/MO</url>
<lat>39.7878</lat>
<lon>-93.3013</lon>
<active>1</active>
</city>
<city>
<id>435024</id>
<name>Memphis</name>
<state>MO</state>
<rating>7</rating>
<url>http://www.greatschools.org/city/Memphis/MO</url>
<lat>40.4615</lat>
<lon>-92.1703</lon>
<active>1</active>
</city>
<city>
<id>434984</id>
<name>Mendon</name>
<state>MO</state>
<rating>5</rating>
<url>http://www.greatschools.org/city/Mendon/MO</url>
<lat>39.5906</lat>
<lon>-93.1334</lon>
<active>1</active>
</city>
<city>
<id>435023</id>
<name>Mercer</name>
<state>MO</state>
<rating>4</rating>
<url>http://www.greatschools.org/city/Mercer/MO</url>
<lat>40.5104</lat>
<lon>-93.5297</lon>
<active>1</active>
</city>
<city>
<id>434658</id>
<name>Mexico</name>
<state>MO</state>
<rating>4</rating>
<url>http://www.greatschools.org/city/Mexico/MO</url>
<lat>39.1694</lat>
<lon>-91.8889</lon>
<active>1</active>
</city>
<city>
<id>435021</id>
<name>Miami</name>
<state>MO</state>
<rating/>
<url>http://www.greatschools.org/city/Miami/MO</url>
<lat>39.3201</lat>
<lon>-93.2266</lon>
<active>1</active>
</city>
<city>
<id>434630</id>
<name>Milan</name>
<state>MO</state>
<rating>3</rating>
<url>http://www.greatschools.org/city/Milan/MO</url>
<lat>40.2011</lat>
<lon>-93.1246</lon>
<active>1</active>
</city>
<city>
<id>435018</id>
<name>Miller</name>
<state>MO</state>
<rating>5</rating>
<url>http://www.greatschools.org/city/Miller/MO</url>
<lat>37.2152</lat>
<lon>-93.841</lon>
<active>1</active>
</city>
<city>
<id>435074</id>
<name>Millersville</name>
<state>MO</state>
<rating>10</rating>
<url>http://www.greatschools.org/city/Millersville/MO</url>
<lat>37.4386</lat>
<lon>-89.8205</lon>
<active>1</active>
</city>
<city>
<id>442616</id>
<name>Mineral Point</name>
<state>MO</state>
<rating/>
<url>http://www.greatschools.org/city/Mineral_Point/MO</url>
<lat>37.9457</lat>
<lon>-90.7248</lon>
<active>1</active>
</city>
<city>
<id>435017</id>
<name>Missouri City</name>
<state>MO</state>
<rating/>
<url>http://www.greatschools.org/city/Missouri_City/MO</url>
<lat>39.2398</lat>
<lon>-94.295</lon>
<active>1</active>
</city>
<city>
<id>434724</id>
<name>Moberly</name>
<state>MO</state>
<rating/>
<url>http://www.greatschools.org/city/Moberly/MO</url>
<lat>39.4173</lat>
<lon>-92.4376</lon>
<active>1</active>
</city>
<city>
<id>434911</id>
<name>Mokane</name>
<state>MO</state>
<rating>6</rating>
<url>http://www.greatschools.org/city/Mokane/MO</url>
<lat>38.6763</lat>
<lon>-91.8753</lon>
<active>1</active>
</city>
<city>
<id>442615</id>
<name>Moline Acres</name>
<state>MO</state>
<rating/>
<url>http://www.greatschools.org/city/Moline_Acres/MO</url>
<lat>38.7459</lat>
<lon>-90.2442</lon>
<active>1</active>
</city>
<city>
<id>434797</id>
<name>Monett</name>
<state>MO</state>
<rating>5</rating>
<url>http://www.greatschools.org/city/Monett/MO</url>
<lat>36.9244</lat>
<lon>-93.9252</lon>
<active>1</active>
</city>
<city>
<id>434823</id>
<name>Monroe City</name>
<state>MO</state>
<rating>6</rating>
<url>http://www.greatschools.org/city/Monroe_City/MO</url>
<lat>39.6532</lat>
<lon>-91.7321</lon>
<active>1</active>
</city>
<city>
<id>434758</id>
<name>Montgomery City</name>
<state>MO</state>
<rating>4</rating>
<url>http://www.greatschools.org/city/Montgomery_City/MO</url>
<lat>38.9777</lat>
<lon>-91.505</lon>
<active>1</active>
</city>
<city>
<id>434809</id>
<name>Montrose</name>
<state>MO</state>
<rating>6</rating>
<url>http://www.greatschools.org/city/Montrose/MO</url>
<lat>38.2586</lat>
<lon>-93.9828</lon>
<active>1</active>
</city>
<city>
<id>444522</id>
<name>Morehouse</name>
<state>MO</state>
<rating/>
<url>http://www.greatschools.org/city/Morehouse/MO</url>
<lat>36.8464</lat>
<lon>-89.6911</lon>
<active>1</active>
</city>
<city>
<id>442612</id>
<name>Morley</name>
<state>MO</state>
<rating/>
<url>http://www.greatschools.org/city/Morley/MO</url>
<lat>37.0426</lat>
<lon>-89.6127</lon>
<active>1</active>
</city>
<city>
<id>435036</id>
<name>Morrisville</name>
<state>MO</state>
<rating>7</rating>
<url>http://www.greatschools.org/city/Morrisville/MO</url>
<lat>37.4803</lat>
<lon>-93.4274</lon>
<active>1</active>
</city>
<city>
<id>434878</id>
<name>Moscow Mills</name>
<state>MO</state>
<rating>5</rating>
<url>http://www.greatschools.org/city/Moscow_Mills/MO</url>
<lat>38.9492</lat>
<lon>-90.9243</lon>
<active>1</active>
</city>
<city>
<id>435013</id>
<name>Mound City</name>
<state>MO</state>
<rating>7</rating>
<url>http://www.greatschools.org/city/Mound_City/MO</url>
<lat>40.1374</lat>
<lon>-95.2318</lon>
<active>1</active>
</city>
<city>
<id>435011</id>
<name>Mount Vernon</name>
<state>MO</state>
<rating>6</rating>
<url>http://www.greatschools.org/city/Mount_Vernon/MO</url>
<lat>37.0995</lat>
<lon>-93.8177</lon>
<active>1</active>
</city>
<city>
<id>434763</id>
<name>Mountain Grove</name>
<state>MO</state>
<rating>5</rating>
<url>http://www.greatschools.org/city/Mountain_Grove/MO</url>
<lat>37.1311</lat>
<lon>-92.2635</lon>
<active>1</active>
</city>
<city>
<id>434673</id>
<name>Mountain View</name>
<state>MO</state>
<rating>6</rating>
<url>http://www.greatschools.org/city/Mountain_View/MO</url>
<lat>36.9944</lat>
<lon>-91.7024</lon>
<active>1</active>
</city>
<city>
<id>446150</id>
<name>Mt Vernon</name>
<state>MO</state>
<rating/>
<url>http://www.greatschools.org/city/Mt_Vernon/MO</url>
<lat>37.1113</lat>
<lon>-93.8347</lon>
<active>1</active>
</city>
<city>
<id>435140</id>
<name>Myrtle</name>
<state>MO</state>
<rating>5</rating>
<url>http://www.greatschools.org/city/Myrtle/MO</url>
<lat>36.522</lat>
<lon>-91.2727</lon>
<active>1</active>
</city>
<city>
<id>435006</id>
<name>Naylor</name>
<state>MO</state>
<rating>6</rating>
<url>http://www.greatschools.org/city/Naylor/MO</url>
<lat>36.5737</lat>
<lon>-90.6036</lon>
<active>1</active>
</city>
<city>
<id>435004</id>
<name>Neelyville</name>
<state>MO</state>
<rating>6</rating>
<url>http://www.greatschools.org/city/Neelyville/MO</url>
<lat>36.5548</lat>
<lon>-90.5144</lon>
<active>1</active>
</city>
<city>
<id>442611</id>
<name>Nelson</name>
<state>MO</state>
<rating/>
<url>http://www.greatschools.org/city/Nelson/MO</url>
<lat>38.9951</lat>
<lon>-93.0326</lon>
<active>1</active>
</city>
<city>
<id>434623</id>
<name>Neosho</name>
<state>MO</state>
<rating>6</rating>
<url>http://www.greatschools.org/city/Neosho/MO</url>
<lat>36.8618</lat>
<lon>-94.3737</lon>
<active>1</active>
</city>
<city>
<id>434750</id>
<name>Nevada</name>
<state>MO</state>
<rating/>
<url>http://www.greatschools.org/city/Nevada/MO</url>
<lat>37.8419</lat>
<lon>-94.3591</lon>
<active>1</active>
</city>
<city>
<id>435002</id>
<name>New Bloomfield</name>
<state>MO</state>
<rating>5</rating>
<url>http://www.greatschools.org/city/New_Bloomfield/MO</url>
<lat>38.7181</lat>
<lon>-92.0892</lon>
<active>1</active>
</city>
<city>
<id>435001</id>
<name>New Cambria</name>
<state>MO</state>
<rating>4</rating>
<url>http://www.greatschools.org/city/New_Cambria/MO</url>
<lat>39.7762</lat>
<lon>-92.7504</lon>
<active>1</active>
</city>
<city>
<id>445201</id>
<name>New Florence</name>
<state>MO</state>
<rating/>
<url>http://www.greatschools.org/city/New_Florence/MO</url>
<lat>38.9103</lat>
<lon>-91.4482</lon>
<active>1</active>
</city>
<city>
<id>434774</id>
<name>New Franklin</name>
<state>MO</state>
<rating>6</rating>
<url>http://www.greatschools.org/city/New_Franklin/MO</url>
<lat>39.0184</lat>
<lon>-92.7405</lon>
<active>1</active>
</city>
<city>
<id>446151</id>
<name>New Hampton</name>
<state>MO</state>
<rating/>
<url>http://www.greatschools.org/city/New_Hampton/MO</url>
<lat>40.2636</lat>
<lon>-94.1961</lon>
<active>1</active>
</city>
<city>
<id>434732</id>
<name>New Haven</name>
<state>MO</state>
<rating>7</rating>
<url>http://www.greatschools.org/city/New_Haven/MO</url>
<lat>38.6081</lat>
<lon>-91.2202</lon>
<active>1</active>
</city>
<city>
<id>434948</id>
<name>New London</name>
<state>MO</state>
<rating>5</rating>
<url>http://www.greatschools.org/city/New_London/MO</url>
<lat>39.5852</lat>
<lon>-91.3997</lon>
<active>1</active>
</city>
<city>
<id>434798</id>
<name>New Madrid</name>
<state>MO</state>
<rating>4</rating>
<url>http://www.greatschools.org/city/New_Madrid/MO</url>
<lat>36.5915</lat>
<lon>-89.5327</lon>
<active>1</active>
</city>
<city>
<id>434999</id>
<name>Newburg</name>
<state>MO</state>
<rating>4</rating>
<url>http://www.greatschools.org/city/Newburg/MO</url>
<lat>37.9171</lat>
<lon>-91.9005</lon>
<active>1</active>
</city>
<city>
<id>434998</id>
<name>Newtown</name>
<state>MO</state>
<rating>2</rating>
<url>http://www.greatschools.org/city/Newtown/MO</url>
<lat>40.3764</lat>
<lon>-93.3347</lon>
<active>1</active>
</city>
<city>
<id>434997</id>
<name>Niangua</name>
<state>MO</state>
<rating>4</rating>
<url>http://www.greatschools.org/city/Niangua/MO</url>
<lat>37.388</lat>
<lon>-92.8306</lon>
<active>1</active>
</city>
<city>
<id>434618</id>
<name>Nixa</name>
<state>MO</state>
<rating>10</rating>
<url>http://www.greatschools.org/city/Nixa/MO</url>
<lat>37.0435</lat>
<lon>-93.3013</lon>
<active>1</active>
</city>
<city>
<id>435029</id>
<name>Noel</name>
<state>MO</state>
<rating>5</rating>
<url>http://www.greatschools.org/city/Noel/MO</url>
<lat>36.5419</lat>
<lon>-94.4851</lon>
<active>1</active>
</city>
<city>
<id>434995</id>
<name>Norborne</name>
<state>MO</state>
<rating>4</rating>
<url>http://www.greatschools.org/city/Norborne/MO</url>
<lat>39.3013</lat>
<lon>-93.676</lon>
<active>1</active>
</city>
<city>
<id>434832</id>
<name>Normandy</name>
<state>MO</state>
<rating/>
<url>http://www.greatschools.org/city/Normandy/MO</url>
<lat>38.7139</lat>
<lon>-90.2996</lon>
<active>1</active>
</city>
<city>
<id>434721</id>
<name>Norwood</name>
<state>MO</state>
<rating>5</rating>
<url>http://www.greatschools.org/city/Norwood/MO</url>
<lat>37.1076</lat>
<lon>-92.4167</lon>
<active>1</active>
</city>
<city>
<id>434983</id>
<name>Novinger</name>
<state>MO</state>
<rating>5</rating>
<url>http://www.greatschools.org/city/Novinger/MO</url>
<lat>40.2336</lat>
<lon>-92.7066</lon>
<active>1</active>
</city>
<city>
<id>434648</id>
<name>O'Fallon</name>
<state>MO</state>
<rating>8</rating>
<url>http://www.greatschools.org/city/O'Fallon/MO</url>
<lat>38.7826</lat>
<lon>-90.705</lon>
<active>1</active>
</city>
<city>
<id>434982</id>
<name>Oak Grove</name>
<state>MO</state>
<rating>7</rating>
<url>http://www.greatschools.org/city/Oak_Grove/MO</url>
<lat>39.0</lat>
<lon>-94.1253</lon>
<active>1</active>
</city>
<city>
<id>434981</id>
<name>Oak Ridge</name>
<state>MO</state>
<rating>6</rating>
<url>http://www.greatschools.org/city/Oak_Ridge/MO</url>
<lat>37.5002</lat>
<lon>-89.7294</lon>
<active>1</active>
</city>
<city>
<id>445202</id>
<name>Oakland</name>
<state>MO</state>
<rating/>
<url>http://www.greatschools.org/city/Oakland/MO</url>
<lat>38.5682</lat>
<lon>-90.3908</lon>
<active>1</active>
</city>
<city>
<id>434980</id>
<name>Odessa</name>
<state>MO</state>
<rating>6</rating>
<url>http://www.greatschools.org/city/Odessa/MO</url>
<lat>38.9966</lat>
<lon>-93.9524</lon>
<active>1</active>
</city>
<city>
<id>434836</id>
<name>Old Monroe</name>
<state>MO</state>
<rating/>
<url>http://www.greatschools.org/city/Old_Monroe/MO</url>
<lat>38.9309</lat>
<lon>-90.7487</lon>
<active>1</active>
</city>
<city>
<id>434754</id>
<name>Olivette</name>
<state>MO</state>
<rating/>
<url>http://www.greatschools.org/city/Olivette/MO</url>
<lat>38.6721</lat>
<lon>-90.3783</lon>
<active>1</active>
</city>
<city>
<id>434799</id>
<name>Oran</name>
<state>MO</state>
<rating>7</rating>
<url>http://www.greatschools.org/city/Oran/MO</url>
<lat>37.0856</lat>
<lon>-89.6541</lon>
<active>1</active>
</city>
<city>
<id>434979</id>
<name>Oregon</name>
<state>MO</state>
<rating>6</rating>
<url>http://www.greatschools.org/city/Oregon/MO</url>
<lat>39.9864</lat>
<lon>-95.1445</lon>
<active>1</active>
</city>
<city>
<id>434978</id>
<name>Orrick</name>
<state>MO</state>
<rating>6</rating>
<url>http://www.greatschools.org/city/Orrick/MO</url>
<lat>39.2112</lat>
<lon>-94.1248</lon>
<active>1</active>
</city>
<city>
<id>434924</id>
<name>Osage Beach</name>
<state>MO</state>
<rating>8</rating>
<url>http://www.greatschools.org/city/Osage_Beach/MO</url>
<lat>38.1403</lat>
<lon>-92.6451</lon>
<active>1</active>
</city>
<city>
<id>434977</id>
<name>Osborn</name>
<state>MO</state>
<rating>6</rating>
<url>http://www.greatschools.org/city/Osborn/MO</url>
<lat>39.7495</lat>
<lon>-94.356</lon>
<active>1</active>
</city>
<city>
<id>434976</id>
<name>Osceola</name>
<state>MO</state>
<rating>5</rating>
<url>http://www.greatschools.org/city/Osceola/MO</url>
<lat>38.0454</lat>
<lon>-93.6991</lon>
<active>1</active>
</city>
<city>
<id>434975</id>
<name>Otterville</name>
<state>MO</state>
<rating>6</rating>
<url>http://www.greatschools.org/city/Otterville/MO</url>
<lat>38.7017</lat>
<lon>-93.0022</lon>
<active>1</active>
</city>
<city>
<id>434768</id>
<name>Overland</name>
<state>MO</state>
<rating/>
<url>http://www.greatschools.org/city/Overland/MO</url>
<lat>38.699</lat>
<lon>-90.3705</lon>
<active>1</active>
</city>
<city>
<id>434619</id>
<name>Owensville</name>
<state>MO</state>
<rating>6</rating>
<url>http://www.greatschools.org/city/Owensville/MO</url>
<lat>38.347</lat>
<lon>-91.4992</lon>
<active>1</active>
</city>
<city>
<id>434615</id>
<name>Ozark</name>
<state>MO</state>
<rating>9</rating>
<url>http://www.greatschools.org/city/Ozark/MO</url>
<lat>37.0256</lat>
<lon>-93.2098</lon>
<active>1</active>
</city>
<city>
<id>434647</id>
<name>Pacific</name>
<state>MO</state>
<rating>6</rating>
<url>http://www.greatschools.org/city/Pacific/MO</url>
<lat>38.4811</lat>
<lon>-90.757</lon>
<active>1</active>
</city>
<city>
<id>434782</id>
<name>Palmyra</name>
<state>MO</state>
<rating>7</rating>
<url>http://www.greatschools.org/city/Palmyra/MO</url>
<lat>39.7971</lat>
<lon>-91.5253</lon>
<active>1</active>
</city>
<city>
<id>434969</id>
<name>Paris</name>
<state>MO</state>
<rating>6</rating>
<url>http://www.greatschools.org/city/Paris/MO</url>
<lat>39.478</lat>
<lon>-92.0027</lon>
<active>1</active>
</city>
<city>
<id>434898</id>
<name>Park Hills</name>
<state>MO</state>
<rating>8</rating>
<url>http://www.greatschools.org/city/Park_Hills/MO</url>
<lat>37.8485</lat>
<lon>-90.5141</lon>
<active>1</active>
</city>
<city>
<id>434807</id>
<name>Parkville</name>
<state>MO</state>
<rating>10</rating>
<url>http://www.greatschools.org/city/Parkville/MO</url>
<lat>39.2</lat>
<lon>-94.678</lon>
<active>1</active>
</city>
<city>
<id>445203</id>
<name>Parma</name>
<state>MO</state>
<rating/>
<url>http://www.greatschools.org/city/Parma/MO</url>
<lat>36.6131</lat>
<lon>-89.822</lon>
<active>1</active>
</city>
<city>
<id>434967</id>
<name>Patton</name>
<state>MO</state>
<rating>6</rating>
<url>http://www.greatschools.org/city/Patton/MO</url>
<lat>37.4219</lat>
<lon>-90.0692</lon>
<active>1</active>
</city>
<city>
<id>434966</id>
<name>Pattonsburg</name>
<state>MO</state>
<rating>6</rating>
<url>http://www.greatschools.org/city/Pattonsburg/MO</url>
<lat>40.0711</lat>
<lon>-94.1068</lon>
<active>1</active>
</city>
<city>
<id>434646</id>
<name>Peculiar</name>
<state>MO</state>
<rating>7</rating>
<url>http://www.greatschools.org/city/Peculiar/MO</url>
<lat>38.7228</lat>
<lon>-94.4609</lon>
<active>1</active>
</city>
<city>
<id>442608</id>
<name>Perry</name>
<state>MO</state>
<rating/>
<url>http://www.greatschools.org/city/Perry/MO</url>
<lat>39.4292</lat>
<lon>-91.6686</lon>
<active>1</active>
</city>
<city>
<id>434764</id>
<name>Perryville</name>
<state>MO</state>
<rating>4</rating>
<url>http://www.greatschools.org/city/Perryville/MO</url>
<lat>37.7262</lat>
<lon>-89.8695</lon>
<active>1</active>
</city>
<city>
<id>435089</id>
<name>Pevely</name>
<state>MO</state>
<rating>7</rating>
<url>http://www.greatschools.org/city/Pevely/MO</url>
<lat>38.282</lat>
<lon>-90.3964</lon>
<active>1</active>
</city>
<city>
<id>435035</id>
<name>Philadelphia</name>
<state>MO</state>
<rating>7</rating>
<url>http://www.greatschools.org/city/Philadelphia/MO</url>
<lat>39.842</lat>
<lon>-91.7528</lon>
<active>1</active>
</city>
<city>
<id>435007</id>
<name>Pickering</name>
<state>MO</state>
<rating>3</rating>
<url>http://www.greatschools.org/city/Pickering/MO</url>
<lat>40.4498</lat>
<lon>-94.8421</lon>
<active>1</active>
</city>
<city>
<id>434747</id>
<name>Piedmont</name>
<state>MO</state>
<rating>4</rating>
<url>http://www.greatschools.org/city/Piedmont/MO</url>
<lat>37.1558</lat>
<lon>-90.6941</lon>
<active>1</active>
</city>
<city>
<id>434800</id>
<name>Pierce City</name>
<state>MO</state>
<rating>5</rating>
<url>http://www.greatschools.org/city/Pierce_City/MO</url>
<lat>36.948</lat>
<lon>-94.0029</lon>
<active>1</active>
</city>
<city>
<id>434824</id>
<name>Pilot Grove</name>
<state>MO</state>
<rating>5</rating>
<url>http://www.greatschools.org/city/Pilot_Grove/MO</url>
<lat>38.8722</lat>
<lon>-92.9132</lon>
<active>1</active>
</city>
<city>
<id>442607</id>
<name>Pilot Knob</name>
<state>MO</state>
<rating/>
<url>http://www.greatschools.org/city/Pilot_Knob/MO</url>
<lat>37.6245</lat>
<lon>-90.644</lon>
<active>1</active>
</city>
<city>
<id>442606</id>
<name>Pine Lawn</name>
<state>MO</state>
<rating/>
<url>http://www.greatschools.org/city/Pine_Lawn/MO</url>
<lat>38.695</lat>
<lon>-90.2761</lon>
<active>1</active>
</city>
<city>
<id>435026</id>
<name>Pineville</name>
<state>MO</state>
<rating>7</rating>
<url>http://www.greatschools.org/city/Pineville/MO</url>
<lat>36.5937</lat>
<lon>-94.3841</lon>
<active>1</active>
</city>
<city>
<id>434958</id>
<name>Plato</name>
<state>MO</state>
<rating>6</rating>
<url>http://www.greatschools.org/city/Plato/MO</url>
<lat>37.5286</lat>
<lon>-92.1677</lon>
<active>1</active>
</city>
<city>
<id>434957</id>
<name>Platte City</name>
<state>MO</state>
<rating>8</rating>
<url>http://www.greatschools.org/city/Platte_City/MO</url>
<lat>39.3618</lat>
<lon>-94.7795</lon>
<active>1</active>
</city>
<city>
<id>434956</id>
<name>Plattsburg</name>
<state>MO</state>
<rating>5</rating>
<url>http://www.greatschools.org/city/Plattsburg/MO</url>
<lat>39.5637</lat>
<lon>-94.4557</lon>
<active>1</active>
</city>
<city>
<id>434638</id>
<name>Pleasant Hill</name>
