<?xml version="1.0" encoding="utf-8"?><greatschools-city-feed xmlns:xsi="http://www.w3.org/2001/XMLSchema-instance" xsi:noNamespaceSchemaLocation="http://www.greatschools.org/feeds/greatschools-city2.xsd">
<city>
<id>423118</id>
<name>Accoville</name>
<state>WV</state>
<rating>1</rating>
<url>http://www.greatschools.org/city/Accoville/WV</url>
<lat>37.726</lat>
<lon>-81.8698</lon>
<active>1</active>
</city>
<city>
<id>422901</id>
<name>Alderson</name>
<state>WV</state>
<rating>7</rating>
<url>http://www.greatschools.org/city/Alderson/WV</url>
<lat>37.7281</lat>
<lon>-80.6422</lon>
<active>1</active>
</city>
<city>
<id>445861</id>
<name>Alloy</name>
<state>WV</state>
<rating/>
<url>http://www.greatschools.org/city/Alloy/WV</url>
<lat>38.1376</lat>
<lon>-81.2743</lon>
<active>1</active>
</city>
<city>
<id>423128</id>
<name>Alum Bridge</name>
<state>WV</state>
<rating>6</rating>
<url>http://www.greatschools.org/city/Alum_Bridge/WV</url>
<lat>39.0394</lat>
<lon>-80.7076</lon>
<active>1</active>
</city>
<city>
<id>423122</id>
<name>Alum Creek</name>
<state>WV</state>
<rating>3</rating>
<url>http://www.greatschools.org/city/Alum_Creek/WV</url>
<lat>38.2788</lat>
<lon>-81.8333</lon>
<active>1</active>
</city>
<city>
<id>423100</id>
<name>Anawalt</name>
<state>WV</state>
<rating>5</rating>
<url>http://www.greatschools.org/city/Anawalt/WV</url>
<lat>37.337</lat>
<lon>-81.4409</lon>
<active>1</active>
</city>
<city>
<id>443517</id>
<name>Anmoore</name>
<state>WV</state>
<rating/>
<url>http://www.greatschools.org/city/Anmoore/WV</url>
<lat>39.259</lat>
<lon>-80.2878</lon>
<active>1</active>
</city>
<city>
<id>423181</id>
<name>Ansted</name>
<state>WV</state>
<rating>2</rating>
<url>http://www.greatschools.org/city/Ansted/WV</url>
<lat>38.1366</lat>
<lon>-81.1021</lon>
<active>1</active>
</city>
<city>
<id>423188</id>
<name>Arnoldsburg</name>
<state>WV</state>
<rating>4</rating>
<url>http://www.greatschools.org/city/Arnoldsburg/WV</url>
<lat>38.8217</lat>
<lon>-81.1398</lon>
<active>1</active>
</city>
<city>
<id>423050</id>
<name>Arthurdale</name>
<state>WV</state>
<rating>4</rating>
<url>http://www.greatschools.org/city/Arthurdale/WV</url>
<lat>39.5166</lat>
<lon>-79.8098</lon>
<active>1</active>
</city>
<city>
<id>423211</id>
<name>Ashford</name>
<state>WV</state>
<rating>7</rating>
<url>http://www.greatschools.org/city/Ashford/WV</url>
<lat>38.1875</lat>
<lon>-81.6842</lon>
<active>1</active>
</city>
<city>
<id>423101</id>
<name>Ashton</name>
<state>WV</state>
<rating>3</rating>
<url>http://www.greatschools.org/city/Ashton/WV</url>
<lat>38.6031</lat>
<lon>-82.1123</lon>
<active>1</active>
</city>
<city>
<id>423093</id>
<name>Athens</name>
<state>WV</state>
<rating>7</rating>
<url>http://www.greatschools.org/city/Athens/WV</url>
<lat>37.4236</lat>
<lon>-81.0144</lon>
<active>1</active>
</city>
<city>
<id>423158</id>
<name>Augusta</name>
<state>WV</state>
<rating>6</rating>
<url>http://www.greatschools.org/city/Augusta/WV</url>
<lat>39.3004</lat>
<lon>-78.5911</lon>
<active>1</active>
</city>
<city>
<id>423049</id>
<name>Aurora</name>
<state>WV</state>
<rating>7</rating>
<url>http://www.greatschools.org/city/Aurora/WV</url>
<lat>39.3103</lat>
<lon>-79.5501</lon>
<active>1</active>
</city>
<city>
<id>422925</id>
<name>Avondale</name>
<state>WV</state>
<rating>3</rating>
<url>http://www.greatschools.org/city/Avondale/WV</url>
<lat>37.4525</lat>
<lon>-81.81</lon>
<active>1</active>
</city>
<city>
<id>423154</id>
<name>Baker</name>
<state>WV</state>
<rating>6</rating>
<url>http://www.greatschools.org/city/Baker/WV</url>
<lat>39.0687</lat>
<lon>-78.7747</lon>
<active>1</active>
</city>
<city>
<id>441892</id>
<name>Ballard</name>
<state>WV</state>
<rating/>
<url>http://www.greatschools.org/city/Ballard/WV</url>
<lat>37.4988</lat>
<lon>-80.7612</lon>
<active>1</active>
</city>
<city>
<id>422920</id>
<name>Barboursville</name>
<state>WV</state>
<rating>7</rating>
<url>http://www.greatschools.org/city/Barboursville/WV</url>
<lat>38.4066</lat>
<lon>-82.2961</lon>
<active>1</active>
</city>
<city>
<id>423113</id>
<name>Barrackville</name>
<state>WV</state>
<rating>7</rating>
<url>http://www.greatschools.org/city/Barrackville/WV</url>
<lat>39.5018</lat>
<lon>-80.169</lon>
<active>1</active>
</city>
<city>
<id>444283</id>
<name>Bartow</name>
<state>WV</state>
<rating/>
<url>http://www.greatschools.org/city/Bartow/WV</url>
<lat>38.551</lat>
<lon>-79.7894</lon>
<active>1</active>
</city>
<city>
<id>422940</id>
<name>Beaver</name>
<state>WV</state>
<rating/>
<url>http://www.greatschools.org/city/Beaver/WV</url>
<lat>37.7399</lat>
<lon>-81.1461</lon>
<active>1</active>
</city>
<city>
<id>422884</id>
<name>Beckley</name>
<state>WV</state>
<rating>6</rating>
<url>http://www.greatschools.org/city/Beckley/WV</url>
<lat>37.7819</lat>
<lon>-81.1857</lon>
<active>1</active>
</city>
<city>
<id>423196</id>
<name>Beech Bottom</name>
<state>WV</state>
<rating>4</rating>
<url>http://www.greatschools.org/city/Beech_Bottom/WV</url>
<lat>40.2258</lat>
<lon>-80.6518</lon>
<active>1</active>
</city>
<city>
<id>423218</id>
<name>Belington</name>
<state>WV</state>
<rating>3</rating>
<url>http://www.greatschools.org/city/Belington/WV</url>
<lat>39.0247</lat>
<lon>-79.9382</lon>
<active>1</active>
</city>
<city>
<id>422926</id>
<name>Belle</name>
<state>WV</state>
<rating>5</rating>
<url>http://www.greatschools.org/city/Belle/WV</url>
<lat>38.2318</lat>
<lon>-81.5393</lon>
<active>1</active>
</city>
<city>
<id>423057</id>
<name>Belmont</name>
<state>WV</state>
<rating>4</rating>
<url>http://www.greatschools.org/city/Belmont/WV</url>
<lat>39.3783</lat>
<lon>-81.2647</lon>
<active>1</active>
</city>
<city>
<id>422911</id>
<name>Belva</name>
<state>WV</state>
<rating/>
<url>http://www.greatschools.org/city/Belva/WV</url>
<lat>38.2445</lat>
<lon>-81.1533</lon>
<active>1</active>
</city>
<city>
<id>422966</id>
<name>Benwood</name>
<state>WV</state>
<rating/>
<url>http://www.greatschools.org/city/Benwood/WV</url>
<lat>40.0126</lat>
<lon>-80.7312</lon>
<active>1</active>
</city>
<city>
<id>422892</id>
<name>Berkeley Springs</name>
<state>WV</state>
<rating>5</rating>
<url>http://www.greatschools.org/city/Berkeley_Springs/WV</url>
<lat>39.583</lat>
<lon>-78.218</lon>
<active>1</active>
</city>
<city>
<id>423023</id>
<name>Beverly</name>
<state>WV</state>
<rating>5</rating>
<url>http://www.greatschools.org/city/Beverly/WV</url>
<lat>38.8414</lat>
<lon>-79.8723</lon>
<active>1</active>
</city>
<city>
<id>423095</id>
<name>Big Sandy</name>
<state>WV</state>
<rating>4</rating>
<url>http://www.greatschools.org/city/Big_Sandy/WV</url>
<lat>37.4617</lat>
<lon>-81.6664</lon>
<active>1</active>
</city>
<city>
<id>423069</id>
<name>Birch River</name>
<state>WV</state>
<rating>4</rating>
<url>http://www.greatschools.org/city/Birch_River/WV</url>
<lat>38.4888</lat>
<lon>-80.7503</lon>
<active>1</active>
</city>
<city>
<id>423076</id>
<name>Blacksville</name>
<state>WV</state>
<rating>5</rating>
<url>http://www.greatschools.org/city/Blacksville/WV</url>
<lat>39.7195</lat>
<lon>-80.2136</lon>
<active>1</active>
</city>
<city>
<id>422922</id>
<name>Bluefield</name>
<state>WV</state>
<rating>5</rating>
<url>http://www.greatschools.org/city/Bluefield/WV</url>
<lat>37.2599</lat>
<lon>-81.2204</lon>
<active>1</active>
</city>
<city>
<id>423185</id>
<name>Bomont</name>
<state>WV</state>
<rating>2</rating>
<url>http://www.greatschools.org/city/Bomont/WV</url>
<lat>38.413</lat>
<lon>-81.221</lon>
<active>1</active>
</city>
<city>
<id>422902</id>
<name>Boomer</name>
<state>WV</state>
<rating/>
<url>http://www.greatschools.org/city/Boomer/WV</url>
<lat>38.1602</lat>
<lon>-81.3332</lon>
<active>1</active>
</city>
<city>
<id>423094</id>
<name>Bradshaw</name>
<state>WV</state>
<rating>2</rating>
<url>http://www.greatschools.org/city/Bradshaw/WV</url>
<lat>37.353</lat>
<lon>-81.8017</lon>
<active>1</active>
</city>
<city>
<id>423123</id>
<name>Branchland</name>
<state>WV</state>
<rating>4</rating>
<url>http://www.greatschools.org/city/Branchland/WV</url>
<lat>38.1764</lat>
<lon>-82.0785</lon>
<active>1</active>
</city>
<city>
<id>423060</id>
<name>Brandywine</name>
<state>WV</state>
<rating>7</rating>
<url>http://www.greatschools.org/city/Brandywine/WV</url>
<lat>38.6347</lat>
<lon>-79.2136</lon>
<active>1</active>
</city>
<city>
<id>422974</id>
<name>Brenton</name>
<state>WV</state>
<rating>4</rating>
<url>http://www.greatschools.org/city/Brenton/WV</url>
<lat>37.6118</lat>
<lon>-81.6458</lon>
<active>1</active>
</city>
<city>
<id>422935</id>
<name>Bridgeport</name>
<state>WV</state>
<rating>10</rating>
<url>http://www.greatschools.org/city/Bridgeport/WV</url>
<lat>39.2917</lat>
<lon>-80.2564</lon>
<active>1</active>
</city>
<city>
<id>423215</id>
<name>Brownton</name>
<state>WV</state>
<rating>5</rating>
<url>http://www.greatschools.org/city/Brownton/WV</url>
<lat>39.2141</lat>
<lon>-80.1838</lon>
<active>1</active>
</city>
<city>
<id>423052</id>
<name>Bruceton Mills</name>
<state>WV</state>
<rating>6</rating>
<url>http://www.greatschools.org/city/Bruceton_Mills/WV</url>
<lat>39.6595</lat>
<lon>-79.6408</lon>
<active>1</active>
</city>
<city>
<id>423054</id>
<name>Buckeye</name>
<state>WV</state>
<rating>5</rating>
<url>http://www.greatschools.org/city/Buckeye/WV</url>
<lat>38.2236</lat>
<lon>-80.0676</lon>
<active>1</active>
</city>
<city>
<id>422900</id>
<name>Buckhannon</name>
<state>WV</state>
<rating>6</rating>
<url>http://www.greatschools.org/city/Buckhannon/WV</url>
<lat>38.9886</lat>
<lon>-80.2228</lon>
<active>1</active>
</city>
<city>
<id>423045</id>
<name>Buffalo</name>
<state>WV</state>
<rating>6</rating>
<url>http://www.greatschools.org/city/Buffalo/WV</url>
<lat>38.6157</lat>
<lon>-81.9795</lon>
<active>1</active>
</city>
<city>
<id>422928</id>
<name>Bunker Hill</name>
<state>WV</state>
<rating>6</rating>
<url>http://www.greatschools.org/city/Bunker_Hill/WV</url>
<lat>39.3218</lat>
<lon>-78.0505</lon>
<active>1</active>
</city>
<city>
<id>422874</id>
<name>Burlington</name>
<state>WV</state>
<rating>3</rating>
<url>http://www.greatschools.org/city/Burlington/WV</url>
<lat>39.3816</lat>
<lon>-78.9165</lon>
<active>1</active>
</city>
<city>
<id>423197</id>
<name>Burnsville</name>
<state>WV</state>
<rating>6</rating>
<url>http://www.greatschools.org/city/Burnsville/WV</url>
<lat>38.8562</lat>
<lon>-80.6573</lon>
<active>1</active>
</city>
<city>
<id>443516</id>
<name>Cabin Creek</name>
<state>WV</state>
<rating/>
<url>http://www.greatschools.org/city/Cabin_Creek/WV</url>
<lat>38.1902</lat>
<lon>-81.5134</lon>
<active>1</active>
</city>
<city>
<id>423108</id>
<name>Cameron</name>
<state>WV</state>
<rating>5</rating>
<url>http://www.greatschools.org/city/Cameron/WV</url>
<lat>39.8275</lat>
<lon>-80.567</lon>
<active>1</active>
</city>
<city>
<id>423157</id>
<name>Capon Bridge</name>
<state>WV</state>
<rating>4</rating>
<url>http://www.greatschools.org/city/Capon_Bridge/WV</url>
<lat>39.2982</lat>
<lon>-78.4335</lon>
<active>1</active>
</city>
<city>
<id>443515</id>
<name>Carolina</name>
<state>WV</state>
<rating/>
<url>http://www.greatschools.org/city/Carolina/WV</url>
<lat>39.4502</lat>
<lon>-80.286</lon>
<active>1</active>
</city>
<city>
<id>445871</id>
<name>Cassville</name>
<state>WV</state>
<rating/>
<url>http://www.greatschools.org/city/Cassville/WV</url>
<lat>39.6676</lat>
<lon>-80.0262</lon>
<active>1</active>
</city>
<city>
<id>423129</id>
<name>Cedar Grove</name>
<state>WV</state>
<rating>4</rating>
<url>http://www.greatschools.org/city/Cedar_Grove/WV</url>
<lat>38.2207</lat>
<lon>-81.4323</lon>
<active>1</active>
</city>
<city>
<id>444602</id>
<name>Center Point</name>
<state>WV</state>
<rating/>
<url>http://www.greatschools.org/city/Center_Point/WV</url>
<lat>39.3935</lat>
<lon>-80.6376</lon>
<active>1</active>
</city>
<city>
<id>422879</id>
<name>Ceredo</name>
<state>WV</state>
<rating>6</rating>
<url>http://www.greatschools.org/city/Ceredo/WV</url>
<lat>38.3932</lat>
<lon>-82.5607</lon>
<active>1</active>
</city>
<city>
<id>422942</id>
<name>Chapmanville</name>
<state>WV</state>
<rating>4</rating>
<url>http://www.greatschools.org/city/Chapmanville/WV</url>
<lat>37.974</lat>
<lon>-82.0203</lon>
<active>1</active>
</city>
<city>
<id>422949</id>
<name>Charles Town</name>
<state>WV</state>
<rating>8</rating>
<url>http://www.greatschools.org/city/Charles_Town/WV</url>
<lat>39.2868</lat>
<lon>-77.8586</lon>
<active>1</active>
</city>
<city>
<id>422914</id>
<name>Charleston</name>
<state>WV</state>
<rating>7</rating>
<url>http://www.greatschools.org/city/Charleston/WV</url>
<lat>38.3491</lat>
<lon>-81.6353</lon>
<active>1</active>
</city>
<city>
<id>423164</id>
<name>Charmco</name>
<state>WV</state>
<rating>5</rating>
<url>http://www.greatschools.org/city/Charmco/WV</url>
<lat>37.9964</lat>
<lon>-80.6921</lon>
<active>1</active>
</city>
<city>
<id>445864</id>
<name>Chattaroy</name>
<state>WV</state>
<rating/>
<url>http://www.greatschools.org/city/Chattaroy/WV</url>
<lat>37.7034</lat>
<lon>-82.281</lon>
<active>1</active>
</city>
<city>
<id>422894</id>
<name>Chester</name>
<state>WV</state>
<rating>5</rating>
<url>http://www.greatschools.org/city/Chester/WV</url>
<lat>40.6126</lat>
<lon>-80.5634</lon>
<active>1</active>
</city>
<city>
<id>423058</id>
<name>Circleville</name>
<state>WV</state>
<rating>8</rating>
<url>http://www.greatschools.org/city/Circleville/WV</url>
<lat>38.6302</lat>
<lon>-79.5354</lon>
<active>1</active>
</city>
<city>
<id>422933</id>
<name>Clarksburg</name>
<state>WV</state>
<rating>5</rating>
<url>http://www.greatschools.org/city/Clarksburg/WV</url>
<lat>39.2805</lat>
<lon>-80.3453</lon>
<active>1</active>
</city>
<city>
<id>446418</id>
<name>Clarksburs</name>
<state>WV</state>
<rating/>
<url>http://www.greatschools.org/city/Clarksburs/WV</url>
<lat>39.3101</lat>
<lon>-80.3555</lon>
<active>1</active>
</city>
<city>
<id>422915</id>
<name>Clay</name>
<state>WV</state>
<rating>5</rating>
<url>http://www.greatschools.org/city/Clay/WV</url>
<lat>38.4632</lat>
<lon>-81.0803</lon>
<active>1</active>
</city>
<city>
<id>423036</id>
<name>Clear Creek</name>
<state>WV</state>
<rating/>
<url>http://www.greatschools.org/city/Clear_Creek/WV</url>
<lat>37.8973</lat>
<lon>-81.3241</lon>
<active>1</active>
</city>
<city>
<id>422917</id>
<name>Clear Fork</name>
<state>WV</state>
<rating>5</rating>
<url>http://www.greatschools.org/city/Clear_Fork/WV</url>
<lat>37.6469</lat>
<lon>-81.7026</lon>
<active>1</active>
</city>
<city>
<id>423136</id>
<name>Clendenin</name>
<state>WV</state>
<rating>6</rating>
<url>http://www.greatschools.org/city/Clendenin/WV</url>
<lat>38.4875</lat>
<lon>-81.3505</lon>
<active>1</active>
</city>
<city>
<id>423030</id>
<name>Coal City</name>
<state>WV</state>
<rating>4</rating>
<url>http://www.greatschools.org/city/Coal_City/WV</url>
<lat>37.6776</lat>
<lon>-81.2186</lon>
<active>1</active>
</city>
<city>
<id>423022</id>
<name>Coalton</name>
<state>WV</state>
<rating>4</rating>
<url>http://www.greatschools.org/city/Coalton/WV</url>
<lat>38.9144</lat>
<lon>-79.9778</lon>
<active>1</active>
</city>
<city>
<id>444191</id>
<name>Collier</name>
<state>WV</state>
<rating>9</rating>
<url>http://www.greatschools.org/city/Collier/WV</url>
<lat>39.8493</lat>
<lon>-79.7689</lon>
<active>1</active>
</city>
<city>
<id>423208</id>
<name>Comfort</name>
<state>WV</state>
<rating>5</rating>
<url>http://www.greatschools.org/city/Comfort/WV</url>
<lat>38.1284</lat>
<lon>-81.5878</lon>
<active>1</active>
</city>
<city>
<id>443513</id>
<name>Core</name>
<state>WV</state>
<rating/>
<url>http://www.greatschools.org/city/Core/WV</url>
<lat>39.6655</lat>
<lon>-80.2133</lon>
<active>1</active>
</city>
<city>
<id>423145</id>
<name>Cottageville</name>
<state>WV</state>
<rating>4</rating>
<url>http://www.greatschools.org/city/Cottageville/WV</url>
<lat>38.8657</lat>
<lon>-81.8248</lon>
<active>1</active>
</city>
<city>
<id>422896</id>
<name>Cowen</name>
<state>WV</state>
<rating>4</rating>
<url>http://www.greatschools.org/city/Cowen/WV</url>
<lat>38.4111</lat>
<lon>-80.5538</lon>
<active>1</active>
</city>
<city>
<id>423035</id>
<name>Crab Orchard</name>
<state>WV</state>
<rating>7</rating>
<url>http://www.greatschools.org/city/Crab_Orchard/WV</url>
<lat>37.7416</lat>
<lon>-81.2313</lon>
<active>1</active>
</city>
<city>
<id>423063</id>
<name>Craigsville</name>
<state>WV</state>
<rating>5</rating>
<url>http://www.greatschools.org/city/Craigsville/WV</url>
<lat>38.3295</lat>
<lon>-80.6424</lon>
<active>1</active>
</city>
<city>
<id>422927</id>
<name>Crawley</name>
<state>WV</state>
<rating>4</rating>
<url>http://www.greatschools.org/city/Crawley/WV</url>
<lat>37.8979</lat>
<lon>-80.5992</lon>
<active>1</active>
</city>
<city>
<id>422912</id>
<name>Cross Lanes</name>
<state>WV</state>
<rating/>
<url>http://www.greatschools.org/city/Cross_Lanes/WV</url>
<lat>38.4316</lat>
<lon>-81.7747</lon>
<active>1</active>
</city>
<city>
<id>422992</id>
<name>Crum</name>
<state>WV</state>
<rating>6</rating>
<url>http://www.greatschools.org/city/Crum/WV</url>
<lat>37.9333</lat>
<lon>-82.4563</lon>
<active>1</active>
</city>
<city>
<id>422962</id>
<name>Culloden</name>
<state>WV</state>
<rating>6</rating>
<url>http://www.greatschools.org/city/Culloden/WV</url>
<lat>38.418</lat>
<lon>-82.0653</lon>
<active>1</active>
</city>
<city>
<id>422969</id>
<name>Cyclone</name>
<state>WV</state>
<rating>3</rating>
<url>http://www.greatschools.org/city/Cyclone/WV</url>
<lat>37.7329</lat>
<lon>-81.6646</lon>
<active>1</active>
</city>
<city>
<id>423020</id>
<name>Dailey</name>
<state>WV</state>
<rating>5</rating>
<url>http://www.greatschools.org/city/Dailey/WV</url>
<lat>38.788</lat>
<lon>-79.92</lon>
<active>1</active>
</city>
<city>
<id>423106</id>
<name>Dallas</name>
<state>WV</state>
<rating>6</rating>
<url>http://www.greatschools.org/city/Dallas/WV</url>
<lat>39.9736</lat>
<lon>-80.5483</lon>
<active>1</active>
</city>
<city>
<id>423180</id>
<name>Danese</name>
<state>WV</state>
<rating>7</rating>
<url>http://www.greatschools.org/city/Danese/WV</url>
<lat>37.9071</lat>
<lon>-80.9435</lon>
<active>1</active>
</city>
<city>
<id>423034</id>
<name>Daniels</name>
<state>WV</state>
<rating>7</rating>
<url>http://www.greatschools.org/city/Daniels/WV</url>
<lat>37.733</lat>
<lon>-81.1262</lon>
<active>1</active>
</city>
<city>
<id>423207</id>
<name>Danville</name>
<state>WV</state>
<rating>4</rating>
<url>http://www.greatschools.org/city/Danville/WV</url>
<lat>38.0808</lat>
<lon>-81.8348</lon>
<active>1</active>
</city>
<city>
<id>422916</id>
<name>Davis</name>
<state>WV</state>
<rating/>
<url>http://www.greatschools.org/city/Davis/WV</url>
<lat>39.1318</lat>
<lon>-79.4659</lon>
<active>1</active>
</city>
<city>
<id>422979</id>
<name>Davisville</name>
<state>WV</state>
<rating>5</rating>
<url>http://www.greatschools.org/city/Davisville/WV</url>
<lat>39.2086</lat>
<lon>-81.469</lon>
<active>1</active>
</city>
<city>
<id>422913</id>
<name>Davy</name>
<state>WV</state>
<rating/>
<url>http://www.greatschools.org/city/Davy/WV</url>
<lat>37.4773</lat>
<lon>-81.6496</lon>
<active>1</active>
</city>
<city>
<id>422873</id>
<name>Delbarton</name>
<state>WV</state>
<rating/>
<url>http://www.greatschools.org/city/Delbarton/WV</url>
<lat>37.7081</lat>
<lon>-82.1859</lon>
<active>1</active>
</city>
<city>
<id>423134</id>
<name>Diamond</name>
<state>WV</state>
<rating>4</rating>
<url>http://www.greatschools.org/city/Diamond/WV</url>
<lat>38.2103</lat>
<lon>-81.5171</lon>
<active>1</active>
</city>
<city>
<id>422990</id>
<name>Diana</name>
<state>WV</state>
<rating>6</rating>
<url>http://www.greatschools.org/city/Diana/WV</url>
<lat>38.5708</lat>
<lon>-80.4199</lon>
<active>1</active>
</city>
<city>
<id>423082</id>
<name>Dingess</name>
<state>WV</state>
<rating>4</rating>
<url>http://www.greatschools.org/city/Dingess/WV</url>
<lat>37.8668</lat>
<lon>-82.195</lon>
<active>1</active>
</city>
<city>
<id>423068</id>
<name>Dixie</name>
<state>WV</state>
<rating>4</rating>
<url>http://www.greatschools.org/city/Dixie/WV</url>
<lat>38.2643</lat>
<lon>-81.1845</lon>
<active>1</active>
</city>
<city>
<id>443512</id>
<name>Drybranch</name>
<state>WV</state>
<rating/>
<url>http://www.greatschools.org/city/Drybranch/WV</url>
<lat>38.1902</lat>
<lon>-81.5134</lon>
<active>1</active>
</city>
<city>
<id>444031</id>
<name>Duck</name>
<state>WV</state>
<rating>7</rating>
<url>http://www.greatschools.org/city/Duck/WV</url>
<lat>38.575</lat>
<lon>-80.9759</lon>
<active>1</active>
</city>
<city>
<id>422923</id>
<name>Dunbar</name>
<state>WV</state>
<rating/>
<url>http://www.greatschools.org/city/Dunbar/WV</url>
<lat>38.3651</lat>
<lon>-81.7392</lon>
<active>1</active>
</city>
<city>
<id>422998</id>
<name>Dunlow</name>
<state>WV</state>
<rating>5</rating>
<url>http://www.greatschools.org/city/Dunlow/WV</url>
<lat>38.0287</lat>
<lon>-82.3712</lon>
<active>1</active>
</city>
<city>
<id>423053</id>
<name>Dunmore</name>
<state>WV</state>
<rating>6</rating>
<url>http://www.greatschools.org/city/Dunmore/WV</url>
<lat>38.3683</lat>
<lon>-79.8535</lon>
<active>1</active>
</city>
<city>
<id>423137</id>
<name>East Bank</name>
<state>WV</state>
<rating>2</rating>
<url>http://www.greatschools.org/city/East_Bank/WV</url>
<lat>38.217</lat>
<lon>-81.4437</lon>
<active>1</active>
</city>
<city>
<id>422997</id>
<name>East Lynn</name>
<state>WV</state>
<rating>2</rating>
<url>http://www.greatschools.org/city/East_Lynn/WV</url>
<lat>38.1993</lat>
<lon>-82.3319</lon>
<active>1</active>
</city>
<city>
<id>443511</id>
<name>Eckman</name>
<state>WV</state>
<rating/>
<url>http://www.greatschools.org/city/Eckman/WV</url>
<lat>37.4016</lat>
<lon>-81.5324</lon>
<active>1</active>
</city>
<city>
<id>422890</id>
<name>Edgarton</name>
<state>WV</state>
<rating/>
<url>http://www.greatschools.org/city/Edgarton/WV</url>
<lat>37.6035</lat>
<lon>-82.0624</lon>
<active>1</active>
</city>
<city>
<id>423041</id>
<name>Eleanor</name>
<state>WV</state>
<rating>8</rating>
<url>http://www.greatschools.org/city/Eleanor/WV</url>
<lat>38.5381</lat>
<lon>-81.9302</lon>
<active>1</active>
</city>
<city>
<id>422980</id>
<name>Elizabeth</name>
<state>WV</state>
<rating>4</rating>
<url>http://www.greatschools.org/city/Elizabeth/WV</url>
<lat>39.0616</lat>
<lon>-81.3973</lon>
<active>1</active>
</city>
<city>
<id>423084</id>
<name>Elk Garden</name>
<state>WV</state>
<rating>4</rating>
<url>http://www.greatschools.org/city/Elk_Garden/WV</url>
<lat>39.3846</lat>
<lon>-79.1537</lon>
<active>1</active>
</city>
<city>
<id>422877</id>
<name>Elkins</name>
<state>WV</state>
<rating>5</rating>
<url>http://www.greatschools.org/city/Elkins/WV</url>
<lat>38.9241</lat>
<lon>-79.852</lon>
<active>1</active>
</city>
<city>
<id>422959</id>
<name>Elkview</name>
<state>WV</state>
<rating>6</rating>
<url>http://www.greatschools.org/city/Elkview/WV</url>
<lat>38.4356</lat>
<lon>-81.4764</lon>
<active>1</active>
</city>
<city>
<id>423014</id>
<name>Ellenboro</name>
<state>WV</state>
<rating>5</rating>
<url>http://www.greatschools.org/city/Ellenboro/WV</url>
<lat>39.2682</lat>
<lon>-81.0509</lon>
<active>1</active>
</city>
<city>
<id>423062</id>
<name>Elm Grove</name>
<state>WV</state>
<rating>9</rating>
<url>http://www.greatschools.org/city/Elm_Grove/WV</url>
<lat>40.0425</lat>
<lon>-80.6627</lon>
<active>1</active>
</city>
<city>
<id>423144</id>
<name>Evans</name>
<state>WV</state>
<rating>10</rating>
<url>http://www.greatschools.org/city/Evans/WV</url>
<lat>38.8109</lat>
<lon>-81.7907</lon>
<active>1</active>
</city>
<city>
<id>423033</id>
<name>Fairdale</name>
<state>WV</state>
<rating>4</rating>
<url>http://www.greatschools.org/city/Fairdale/WV</url>
<lat>37.783</lat>
<lon>-81.3972</lon>
<active>1</active>
</city>
<city>
<id>422889</id>
<name>Fairmont</name>
<state>WV</state>
<rating>7</rating>
<url>http://www.greatschools.org/city/Fairmont/WV</url>
<lat>39.4802</lat>
<lon>-80.147</lon>
<active>1</active>
</city>
<city>
<id>423075</id>
<name>Fairview</name>
<state>WV</state>
<rating>8</rating>
<url>http://www.greatschools.org/city/Fairview/WV</url>
<lat>39.5931</lat>
<lon>-80.2463</lon>
<active>1</active>
</city>
<city>
<id>423212</id>
<name>Falling Waters</name>
<state>WV</state>
<rating/>
<url>http://www.greatschools.org/city/Falling_Waters/WV</url>
<lat>39.5802</lat>
<lon>-77.8896</lon>
<active>1</active>
</city>
<city>
<id>423109</id>
<name>Farmington</name>
<state>WV</state>
<rating>7</rating>
<url>http://www.greatschools.org/city/Farmington/WV</url>
<lat>39.5139</lat>
<lon>-80.2509</lon>
<active>1</active>
</city>
<city>
<id>423179</id>
<name>Fayetteville</name>
<state>WV</state>
<rating>6</rating>
<url>http://www.greatschools.org/city/Fayetteville/WV</url>
<lat>38.0497</lat>
<lon>-81.1071</lon>
<active>1</active>
</city>
<city>
<id>423201</id>
<name>Flatwoods</name>
<state>WV</state>
<rating>6</rating>
<url>http://www.greatschools.org/city/Flatwoods/WV</url>
<lat>38.7231</lat>
<lon>-80.6509</lon>
<active>1</active>
</city>
<city>
<id>423005</id>
<name>Flemington</name>
<state>WV</state>
<rating>5</rating>
<url>http://www.greatschools.org/city/Flemington/WV</url>
<lat>39.2668</lat>
<lon>-80.1288</lon>
<active>1</active>
</city>
<city>
<id>423193</id>
<name>Follansbee</name>
<state>WV</state>
<rating>5</rating>
<url>http://www.greatschools.org/city/Follansbee/WV</url>
<lat>40.336</lat>
<lon>-80.5935</lon>
<active>1</active>
</city>
<city>
<id>422938</id>
<name>Fort Ashby</name>
<state>WV</state>
<rating>6</rating>
<url>http://www.greatschools.org/city/Fort_Ashby/WV</url>
<lat>39.4984</lat>
<lon>-78.7675</lon>
<active>1</active>
</city>
<city>
<id>422991</id>
<name>Fort Gay</name>
<state>WV</state>
<rating>3</rating>
<url>http://www.greatschools.org/city/Fort_Gay/WV</url>
<lat>38.1189</lat>
<lon>-82.5941</lon>
<active>1</active>
</city>
<city>
<id>423206</id>
<name>Foster</name>
<state>WV</state>
<rating>4</rating>
<url>http://www.greatschools.org/city/Foster/WV</url>
<lat>38.0956</lat>
<lon>-81.7827</lon>
<active>1</active>
</city>
<city>
<id>423200</id>
<name>Frametown</name>
<state>WV</state>
<rating>9</rating>
<url>http://www.greatschools.org/city/Frametown/WV</url>
<lat>38.6344</lat>
<lon>-80.889</lon>
<active>1</active>
</city>
<city>
<id>423165</id>
<name>Frankford</name>
<state>WV</state>
<rating>8</rating>
<url>http://www.greatschools.org/city/Frankford/WV</url>
<lat>37.8999</lat>
<lon>-80.3645</lon>
<active>1</active>
</city>
<city>
<id>423059</id>
<name>Franklin</name>
<state>WV</state>
<rating>7</rating>
<url>http://www.greatschools.org/city/Franklin/WV</url>
<lat>38.6463</lat>
<lon>-79.3324</lon>
<active>1</active>
</city>
<city>
<id>423000</id>
<name>French Creek</name>
<state>WV</state>
<rating>3</rating>
<url>http://www.greatschools.org/city/French_Creek/WV</url>
<lat>38.8511</lat>
<lon>-80.2771</lon>
<active>1</active>
</city>
<city>
<id>423105</id>
<name>Gallipolis Ferry</name>
<state>WV</state>
<rating>4</rating>
<url>http://www.greatschools.org/city/Gallipolis_Ferry/WV</url>
<lat>38.7653</lat>
<lon>-82.1601</lon>
<active>1</active>
</city>
<city>
<id>422951</id>
<name>Gap Mills</name>
<state>WV</state>
<rating/>
<url>http://www.greatschools.org/city/Gap_Mills/WV</url>
<lat>37.568</lat>
<lon>-80.3439</lon>
<active>1</active>
</city>
<city>
<id>423202</id>
<name>Gassaway</name>
<state>WV</state>
<rating>9</rating>
<url>http://www.greatschools.org/city/Gassaway/WV</url>
<lat>38.6689</lat>
<lon>-80.7714</lon>
<active>1</active>
</city>
<city>
<id>423178</id>
<name>Gauley Bridge</name>
<state>WV</state>
<rating>3</rating>
<url>http://www.greatschools.org/city/Gauley_Bridge/WV</url>
<lat>38.1687</lat>
<lon>-81.2033</lon>
<active>1</active>
</city>
<city>
<id>422996</id>
<name>Genoa</name>
<state>WV</state>
<rating>4</rating>
<url>http://www.greatschools.org/city/Genoa/WV</url>
<lat>38.086</lat>
<lon>-82.4657</lon>
<active>1</active>
</city>
<city>
<id>422876</id>
<name>Gerrardstown</name>
<state>WV</state>
<rating>7</rating>
<url>http://www.greatschools.org/city/Gerrardstown/WV</url>
<lat>39.3778</lat>
<lon>-78.1182</lon>
<active>1</active>
</city>
<city>
<id>423032</id>
<name>Ghent</name>
<state>WV</state>
<rating>7</rating>
<url>http://www.greatschools.org/city/Ghent/WV</url>
<lat>37.621</lat>
<lon>-81.1037</lon>
<active>1</active>
</city>
<city>
<id>422872</id>
<name>Gilbert</name>
<state>WV</state>
<rating>8</rating>
<url>http://www.greatschools.org/city/Gilbert/WV</url>
<lat>37.6138</lat>
<lon>-81.868</lon>
<active>1</active>
</city>
<city>
<id>423107</id>
<name>Glen Dale</name>
<state>WV</state>
<rating>6</rating>
<url>http://www.greatschools.org/city/Glen_Dale/WV</url>
<lat>39.9486</lat>
<lon>-80.7541</lon>
<active>1</active>
</city>
<city>
<id>423028</id>
<name>Glen Daniel</name>
<state>WV</state>
<rating>7</rating>
<url>http://www.greatschools.org/city/Glen_Daniel/WV</url>
<lat>37.7883</lat>
<lon>-81.3582</lon>
<active>1</active>
</city>
<city>
<id>422973</id>
<name>Glen Fork</name>
<state>WV</state>
<rating>4</rating>
<url>http://www.greatschools.org/city/Glen_Fork/WV</url>
<lat>37.6426</lat>
<lon>-81.5305</lon>
<active>1</active>
</city>
<city>
<id>423172</id>
<name>Glenville</name>
<state>WV</state>
<rating>6</rating>
<url>http://www.greatschools.org/city/Glenville/WV</url>
<lat>38.9366</lat>
<lon>-80.834</lon>
<active>1</active>
</city>
<city>
<id>422945</id>
<name>Grafton</name>
<state>WV</state>
<rating>5</rating>
<url>http://www.greatschools.org/city/Grafton/WV</url>
<lat>39.3407</lat>
<lon>-80.0197</lon>
<active>1</active>
</city>
<city>
<id>423186</id>
<name>Grantsville</name>
<state>WV</state>
<rating>3</rating>
<url>http://www.greatschools.org/city/Grantsville/WV</url>
<lat>38.9203</lat>
<lon>-81.0931</lon>
<active>1</active>
</city>
<city>
<id>422883</id>
<name>Great Cacapon</name>
<state>WV</state>
<rating/>
<url>http://www.greatschools.org/city/Great_Cacapon/WV</url>
<lat>39.5762</lat>
<lon>-78.3382</lon>
<active>1</active>
</city>
<city>
<id>422948</id>
<name>Green Bank</name>
<state>WV</state>
<rating>5</rating>
<url>http://www.greatschools.org/city/Green_Bank/WV</url>
<lat>38.4116</lat>
<lon>-79.7991</lon>
<active>1</active>
</city>
<city>
<id>423124</id>
<name>Griffithsville</name>
<state>WV</state>
<rating>5</rating>
<url>http://www.greatschools.org/city/Griffithsville/WV</url>
<lat>38.2473</lat>
<lon>-81.9822</lon>
<active>1</active>
</city>
<city>
<id>444604</id>
<name>Gypsy</name>
<state>WV</state>
<rating/>
<url>http://www.greatschools.org/city/Gypsy/WV</url>
<lat>39.3648</lat>
<lon>-80.307</lon>
<active>1</active>
</city>
<city>
<id>422989</id>
<name>Hacker Valley</name>
<state>WV</state>
<rating>2</rating>
<url>http://www.greatschools.org/city/Hacker_Valley/WV</url>
<lat>38.6762</lat>
<lon>-80.3991</lon>
<active>1</active>
</city>
<city>
<id>423003</id>
<name>Hambleton</name>
<state>WV</state>
<rating>6</rating>
<url>http://www.greatschools.org/city/Hambleton/WV</url>
<lat>39.0816</lat>
<lon>-79.6446</lon>
<active>1</active>
</city>
<city>
<id>423119</id>
<name>Hamlin</name>
<state>WV</state>
<rating>2</rating>
<url>http://www.greatschools.org/city/Hamlin/WV</url>
<lat>38.2791</lat>
<lon>-82.1038</lon>
<active>1</active>
</city>
<city>
<id>422971</id>
<name>Hanover</name>
<state>WV</state>
<rating>5</rating>
<url>http://www.greatschools.org/city/Hanover/WV</url>
<lat>37.5593</lat>
<lon>-81.815</lon>
<active>1</active>
</city>
<city>
<id>423021</id>
<name>Harman</name>
<state>WV</state>
<rating>4</rating>
<url>http://www.greatschools.org/city/Harman/WV</url>
<lat>38.9222</lat>
<lon>-79.5259</lon>
<active>1</active>
</city>
<city>
<id>422910</id>
<name>Harpers Ferry</name>
<state>WV</state>
<rating>8</rating>
<url>http://www.greatschools.org/city/Harpers_Ferry/WV</url>
<lat>39.3259</lat>
<lon>-77.7403</lon>
<active>1</active>
</city>
<city>
<id>423015</id>
<name>Harrisville</name>
<state>WV</state>
<rating>4</rating>
<url>http://www.greatschools.org/city/Harrisville/WV</url>
<lat>39.2098</lat>
<lon>-81.0497</lon>
<active>1</active>
</city>
<city>
<id>446419</id>
<name>Hartford City</name>
<state>WV</state>
<rating/>
<url>http://www.greatschools.org/city/Hartford_City/WV</url>
<lat>39.0035</lat>
<lon>-81.9883</lon>
<active>1</active>
</city>
<city>
<id>423116</id>
<name>Harts</name>
<state>WV</state>
<rating/>
<url>http://www.greatschools.org/city/Harts/WV</url>
<lat>38.039</lat>
<lon>-82.1396</lon>
<active>1</active>
</city>
<city>
<id>423070</id>
<name>Hedgesville</name>
<state>WV</state>
<rating>7</rating>
<url>http://www.greatschools.org/city/Hedgesville/WV</url>
<lat>39.5548</lat>
<lon>-77.9943</lon>
<active>1</active>
</city>
<city>
<id>422972</id>
<name>Herndon</name>
<state>WV</state>
<rating>6</rating>
<url>http://www.greatschools.org/city/Herndon/WV</url>
<lat>37.527</lat>
<lon>-81.3502</lon>
<active>1</active>
</city>
<city>
<id>423210</id>
<name>Hewett</name>
<state>WV</state>
<rating>5</rating>
<url>http://www.greatschools.org/city/Hewett/WV</url>
<lat>37.9631</lat>
<lon>-81.8661</lon>
<active>1</active>
</city>
<city>
<id>423176</id>
<name>Hico</name>
<state>WV</state>
<rating>4</rating>
<url>http://www.greatschools.org/city/Hico/WV</url>
<lat>38.1131</lat>
<lon>-80.9644</lon>
<active>1</active>
</city>
<city>
<id>444030</id>
<name>Highland</name>
<state>WV</state>
<rating/>
<url>http://www.greatschools.org/city/Highland/WV</url>
<lat>39.3156</lat>
<lon>-81.0692</lon>
<active>1</active>
</city>
<city>
<id>423056</id>
<name>Hillsboro</name>
<state>WV</state>
<rating>6</rating>
<url>http://www.greatschools.org/city/Hillsboro/WV</url>
<lat>38.1358</lat>
<lon>-80.2123</lon>
<active>1</active>
</city>
<city>
<id>423006</id>
<name>Hinton</name>
<state>WV</state>
<rating>4</rating>
<url>http://www.greatschools.org/city/Hinton/WV</url>
<lat>37.6599</lat>
<lon>-80.8895</lon>
<active>1</active>
</city>
<city>
<id>423117</id>
<name>Holden</name>
<state>WV</state>
<rating>4</rating>
<url>http://www.greatschools.org/city/Holden/WV</url>
<lat>37.825</lat>
<lon>-82.0669</lon>
<active>1</active>
</city>
<city>
<id>423043</id>
<name>Hometown</name>
<state>WV</state>
<rating>5</rating>
<url>http://www.greatschools.org/city/Hometown/WV</url>
<lat>38.5094</lat>
<lon>-81.8942</lon>
<active>1</active>
</city>
<city>
<id>422986</id>
<name>Hundred</name>
<state>WV</state>
<rating>5</rating>
<url>http://www.greatschools.org/city/Hundred/WV</url>
<lat>39.6843</lat>
<lon>-80.458</lon>
<active>1</active>
</city>
<city>
<id>422904</id>
<name>Huntington</name>
<state>WV</state>
<rating>5</rating>
<url>http://www.greatschools.org/city/Huntington/WV</url>
<lat>38.413</lat>
<lon>-82.434</lon>
<active>1</active>
</city>
<city>
<id>422907</id>
<name>Hurricane</name>
<state>WV</state>
<rating>9</rating>
<url>http://www.greatschools.org/city/Hurricane/WV</url>
<lat>38.4326</lat>
<lon>-82.0206</lon>
<active>1</active>
</city>
<city>
<id>441890</id>
<name>Huttonsville</name>
<state>WV</state>
<rating/>
<url>http://www.greatschools.org/city/Huttonsville/WV</url>
<lat>38.7133</lat>
<lon>-79.9767</lon>
<active>1</active>
</city>
<city>
<id>423096</id>
<name>Iaeger</name>
<state>WV</state>
<rating>3</rating>
<url>http://www.greatschools.org/city/Iaeger/WV</url>
<lat>37.4656</lat>
<lon>-81.8132</lon>
<active>1</active>
</city>
<city>
<id>423148</id>
<name>Industrial</name>
<state>WV</state>
<rating/>
<url>http://www.greatschools.org/city/Industrial/WV</url>
<lat>39.2801</lat>
<lon>-80.5548</lon>
<active>1</active>
</city>
<city>
<id>443505</id>
<name>Institute</name>
<state>WV</state>
<rating/>
<url>http://www.greatschools.org/city/Institute/WV</url>
<lat>38.3675</lat>
<lon>-81.7415</lon>
<active>1</active>
</city>
<city>
<id>423213</id>
<name>Inwood</name>
<state>WV</state>
<rating>5</rating>
<url>http://www.greatschools.org/city/Inwood/WV</url>
<lat>39.3532</lat>
<lon>-78.0509</lon>
<active>1</active>
</city>
<city>
<id>443504</id>
<name>Ireland</name>
<state>WV</state>
<rating/>
<url>http://www.greatschools.org/city/Ireland/WV</url>
<lat>38.7779</lat>
<lon>-80.4651</lon>
<active>1</active>
</city>
<city>
<id>443503</id>
<name>Jacksonburg</name>
<state>WV</state>
<rating/>
<url>http://www.greatschools.org/city/Jacksonburg/WV</url>
<lat>39.5048</lat>
<lon>-80.6684</lon>
<active>1</active>
</city>
<city>
<id>423126</id>
<name>Jane Lew</name>
<state>WV</state>
<rating>6</rating>
<url>http://www.greatschools.org/city/Jane_Lew/WV</url>
<lat>39.1097</lat>
<lon>-80.4083</lon>
<active>1</active>
</city>
<city>
<id>446421</id>
<name>Julian</name>
<state>WV</state>
<rating/>
<url>http://www.greatschools.org/city/Julian/WV</url>
<lat>38.1377</lat>
<lon>-81.8379</lon>
<active>1</active>
</city>
<city>
<id>423008</id>
<name>Jumping Branch</name>
<state>WV</state>
<rating>5</rating>
<url>http://www.greatschools.org/city/Jumping_Branch/WV</url>
<lat>37.6335</lat>
<lon>-80.9986</lon>
<active>1</active>
</city>
<city>
<id>423217</id>
<name>Junior</name>
<state>WV</state>
<rating>2</rating>
<url>http://www.greatschools.org/city/Junior/WV</url>
<lat>38.9776</lat>
<lon>-79.9508</lon>
<active>1</active>
</city>
<city>
<id>422958</id>
<name>Kearneysville</name>
<state>WV</state>
<rating>5</rating>
<url>http://www.greatschools.org/city/Kearneysville/WV</url>
<lat>39.3446</lat>
<lon>-77.9402</lon>
<active>1</active>
</city>
<city>
<id>423142</id>
<name>Kenna</name>
<state>WV</state>
<rating>7</rating>
<url>http://www.greatschools.org/city/Kenna/WV</url>
<lat>38.6357</lat>
<lon>-81.6383</lon>
<active>1</active>
</city>
<city>
<id>422909</id>
<name>Kenova</name>
<state>WV</state>
<rating>6</rating>
<url>http://www.greatschools.org/city/Kenova/WV</url>
<lat>38.4</lat>
<lon>-82.5797</lon>
<active>1</active>
</city>
<city>
<id>423081</id>
<name>Kermit</name>
<state>WV</state>
<rating>5</rating>
<url>http://www.greatschools.org/city/Kermit/WV</url>
<lat>37.8414</lat>
<lon>-82.4091</lon>
<active>1</active>
</city>
<city>
<id>423083</id>
<name>Keyser</name>
<state>WV</state>
<rating>4</rating>
<url>http://www.greatschools.org/city/Keyser/WV</url>
<lat>39.439</lat>
<lon>-78.9832</lon>
<active>1</active>
</city>
<city>
<id>443501</id>
<name>Keystone</name>
<state>WV</state>
<rating/>
<url>http://www.greatschools.org/city/Keystone/WV</url>
<lat>37.4161</lat>
<lon>-81.4443</lon>
<active>1</active>
</city>
<city>
<id>423098</id>
<name>Kimball</name>
<state>WV</state>
<rating>3</rating>
<url>http://www.greatschools.org/city/Kimball/WV</url>
<lat>37.4269</lat>
<lon>-81.5068</lon>
<active>1</active>
</city>
<city>
<id>445887</id>
<name>Kincaid</name>
<state>WV</state>
<rating/>
<url>http://www.greatschools.org/city/Kincaid/WV</url>
<lat>38.0491</lat>
<lon>-81.268</lon>
<active>1</active>
</city>
<city>
<id>422886</id>
<name>Kingwood</name>
<state>WV</state>
<rating>6</rating>
<url>http://www.greatschools.org/city/Kingwood/WV</url>
<lat>39.4716</lat>
<lon>-79.6841</lon>
<active>1</active>
</city>
<city>
<id>443500</id>
<name>Lashmeet</name>
<state>WV</state>
<rating/>
<url>http://www.greatschools.org/city/Lashmeet/WV</url>
<lat>37.442</lat>
<lon>-81.2161</lon>
<active>1</active>
</city>
<city>
<id>422995</id>
<name>Lavalette</name>
<state>WV</state>
<rating>6</rating>
<url>http://www.greatschools.org/city/Lavalette/WV</url>
<lat>38.3132</lat>
<lon>-82.4455</lon>
<active>1</active>
</city>
<city>
<id>422882</id>
<name>Le Roy</name>
<state>WV</state>
<rating/>
<url>http://www.greatschools.org/city/Le_Roy/WV</url>
<lat>38.95</lat>
<lon>-81.56</lon>
<active>1</active>
</city>
<city>
<id>423009</id>
<name>Left Hand</name>
<state>WV</state>
<rating>4</rating>
<url>http://www.greatschools.org/city/Left_Hand/WV</url>
<lat>38.6012</lat>
<lon>-81.2431</lon>
<active>1</active>
</city>
<city>
<id>422918</id>
<name>Lenore</name>
<state>WV</state>
<rating>7</rating>
<url>http://www.greatschools.org/city/Lenore/WV</url>
<lat>37.7959</lat>
<lon>-82.2588</lon>
<active>1</active>
</city>
<city>
<id>423104</id>
<name>Leon</name>
<state>WV</state>
<rating>6</rating>
<url>http://www.greatschools.org/city/Leon/WV</url>
<lat>38.7488</lat>
<lon>-81.9572</lon>
<active>1</active>
</city>
<city>
<id>423192</id>
<name>Lesage</name>
<state>WV</state>
<rating>5</rating>
<url>http://www.greatschools.org/city/Lesage/WV</url>
<lat>38.5161</lat>
<lon>-82.2879</lon>
<active>1</active>
</city>
<city>
<id>423029</id>
<name>Lester</name>
<state>WV</state>
<rating>3</rating>
<url>http://www.greatschools.org/city/Lester/WV</url>
<lat>37.734</lat>
<lon>-81.3017</lon>
<active>1</active>
</city>
<city>
<id>422929</id>
<name>Letart</name>
<state>WV</state>
<rating/>
<url>http://www.greatschools.org/city/Letart/WV</url>
<lat>38.9297</lat>
<lon>-81.9755</lon>
<active>1</active>
</city>
<city>
<id>423160</id>
<name>Levels</name>
<state>WV</state>
<rating>5</rating>
<url>http://www.greatschools.org/city/Levels/WV</url>
<lat>39.4954</lat>
<lon>-78.5662</lon>
<active>1</active>
</city>
<city>
<id>423147</id>
<name>Lewisburg</name>
<state>WV</state>
<rating>8</rating>
<url>http://www.greatschools.org/city/Lewisburg/WV</url>
<lat>37.8056</lat>
<lon>-80.437</lon>
<active>1</active>
</city>
<city>
<id>423072</id>
<name>Lindside</name>
<state>WV</state>
<rating>3</rating>
<url>http://www.greatschools.org/city/Lindside/WV</url>
<lat>37.48</lat>
<lon>-80.6176</lon>
<active>1</active>
</city>
<city>
<id>423199</id>
<name>Little Birch</name>
<state>WV</state>
<rating>5</rating>
<url>http://www.greatschools.org/city/Little_Birch/WV</url>
<lat>38.5837</lat>
<lon>-80.6992</lon>
<active>1</active>
</city>
<city>
<id>444508</id>
<name>Lizemore</name>
<state>WV</state>
<rating>6</rating>
<url>http://www.greatschools.org/city/Lizemore/WV</url>
<lat>38.3308</lat>
<lon>-81.1791</lon>
<active>1</active>
</city>
<city>
<id>423114</id>
<name>Logan</name>
<state>WV</state>
<rating>4</rating>
<url>http://www.greatschools.org/city/Logan/WV</url>
<lat>37.8482</lat>
<lon>-81.9853</lon>
<active>1</active>
</city>
<city>
<id>423175</id>
<name>Lookout</name>
<state>WV</state>
<rating>4</rating>
<url>http://www.greatschools.org/city/Lookout/WV</url>
<lat>38.0548</lat>
<lon>-80.9124</lon>
<active>1</active>
</city>
<city>
<id>445866</id>
<name>Lorado</name>
<state>WV</state>
<rating/>
<url>http://www.greatschools.org/city/Lorado/WV</url>
<lat>37.7957</lat>
<lon>-81.7148</lon>
<active>1</active>
</city>
<city>
<id>423151</id>
<name>Lost Creek</name>
<state>WV</state>
<rating>5</rating>
<url>http://www.greatschools.org/city/Lost_Creek/WV</url>
<lat>39.1608</lat>
<lon>-80.3481</lon>
<active>1</active>
</city>
<city>
<id>423149</id>
<name>Lumberport</name>
<state>WV</state>
<rating>6</rating>
<url>http://www.greatschools.org/city/Lumberport/WV</url>
<lat>39.3748</lat>
<lon>-80.3492</lon>
<active>1</active>
</city>
<city>
<id>423027</id>
<name>Mabscott</name>
<state>WV</state>
<rating>3</rating>
<url>http://www.greatschools.org/city/Mabscott/WV</url>
<lat>37.7696</lat>
<lon>-81.2135</lon>
<active>1</active>
</city>
<city>
<id>423031</id>
<name>MacArthur</name>
<state>WV</state>
<rating>8</rating>
<url>http://www.greatschools.org/city/MacArthur/WV</url>
<lat>37.7549</lat>
<lon>-81.2137</lon>
<active>1</active>
</city>
<city>
<id>423205</id>
<name>Madison</name>
<state>WV</state>
<rating>5</rating>
<url>http://www.greatschools.org/city/Madison/WV</url>
<lat>38.0614</lat>
<lon>-81.8173</lon>
<active>1</active>
</city>
<city>
<id>443499</id>
<name>Malden</name>
<state>WV</state>
<rating/>
<url>http://www.greatschools.org/city/Malden/WV</url>
<lat>38.313</lat>
<lon>-81.5601</lon>
<active>1</active>
</city>
<city>
<id>443621</id>
<name>Mallory</name>
<state>WV</state>
<rating>3</rating>
<url>http://www.greatschools.org/city/Mallory/WV</url>
<lat>37.7414</lat>
<lon>-81.8193</lon>
<active>1</active>
</city>
<city>
<id>422919</id>
<name>Man</name>
<state>WV</state>
<rating>3</rating>
<url>http://www.greatschools.org/city/Man/WV</url>
<lat>37.7421</lat>
<lon>-81.8762</lon>
<active>1</active>
</city>
<city>
<id>423110</id>
<name>Mannington</name>
<state>WV</state>
<rating>6</rating>
<url>http://www.greatschools.org/city/Mannington/WV</url>
<lat>39.528</lat>
<lon>-80.3424</lon>
<active>1</active>
</city>
<city>
<id>423055</id>
<name>Marlinton</name>
<state>WV</state>
<rating>7</rating>
<url>http://www.greatschools.org/city/Marlinton/WV</url>
<lat>38.2229</lat>
<lon>-80.09</lon>
<active>1</active>
</city>
<city>
<id>422885</id>
<name>Marmet</name>
<state>WV</state>
<rating>6</rating>
<url>http://www.greatschools.org/city/Marmet/WV</url>
<lat>38.2465</lat>
<lon>-81.5695</lon>
<active>1</active>
</city>
<city>
<id>422875</id>
<name>Martinsburg</name>
<state>WV</state>
<rating>6</rating>
<url>http://www.greatschools.org/city/Martinsburg/WV</url>
<lat>39.4604</lat>
<lon>-77.9686</lon>
<active>1</active>
</city>
<city>
<id>423102</id>
<name>Mason</name>
<state>WV</state>
<rating>5</rating>
<url>http://www.greatschools.org/city/Mason/WV</url>
<lat>39.0192</lat>
<lon>-82.0317</lon>
<active>1</active>
</city>
<city>
<id>423046</id>
<name>Masontown</name>
<state>WV</state>
<rating>5</rating>
<url>http://www.greatschools.org/city/Masontown/WV</url>
<lat>39.5512</lat>
<lon>-79.8002</lon>
<active>1</active>
</city>
<city>
<id>423080</id>
<name>Matewan</name>
<state>WV</state>
<rating>5</rating>
<url>http://www.greatschools.org/city/Matewan/WV</url>
<lat>37.6231</lat>
<lon>-82.1661</lon>
<active>1</active>
</city>
<city>
<id>443498</id>
<name>Mathias</name>
<state>WV</state>
<rating/>
<url>http://www.greatschools.org/city/Mathias/WV</url>
<lat>38.8765</lat>
<lon>-78.8911</lon>
<active>1</active>
</city>
<city>
<id>423092</id>
<name>Matoaka</name>
<state>WV</state>
<rating>3</rating>
<url>http://www.greatschools.org/city/Matoaka/WV</url>
<lat>37.4192</lat>
<lon>-81.2436</lon>
<active>1</active>
</city>
<city>
<id>423168</id>
<name>Maysville</name>
<state>WV</state>
<rating>9</rating>
<url>http://www.greatschools.org/city/Maysville/WV</url>
<lat>39.0723</lat>
<lon>-79.1877</lon>
<active>1</active>
</city>
<city>
<id>422965</id>
<name>McMechen</name>
<state>WV</state>
<rating>4</rating>
<url>http://www.greatschools.org/city/McMechen/WV</url>
<lat>39.9875</lat>
<lon>-80.7307</lon>
<active>1</active>
</city>
<city>
<id>423177</id>
<name>Meadow Bridge</name>
<state>WV</state>
<rating>4</rating>
<url>http://www.greatschools.org/city/Meadow_Bridge/WV</url>
<lat>37.8609</lat>
<lon>-80.8554</lon>
<active>1</active>
</city>
<city>
<id>422985</id>
<name>Metz</name>
<state>WV</state>
<rating>5</rating>
<url>http://www.greatschools.org/city/Metz/WV</url>
<lat>39.6089</lat>
<lon>-80.4159</lon>
<active>1</active>
</city>
<city>
<id>423131</id>
<name>Miami</name>
<state>WV</state>
<rating>5</rating>
<url>http://www.greatschools.org/city/Miami/WV</url>
<lat>38.1188</lat>
<lon>-81.4507</lon>
<active>1</active>
</city>
<city>
<id>423002</id>
<name>Middlebourne</name>
<state>WV</state>
<rating>8</rating>
<url>http://www.greatschools.org/city/Middlebourne/WV</url>
<lat>39.4943</lat>
<lon>-80.9065</lon>
<active>1</active>
</city>
<city>
<id>423019</id>
<name>Mill Creek</name>
<state>WV</state>
<rating>3</rating>
<url>http://www.greatschools.org/city/Mill_Creek/WV</url>
<lat>38.7323</lat>
<lon>-79.9722</lon>
<active>1</active>
</city>
<city>
<id>423190</id>
<name>Milton</name>
<state>WV</state>
<rating>7</rating>
<url>http://www.greatschools.org/city/Milton/WV</url>
<lat>38.4366</lat>
<lon>-82.1355</lon>
<active>1</active>
</city>
<city>
<id>422978</id>
<name>Mineral Wells</name>
<state>WV</state>
<rating>5</rating>
<url>http://www.greatschools.org/city/Mineral_Wells/WV</url>
<lat>39.1782</lat>
<lon>-81.5144</lon>
<active>1</active>
</city>
<city>
<id>423216</id>
<name>Moatsville</name>
<state>WV</state>
<rating>7</rating>
<url>http://www.greatschools.org/city/Moatsville/WV</url>
<lat>39.2122</lat>
<lon>-79.9214</lon>
<active>1</active>
</city>
<city>
<id>423111</id>
<name>Monongah</name>
<state>WV</state>
<rating>7</rating>
<url>http://www.greatschools.org/city/Monongah/WV</url>
<lat>39.4597</lat>
<lon>-80.2182</lon>
<active>1</active>
</city>
<city>
<id>423090</id>
<name>Montcalm</name>
<state>WV</state>
<rating>3</rating>
<url>http://www.greatschools.org/city/Montcalm/WV</url>
<lat>37.3522</lat>
<lon>-81.2492</lon>
<active>1</active>
</city>
<city>
<id>443497</id>
<name>Montgomery</name>
<state>WV</state>
<rating/>
<url>http://www.greatschools.org/city/Montgomery/WV</url>
<lat>38.1787</lat>
<lon>-81.3258</lon>
<active>1</active>
</city>
<city>
<id>423155</id>
<name>Moorefield</name>
<state>WV</state>
<rating>5</rating>
<url>http://www.greatschools.org/city/Moorefield/WV</url>
<lat>39.0596</lat>
<lon>-78.9659</lon>
<active>1</active>
</city>
<city>
<id>422899</id>
<name>Morgantown</name>
<state>WV</state>
<rating>8</rating>
<url>http://www.greatschools.org/city/Morgantown/WV</url>
<lat>39.6357</lat>
<lon>-79.9542</lon>
<active>1</active>
</city>
<city>
<id>422947</id>
<name>Moundsville</name>
<state>WV</state>
<rating>4</rating>
<url>http://www.greatschools.org/city/Moundsville/WV</url>
<lat>39.9227</lat>
<lon>-80.7363</lon>
<active>1</active>
</city>
<city>
<id>423037</id>
<name>Mount Hope</name>
<state>WV</state>
<rating>6</rating>
<url>http://www.greatschools.org/city/Mount_Hope/WV</url>
<lat>37.8945</lat>
<lon>-81.1681</lon>
<active>1</active>
</city>
<city>
<id>423066</id>
<name>Mount Lookout</name>
<state>WV</state>
<rating>7</rating>
<url>http://www.greatschools.org/city/Mount_Lookout/WV</url>
<lat>38.1757</lat>
<lon>-80.9116</lon>
<active>1</active>
</city>
<city>
<id>423065</id>
<name>Mount Nebo</name>
<state>WV</state>
<rating>6</rating>
<url>http://www.greatschools.org/city/Mount_Nebo/WV</url>
<lat>38.1958</lat>
<lon>-80.8239</lon>
<active>1</active>
</city>
<city>
<id>423167</id>
<name>Mount Storm</name>
<state>WV</state>
<rating>3</rating>
<url>http://www.greatschools.org/city/Mount_Storm/WV</url>
<lat>39.2549</lat>
<lon>-79.2276</lon>
<active>1</active>
</city>
<city>
<id>423187</id>
<name>Mount Zion</name>
<state>WV</state>
<rating>3</rating>
<url>http://www.greatschools.org/city/Mount_Zion/WV</url>
<lat>38.8825</lat>
<lon>-81.115</lon>
<active>1</active>
</city>
<city>
<id>446422</id>
<name>Mt. Hope</name>
<state>WV</state>
<rating/>
<url>http://www.greatschools.org/city/Mt._Hope/WV</url>
<lat>37.8855</lat>
<lon>-81.1665</lon>
<active>1</active>
</city>
<city>
<id>446423</id>
<name>Mt. Zion</name>
<state>WV</state>
<rating/>
<url>http://www.greatschools.org/city/Mt._Zion/WV</url>
<lat>38.8374</lat>
<lon>-81.1133</lon>
<active>1</active>
</city>
<city>
<id>422970</id>
<name>Mullens</name>
<state>WV</state>
<rating>7</rating>
<url>http://www.greatschools.org/city/Mullens/WV</url>
<lat>37.5839</lat>
<lon>-81.3859</lon>
<active>1</active>
</city>
<city>
<id>423079</id>
<name>Naugatuck</name>
<state>WV</state>
<rating>3</rating>
<url>http://www.greatschools.org/city/Naugatuck/WV</url>
<lat>37.7959</lat>
<lon>-82.2588</lon>
<active>1</active>
</city>
<city>
<id>423209</id>
<name>Nellis</name>
<state>WV</state>
<rating>5</rating>
<url>http://www.greatschools.org/city/Nellis/WV</url>
<lat>38.1782</lat>
<lon>-81.7499</lon>
<active>1</active>
</city>
<city>
<id>443623</id>
<name>Neola</name>
<state>WV</state>
<rating/>
<url>http://www.greatschools.org/city/Neola/WV</url>
<lat>37.8181</lat>
<lon>-80.2711</lon>
<active>1</active>
</city>
<city>
<id>423067</id>
<name>Nettie</name>
<state>WV</state>
<rating>9</rating>
<url>http://www.greatschools.org/city/Nettie/WV</url>
<lat>38.2091</lat>
<lon>-80.6921</lon>
<active>1</active>
</city>
<city>
<id>423086</id>
<name>New Creek</name>
<state>WV</state>
<rating>7</rating>
<url>http://www.greatschools.org/city/New_Creek/WV</url>
<lat>39.3613</lat>
<lon>-79.0458</lon>
<active>1</active>
</city>
<city>
<id>423156</id>
<name>New Cumberland</name>
<state>WV</state>
<rating>6</rating>
<url>http://www.greatschools.org/city/New_Cumberland/WV</url>
<lat>40.4956</lat>
<lon>-80.6044</lon>
<active>1</active>
</city>
<city>
<id>446424</id>
<name>New Haaven</name>
<state>WV</state>
<rating/>
<url>http://www.greatschools.org/city/New_Haaven/WV</url>
<lat>38.9874</lat>
<lon>-81.9694</lon>
<active>1</active>
</city>
<city>
<id>445868</id>
<name>New Manchester</name>
<state>WV</state>
<rating/>
<url>http://www.greatschools.org/city/New_Manchester/WV</url>
<lat>40.5315</lat>
<lon>-80.5801</lon>
<active>1</active>
</city>
<city>
<id>422984</id>
<name>New Martinsville</name>
<state>WV</state>
<rating>6</rating>
<url>http://www.greatschools.org/city/New_Martinsville/WV</url>
<lat>39.6635</lat>
<lon>-80.8574</lon>
<active>1</active>
</city>
<city>
<id>422975</id>
<name>New Richmond</name>
<state>WV</state>
<rating>8</rating>
<url>http://www.greatschools.org/city/New_Richmond/WV</url>
<lat>37.5805</lat>
<lon>-81.5393</lon>
<active>1</active>
</city>
<city>
<id>443496</id>
<name>Newburg</name>
<state>WV</state>
<rating/>
<url>http://www.greatschools.org/city/Newburg/WV</url>
<lat>39.3882</lat>
<lon>-79.8533</lon>
<active>1</active>
</city>
<city>
<id>443495</id>
<name>Newell</name>
<state>WV</state>
<rating/>
<url>http://www.greatschools.org/city/Newell/WV</url>
<lat>40.6173</lat>
<lon>-80.601</lon>
<active>1</active>
</city>
<city>
<id>423040</id>
<name>Nitro</name>
<state>WV</state>
<rating>8</rating>
<url>http://www.greatschools.org/city/Nitro/WV</url>
<lat>38.4153</lat>
<lon>-81.8339</lon>
<active>1</active>
</city>
<city>
<id>423171</id>
<name>Normantown</name>
<state>WV</state>
<rating>9</rating>
<url>http://www.greatschools.org/city/Normantown/WV</url>
<lat>38.8662</lat>
<lon>-80.9368</lon>
<active>1</active>
</city>
<city>
<id>422944</id>
<name>North Matewan</name>
<state>WV</state>
<rating/>
<url>http://www.greatschools.org/city/North_Matewan/WV</url>
<lat>37.6469</lat>
<lon>-82.1383</lon>
<active>1</active>
</city>
<city>
<id>422903</id>
<name>Nutter Fort</name>
<state>WV</state>
<rating>5</rating>
<url>http://www.greatschools.org/city/Nutter_Fort/WV</url>
<lat>39.2615</lat>
<lon>-80.3222</lon>
<active>1</active>
</city>
<city>
<id>422956</id>
<name>Oak Hill</name>
<state>WV</state>
<rating>2</rating>
<url>http://www.greatschools.org/city/Oak_Hill/WV</url>
<lat>37.9848</lat>
<lon>-81.146</lon>
<active>1</active>
</city>
<city>
<id>422968</id>
<name>Oceana</name>
<state>WV</state>
<rating>4</rating>
<url>http://www.greatschools.org/city/Oceana/WV</url>
<lat>37.6933</lat>
<lon>-81.6341</lon>
<active>1</active>
</city>
<city>
<id>445869</id>
<name>Old Fields</name>
<state>WV</state>
<rating/>
<url>http://www.greatschools.org/city/Old_Fields/WV</url>
<lat>39.1348</lat>
<lon>-78.9497</lon>
<active>1</active>
</city>
<city>
<id>422954</id>
<name>Omar</name>
<state>WV</state>
<rating>3</rating>
<url>http://www.greatschools.org/city/Omar/WV</url>
<lat>37.7362</lat>
<lon>-82.0039</lon>
<active>1</active>
</city>
<city>
<id>423189</id>
<name>Ona</name>
<state>WV</state>
<rating>9</rating>
<url>http://www.greatschools.org/city/Ona/WV</url>
<lat>38.4556</lat>
<lon>-82.2245</lon>
<active>1</active>
</city>
<city>
<id>423077</id>
<name>Osage</name>
<state>WV</state>
<rating/>
<url>http://www.greatschools.org/city/Osage/WV</url>
<lat>39.7069</lat>
<lon>-80.0919</lon>
<active>1</active>
</city>
<city>
<id>422983</id>
<name>Paden City</name>
<state>WV</state>
<rating>4</rating>
<url>http://www.greatschools.org/city/Paden_City/WV</url>
<lat>39.6039</lat>
<lon>-80.9338</lon>
<active>1</active>
</city>
<city>
<id>422895</id>
<name>Parkersburg</name>
<state>WV</state>
<rating>5</rating>
<url>http://www.greatschools.org/city/Parkersburg/WV</url>
<lat>39.2653</lat>
<lon>-81.5401</lon>
<active>1</active>
</city>
<city>
<id>422936</id>
<name>Parsons</name>
<state>WV</state>
<rating/>
<url>http://www.greatschools.org/city/Parsons/WV</url>
<lat>39.0953</lat>
<lon>-79.6787</lon>
<active>1</active>
</city>
<city>
<id>423071</id>
<name>Paw Paw</name>
<state>WV</state>
<rating>5</rating>
<url>http://www.greatschools.org/city/Paw_Paw/WV</url>
<lat>39.5308</lat>
<lon>-78.458</lon>
<active>1</active>
</city>
<city>
<id>444606</id>
<name>Pence Springs</name>
<state>WV</state>
<rating/>
<url>http://www.greatschools.org/city/Pence_Springs/WV</url>
<lat>37.6984</lat>
<lon>-80.6751</lon>
<active>1</active>
</city>
<city>
<id>423016</id>
<name>Pennsboro</name>
<state>WV</state>
<rating>4</rating>
<url>http://www.greatschools.org/city/Pennsboro/WV</url>
<lat>39.285</lat>
<lon>-80.9668</lon>
<active>1</active>
</city>
<city>
<id>422891</id>
<name>Petersburg</name>
<state>WV</state>
<rating>5</rating>
<url>http://www.greatschools.org/city/Petersburg/WV</url>
<lat>38.997</lat>
<lon>-79.128</lon>
<active>1</active>
</city>
<city>
<id>423073</id>
<name>Peterstown</name>
<state>WV</state>
<rating>4</rating>
<url>http://www.greatschools.org/city/Peterstown/WV</url>
<lat>37.3993</lat>
<lon>-80.7954</lon>
<active>1</active>
</city>
<city>
<id>422943</id>
<name>Philippi</name>
<state>WV</state>
<rating>3</rating>
<url>http://www.greatschools.org/city/Philippi/WV</url>
<lat>39.1525</lat>
<lon>-80.0442</lon>
<active>1</active>
</city>
<city>
<id>423017</id>
<name>Pickens</name>
<state>WV</state>
<rating/>
<url>http://www.greatschools.org/city/Pickens/WV</url>
<lat>38.6653</lat>
<lon>-80.197</lon>
<active>1</active>
</city>
<city>
<id>443494</id>
<name>Pinch</name>
<state>WV</state>
<rating/>
<url>http://www.greatschools.org/city/Pinch/WV</url>
<lat>38.4058</lat>
<lon>-81.4825</lon>
<active>1</active>
</city>
<city>
<id>422982</id>
<name>Pine Grove</name>
<state>WV</state>
<rating>5</rating>
<url>http://www.greatschools.org/city/Pine_Grove/WV</url>
<lat>39.5636</lat>
<lon>-80.6836</lon>
<active>1</active>
</city>
<city>
<id>422967</id>
<name>Pineville</name>
<state>WV</state>
<rating>4</rating>
<url>http://www.greatschools.org/city/Pineville/WV</url>
<lat>37.5856</lat>
<lon>-81.5362</lon>
<active>1</active>
</city>
<city>
<id>422952</id>
<name>Pipestem</name>
<state>WV</state>
<rating/>
<url>http://www.greatschools.org/city/Pipestem/WV</url>
<lat>37.5328</lat>
<lon>-80.9381</lon>
<active>1</active>
</city>
<city>
<id>423042</id>
<name>Poca</name>
<state>WV</state>
<rating>9</rating>
<url>http://www.greatschools.org/city/Poca/WV</url>
<lat>38.4735</lat>
<lon>-81.8113</lon>
<active>1</active>
</city>
<city>
<id>422897</id>
<name>Point Pleasant</name>
<state>WV</state>
<rating>5</rating>
<url>http://www.greatschools.org/city/Point_Pleasant/WV</url>
<lat>38.8624</lat>
<lon>-82.1289</lon>
<active>1</active>
</city>
<city>
<id>423133</id>
<name>Pratt</name>
<state>WV</state>
<rating>3</rating>
<url>http://www.greatschools.org/city/Pratt/WV</url>
<lat>38.2096</lat>
<lon>-81.3863</lon>
<active>1</active>
</city>
<city>
<id>422994</id>
<name>Prichard</name>
<state>WV</state>
<rating>3</rating>
<url>http://www.greatschools.org/city/Prichard/WV</url>
<lat>38.223</lat>
<lon>-82.5714</lon>
<active>1</active>
</city>
<city>
<id>422921</id>
<name>Princeton</name>
<state>WV</state>
<rating>5</rating>
<url>http://www.greatschools.org/city/Princeton/WV</url>
<lat>37.3702</lat>
<lon>-81.0949</lon>
<active>1</active>
</city>
<city>
<id>443492</id>
<name>Procious</name>
<state>WV</state>
<rating/>
<url>http://www.greatschools.org/city/Procious/WV</url>
<lat>38.4735</lat>
<lon>-81.2175</lon>
<active>1</active>
</city>
<city>
<id>422961</id>
<name>Prosperity</name>
<state>WV</state>
<rating/>
<url>http://www.greatschools.org/city/Prosperity/WV</url>
<lat>37.8341</lat>
<lon>-81.2027</lon>
<active>1</active>
</city>
<city>
<id>446417</id>
<name>Pt. Pleasant</name>
<state>WV</state>
<rating/>
<url>http://www.greatschools.org/city/Pt._Pleasant/WV</url>
<lat>38.8639</lat>
<lon>-82.1302</lon>
<active>1</active>
</city>
<city>
<id>423166</id>
<name>Quinwood</name>
<state>WV</state>
<rating>4</rating>
<url>http://www.greatschools.org/city/Quinwood/WV</url>
<lat>38.0584</lat>
<lon>-80.7035</lon>
<active>1</active>
</city>
<city>
<id>422957</id>
<name>Rainelle</name>
<state>WV</state>
<rating/>
<url>http://www.greatschools.org/city/Rainelle/WV</url>
<lat>37.9693</lat>
<lon>-80.7684</lon>
<active>1</active>
</city>
<city>
<id>423121</id>
<name>Ranger</name>
<state>WV</state>
<rating>7</rating>
<url>http://www.greatschools.org/city/Ranger/WV</url>
<lat>38.1443</lat>
<lon>-82.1894</lon>
<active>1</active>
</city>
<city>
<id>422887</id>
<name>Ranson</name>
<state>WV</state>
<rating>5</rating>
<url>http://www.greatschools.org/city/Ranson/WV</url>
<lat>39.3008</lat>
<lon>-77.8608</lon>
<active>1</active>
</city>
<city>
<id>422960</id>
<name>Ravenswood</name>
<state>WV</state>
<rating>6</rating>
<url>http://www.greatschools.org/city/Ravenswood/WV</url>
<lat>38.9551</lat>
<lon>-81.7617</lon>
<active>1</active>
</city>
<city>
<id>445888</id>
<name>Rawl</name>
<state>WV</state>
<rating/>
<url>http://www.greatschools.org/city/Rawl/WV</url>
<lat>37.6289</lat>
<lon>-82.2023</lon>
<active>1</active>
</city>
<city>
<id>422981</id>
<name>Reader</name>
<state>WV</state>
<rating>5</rating>
<url>http://www.greatschools.org/city/Reader/WV</url>
<lat>39.5833</lat>
<lon>-80.7497</lon>
<active>1</active>
</city>
<city>
<id>423044</id>
<name>Red House</name>
<state>WV</state>
<rating>9</rating>
<url>http://www.greatschools.org/city/Red_House/WV</url>
<lat>38.5473</lat>
<lon>-81.9067</lon>
<active>1</active>
</city>
<city>
<id>445873</id>
<name>Red Jacket</name>
<state>WV</state>
<rating/>
<url>http://www.greatschools.org/city/Red_Jacket/WV</url>
<lat>37.6484</lat>
<lon>-82.1401</lon>
<active>1</active>
</city>
<city>
<id>443489</id>
<name>Reedsville</name>
<state>WV</state>
<rating/>
<url>http://www.greatschools.org/city/Reedsville/WV</url>
<lat>39.5086</lat>
<lon>-79.8003</lon>
<active>1</active>
</city>
<city>
<id>423012</id>
<name>Reedy</name>
<state>WV</state>
<rating>6</rating>
<url>http://www.greatschools.org/city/Reedy/WV</url>
<lat>38.8997</lat>
<lon>-81.4275</lon>
<active>1</active>
</city>
<city>
<id>441891</id>
<name>Renick</name>
<state>WV</state>
<rating/>
<url>http://www.greatschools.org/city/Renick/WV</url>
<lat>37.9923</lat>
<lon>-80.3728</lon>
<active>1</active>
</city>
<city>
<id>423064</id>
<name>Richwood</name>
<state>WV</state>
<rating>6</rating>
<url>http://www.greatschools.org/city/Richwood/WV</url>
<lat>38.2234</lat>
<lon>-80.536</lon>
<active>1</active>
</city>
<city>
<id>423087</id>
<name>Ridgeley</name>
<state>WV</state>
<rating>7</rating>
<url>http://www.greatschools.org/city/Ridgeley/WV</url>
<lat>39.6434</lat>
<lon>-78.7707</lon>
<active>1</active>
</city>
<city>
<id>423141</id>
<name>Ripley</name>
<state>WV</state>
<rating>6</rating>
<url>http://www.greatschools.org/city/Ripley/WV</url>
<lat>38.8181</lat>
<lon>-81.7056</lon>
<active>1</active>
</city>
<city>
<id>423112</id>
<name>Rivesville</name>
<state>WV</state>
<rating>7</rating>
<url>http://www.greatschools.org/city/Rivesville/WV</url>
<lat>39.5322</lat>
<lon>-80.1203</lon>
<active>1</active>
</city>
<city>
<id>423127</id>
<name>Roanoke</name>
<state>WV</state>
<rating>4</rating>
<url>http://www.greatschools.org/city/Roanoke/WV</url>
<lat>38.8743</lat>
<lon>-80.4861</lon>
<active>1</active>
</city>
<city>
<id>423091</id>
<name>Rock</name>
<state>WV</state>
<rating>4</rating>
<url>http://www.greatschools.org/city/Rock/WV</url>
<lat>37.3904</lat>
<lon>-81.215</lon>
<active>1</active>
</city>
<city>
<id>422999</id>
<name>Rock Cave</name>
<state>WV</state>
<rating>5</rating>
<url>http://www.greatschools.org/city/Rock_Cave/WV</url>
<lat>38.7806</lat>
<lon>-80.3171</lon>
<active>1</active>
</city>
<city>
<id>422871</id>
<name>Romney</name>
<state>WV</state>
<rating/>
<url>http://www.greatschools.org/city/Romney/WV</url>
<lat>39.3451</lat>
<lon>-78.7571</lon>
<active>1</active>
</city>
<city>
<id>422955</id>
<name>Ronceverte</name>
<state>WV</state>
<rating>7</rating>
<url>http://www.greatschools.org/city/Ronceverte/WV</url>
<lat>37.7489</lat>
<lon>-80.4718</lon>
<active>1</active>
</city>
<city>
<id>423048</id>
<name>Rowlesburg</name>
<state>WV</state>
<rating>6</rating>
<url>http://www.greatschools.org/city/Rowlesburg/WV</url>
<lat>39.347</lat>
<lon>-79.6751</lon>
<active>1</active>
</city>
<city>
<id>423163</id>
<name>Rupert</name>
<state>WV</state>
<rating>8</rating>
<url>http://www.greatschools.org/city/Rupert/WV</url>
<lat>37.9641</lat>
<lon>-80.6883</lon>
<active>1</active>
</city>
<city>
<id>445876</id>
<name>Saint George</name>
<state>WV</state>
<rating/>
<url>http://www.greatschools.org/city/Saint_George/WV</url>
<lat>39.1668</lat>
<lon>-79.7023</lon>
<active>1</active>
</city>
<city>
<id>422937</id>
<name>Salem</name>
<state>WV</state>
<rating>6</rating>
<url>http://www.greatschools.org/city/Salem/WV</url>
<lat>39.2847</lat>
<lon>-80.5624</lon>
<active>1</active>
</city>
<city>
<id>423191</id>
<name>Salt Rock</name>
<state>WV</state>
<rating>5</rating>
<url>http://www.greatschools.org/city/Salt_Rock/WV</url>
<lat>38.3261</lat>
<lon>-82.2331</lon>
<active>1</active>
</city>
<city>
<id>423170</id>
<name>Sand Fork</name>
<state>WV</state>
<rating>6</rating>
<url>http://www.greatschools.org/city/Sand_Fork/WV</url>
<lat>38.9143</lat>
<lon>-80.7478</lon>
<active>1</active>
</city>
<city>
<id>423143</id>
<name>Sandyville</name>
<state>WV</state>
<rating>6</rating>
<url>http://www.greatschools.org/city/Sandyville/WV</url>
<lat>38.9085</lat>
<lon>-81.6537</lon>
<active>1</active>
</city>
<city>
<id>423174</id>
<name>Scarbro</name>
<state>WV</state>
<rating/>
<url>http://www.greatschools.org/city/Scarbro/WV</url>
<lat>37.956</lat>
<lon>-81.2362</lon>
<active>1</active>
</city>
<city>
<id>445889</id>
<name>Scott</name>
<state>WV</state>
<rating/>
<url>http://www.greatschools.org/city/Scott/WV</url>
<lat>38.4418</lat>
<lon>-81.9168</lon>
<active>1</active>
</city>
<city>
<id>422953</id>
<name>Scott Depot</name>
<state>WV</state>
<rating>10</rating>
<url>http://www.greatschools.org/city/Scott_Depot/WV</url>
<lat>38.4499</lat>
<lon>-81.9051</lon>
<active>1</active>
</city>
<city>
<id>423204</id>
<name>Seth</name>
<state>WV</state>
<rating>4</rating>
<url>http://www.greatschools.org/city/Seth/WV</url>
<lat>38.0697</lat>
<lon>-81.6426</lon>
<active>1</active>
</city>
<city>
<id>423026</id>
<name>Shady Spring</name>
<state>WV</state>
<rating>9</rating>
<url>http://www.greatschools.org/city/Shady_Spring/WV</url>
<lat>37.702</lat>
<lon>-81.0914</lon>
<active>1</active>
</city>
<city>
<id>446425</id>
<name>Shenandoah Junctio</name>
<state>WV</state>
<rating/>
<url>http://www.greatschools.org/city/Shenandoah_Junctio/WV</url>
<lat>39.3567</lat>
<lon>-77.8535</lon>
<active>1</active>
</city>
<city>
<id>423140</id>
<name>Shenandoah Junction</name>
<state>WV</state>
<rating>8</rating>
<url>http://www.greatschools.org/city/Shenandoah_Junction/WV</url>
<lat>39.367</lat>
<lon>-77.828</lon>
<active>1</active>
</city>
<city>
<id>423139</id>
<name>Shepherdstown</name>
<state>WV</state>
<rating>9</rating>
<url>http://www.greatschools.org/city/Shepherdstown/WV</url>
<lat>39.4312</lat>
<lon>-77.8061</lon>
<active>1</active>
</city>
<city>
<id>423150</id>
<name>Shinnston</name>
<state>WV</state>
<rating>6</rating>
<url>http://www.greatschools.org/city/Shinnston/WV</url>
<lat>39.3934</lat>
<lon>-80.299</lon>
<active>1</active>
</city>
<city>
<id>445879</id>
<name>Sias</name>
<state>WV</state>
<rating/>
<url>http://www.greatschools.org/city/Sias/WV</url>
<lat>38.1848</lat>
<lon>-82.0874</lon>
<active>1</active>
</city>
<city>
<id>423130</id>
<name>Sissonville</name>
<state>WV</state>
<rating>7</rating>
<url>http://www.greatschools.org/city/Sissonville/WV</url>
<lat>38.4953</lat>
<lon>-81.6492</lon>
<active>1</active>
</city>
<city>
<id>423001</id>
<name>Sistersville</name>
<state>WV</state>
<rating>7</rating>
<url>http://www.greatschools.org/city/Sistersville/WV</url>
<lat>39.5615</lat>
<lon>-80.9973</lon>
<active>1</active>
</city>
<city>
<id>422881</id>
<name>Slanesville</name>
<state>WV</state>
<rating>7</rating>
<url>http://www.greatschools.org/city/Slanesville/WV</url>
<lat>39.3991</lat>
<lon>-78.5025</lon>
<active>1</active>
</city>
<city>
<id>423173</id>
<name>Smithers</name>
<state>WV</state>
<rating>3</rating>
<url>http://www.greatschools.org/city/Smithers/WV</url>
<lat>38.1762</lat>
<lon>-81.306</lon>
<active>1</active>
</city>
<city>
<id>423013</id>
<name>Smithville</name>
<state>WV</state>
<rating>6</rating>
<url>http://www.greatschools.org/city/Smithville/WV</url>
<lat>39.0697</lat>
<lon>-81.064</lon>
<active>1</active>
</city>
<city>
<id>423162</id>
<name>Smoot</name>
<state>WV</state>
<rating>9</rating>
<url>http://www.greatschools.org/city/Smoot/WV</url>
<lat>37.8815</lat>
<lon>-80.6833</lon>
<active>1</active>
</city>
<city>
<id>422880</id>
<name>Sophia</name>
<state>WV</state>
<rating>6</rating>
<url>http://www.greatschools.org/city/Sophia/WV</url>
<lat>37.7095</lat>
<lon>-81.2529</lon>
<active>1</active>
</city>
<city>
<id>423132</id>
<name>South Charleston</name>
<state>WV</state>
<rating>8</rating>
<url>http://www.greatschools.org/city/South_Charleston/WV</url>
<lat>38.3539</lat>
<lon>-81.7105</lon>
<active>1</active>
</city>
<city>
<id>423088</id>
<name>Spanishburg</name>
<state>WV</state>
<rating>2</rating>
<url>http://www.greatschools.org/city/Spanishburg/WV</url>
<lat>37.4532</lat>
<lon>-81.0934</lon>
<active>1</active>
</city>
<city>
<id>423010</id>
<name>Spencer</name>
<state>WV</state>
<rating>4</rating>
<url>http://www.greatschools.org/city/Spencer/WV</url>
<lat>38.8033</lat>
<lon>-81.3537</lon>
<active>1</active>
</city>
<city>
<id>423159</id>
<name>Springfield</name>
<state>WV</state>
<rating>6</rating>
<url>http://www.greatschools.org/city/Springfield/WV</url>
<lat>39.4629</lat>
<lon>-78.6937</lon>
<active>1</active>
</city>
<city>
<id>422908</id>
<name>St. Albans</name>
<state>WV</state>
<rating>6</rating>
<url>http://www.greatschools.org/city/St._Albans/WV</url>
<lat>38.3785</lat>
<lon>-81.8185</lon>
<active>1</active>
</city>
<city>
<id>422905</id>
<name>St. Marys</name>
<state>WV</state>
<rating>6</rating>
<url>http://www.greatschools.org/city/St._Marys/WV</url>
<lat>39.3983</lat>
<lon>-81.1975</lon>
<active>1</active>
</city>
<city>
<id>443484</id>
<name>Star City</name>
<state>WV</state>
<rating/>
<url>http://www.greatschools.org/city/Star_City/WV</url>
<lat>39.6587</lat>
<lon>-79.9848</lon>
<active>1</active>
</city>
<city>
<id>423153</id>
<name>Stonewood</name>
<state>WV</state>
<rating>7</rating>
<url>http://www.greatschools.org/city/Stonewood/WV</url>
<lat>39.2512</lat>
<lon>-80.3104</lon>
<active>1</active>
</city>
<city>
<id>422946</id>
<name>Summersville</name>
<state>WV</state>
<rating>7</rating>
<url>http://www.greatschools.org/city/Summersville/WV</url>
<lat>38.2823</lat>
<lon>-80.8449</lon>
<active>1</active>
</city>
<city>
<id>423038</id>
<name>Sundial</name>
<state>WV</state>
<rating>3</rating>
<url>http://www.greatschools.org/city/Sundial/WV</url>
<lat>37.876</lat>
<lon>-81.5141</lon>
<active>1</active>
</city>
<city>
<id>423025</id>
<name>Surveyor</name>
<state>WV</state>
<rating>6</rating>
<url>http://www.greatschools.org/city/Surveyor/WV</url>
<lat>37.7519</lat>
<lon>-81.2948</lon>
<active>1</active>
</city>
<city>
<id>423198</id>
<name>Sutton</name>
<state>WV</state>
<rating>4</rating>
<url>http://www.greatschools.org/city/Sutton/WV</url>
<lat>38.6651</lat>
<lon>-80.709</lon>
<active>1</active>
</city>
<city>
<id>423135</id>
<name>Tad</name>
<state>WV</state>
<rating>6</rating>
<url>http://www.greatschools.org/city/Tad/WV</url>
<lat>38.3043</lat>
<lon>-81.5358</lon>
<active>1</active>
</city>
<city>
<id>423007</id>
<name>Talcott</name>
<state>WV</state>
<rating>8</rating>
<url>http://www.greatschools.org/city/Talcott/WV</url>
<lat>37.6408</lat>
<lon>-80.7436</lon>
<active>1</active>
</city>
<city>
<id>422930</id>
<name>Teays</name>
<state>WV</state>
<rating/>
<url>http://www.greatschools.org/city/Teays/WV</url>
<lat>38.4483</lat>
<lon>-81.9412</lon>
<active>1</active>
</city>
<city>
<id>446426</id>
<name>Teays Valley</name>
<state>WV</state>
<rating/>
<url>http://www.greatschools.org/city/Teays_Valley/WV</url>
<lat>38.449</lat>
<lon>-81.9403</lon>
<active>1</active>
</city>
<city>
<id>423051</id>
<name>Terra Alta</name>
<state>WV</state>
<rating>5</rating>
<url>http://www.greatschools.org/city/Terra_Alta/WV</url>
<lat>39.4451</lat>
<lon>-79.5443</lon>
<active>1</active>
</city>
<city>
<id>423004</id>
<name>Thomas</name>
<state>WV</state>
<rating>6</rating>
<url>http://www.greatschools.org/city/Thomas/WV</url>
<lat>39.1466</lat>
<lon>-79.4977</lon>
<active>1</active>
</city>
<city>
<id>422931</id>
<name>Triadelphia</name>
<state>WV</state>
<rating>8</rating>
<url>http://www.greatschools.org/city/Triadelphia/WV</url>
<lat>40.0445</lat>
<lon>-80.6215</lon>
<active>1</active>
</city>
<city>
<id>423169</id>
<name>Troy</name>
<state>WV</state>
<rating>4</rating>
<url>http://www.greatschools.org/city/Troy/WV</url>
<lat>39.0831</lat>
<lon>-80.756</lon>
<active>1</active>
</city>
<city>
<id>423047</id>
<name>Tunnelton</name>
<state>WV</state>
<rating>3</rating>
<url>http://www.greatschools.org/city/Tunnelton/WV</url>
<lat>39.3931</lat>
<lon>-79.7478</lon>
<active>1</active>
</city>
<city>
<id>443481</id>
<name>Unger</name>
<state>WV</state>
<rating/>
<url>http://www.greatschools.org/city/Unger/WV</url>
<lat>39.5681</lat>
<lon>-78.2274</lon>
<active>1</active>
</city>
<city>
<id>422924</id>
<name>Union</name>
<state>WV</state>
<rating>6</rating>
<url>http://www.greatschools.org/city/Union/WV</url>
<lat>37.5906</lat>
<lon>-80.5421</lon>
<active>1</active>
</city>
<city>
<id>422988</id>
<name>Upperglade</name>
<state>WV</state>
<rating>3</rating>
<url>http://www.greatschools.org/city/Upperglade/WV</url>
<lat>38.4197</lat>
<lon>-80.4988</lon>
<active>1</active>
</city>
<city>
<id>423018</id>
<name>Valley Head</name>
<state>WV</state>
<rating/>
<url>http://www.greatschools.org/city/Valley_Head/WV</url>
<lat>38.5311</lat>
<lon>-80.0444</lon>
<active>1</active>
</city>
<city>
<id>422950</id>
<name>Van</name>
<state>WV</state>
<rating>3</rating>
<url>http://www.greatschools.org/city/Van/WV</url>
<lat>37.9586</lat>
<lon>-81.7202</lon>
<active>1</active>
</city>
<city>
<id>423115</id>
<name>Verdunville</name>
<state>WV</state>
<rating>5</rating>
<url>http://www.greatschools.org/city/Verdunville/WV</url>
<lat>37.8413</lat>
<lon>-82.0071</lon>
<active>1</active>
</city>
<city>
<id>422977</id>
<name>Vienna</name>
<state>WV</state>
<rating>9</rating>
<url>http://www.greatschools.org/city/Vienna/WV</url>
<lat>39.3264</lat>
<lon>-81.5416</lon>
<active>1</active>
</city>
<city>
<id>423214</id>
<name>Volga</name>
<state>WV</state>
<rating>2</rating>
<url>http://www.greatschools.org/city/Volga/WV</url>
<lat>39.0759</lat>
<lon>-80.1488</lon>
<active>1</active>
</city>
<city>
<id>423146</id>
<name>Walker</name>
<state>WV</state>
<rating/>
<url>http://www.greatschools.org/city/Walker/WV</url>
<lat>39.1784</lat>
<lon>-81.3846</lon>
<active>1</active>
</city>
<city>
<id>423011</id>
<name>Walton</name>
<state>WV</state>
<rating>5</rating>
<url>http://www.greatschools.org/city/Walton/WV</url>
<lat>38.611</lat>
<lon>-81.4045</lon>
<active>1</active>
</city>
<city>
<id>423097</id>
<name>War</name>
<state>WV</state>
<rating>1</rating>
<url>http://www.greatschools.org/city/War/WV</url>
<lat>37.3032</lat>
<lon>-81.681</lon>
<active>1</active>
</city>
<city>
<id>443479</id>
<name>Washington</name>
<state>WV</state>
<rating/>
<url>http://www.greatschools.org/city/Washington/WV</url>
<lat>39.2389</lat>
<lon>-81.6688</lon>
<active>1</active>
</city>
<city>
<id>422976</id>
<name>Waverly</name>
<state>WV</state>
<rating>5</rating>
<url>http://www.greatschools.org/city/Waverly/WV</url>
<lat>39.31</lat>
<lon>-81.3682</lon>
<active>1</active>
</city>
<city>
<id>422993</id>
<name>Wayne</name>
<state>WV</state>
<rating>4</rating>
<url>http://www.greatschools.org/city/Wayne/WV</url>
<lat>38.2221</lat>
<lon>-82.4418</lon>
<active>1</active>
</city>
<city>
<id>422987</id>
<name>Webster Springs</name>
<state>WV</state>
<rating>5</rating>
<url>http://www.greatschools.org/city/Webster_Springs/WV</url>
<lat>38.4779</lat>
<lon>-80.3996</lon>
<active>1</active>
</city>
<city>
<id>422939</id>
<name>Weirton</name>
<state>WV</state>
<rating>6</rating>
<url>http://www.greatschools.org/city/Weirton/WV</url>
<lat>40.4097</lat>
<lon>-80.5695</lon>
<active>1</active>
</city>
<city>
<id>422893</id>
<name>Welch</name>
<state>WV</state>
<rating>1</rating>
<url>http://www.greatschools.org/city/Welch/WV</url>
<lat>37.4359</lat>
<lon>-81.5793</lon>
<active>1</active>
</city>
<city>
<id>422963</id>
<name>Wellsburg</name>
<state>WV</state>
<rating>6</rating>
<url>http://www.greatschools.org/city/Wellsburg/WV</url>
<lat>40.28</lat>
<lon>-80.6087</lon>
<active>1</active>
</city>
<city>
<id>445881</id>
<name>West Columbia</name>
<state>WV</state>
<rating/>
<url>http://www.greatschools.org/city/West_Columbia/WV</url>
<lat>38.9831</lat>
<lon>-82.0635</lon>
<active>1</active>
</city>
<city>
<id>423120</id>
<name>West Hamlin</name>
<state>WV</state>
<rating>7</rating>
<url>http://www.greatschools.org/city/West_Hamlin/WV</url>
<lat>38.2868</lat>
<lon>-82.1955</lon>
<active>1</active>
</city>
<city>
<id>423152</id>
<name>West Milford</name>
<state>WV</state>
<rating>8</rating>
<url>http://www.greatschools.org/city/West_Milford/WV</url>
<lat>39.204</lat>
<lon>-80.403</lon>
<active>1</active>
</city>
<city>
<id>422906</id>
<name>West Union</name>
<state>WV</state>
<rating>5</rating>
<url>http://www.greatschools.org/city/West_Union/WV</url>
<lat>39.2962</lat>
<lon>-80.7754</lon>
<active>1</active>
</city>
<city>
<id>422932</id>
<name>Weston</name>
<state>WV</state>
<rating>5</rating>
<url>http://www.greatschools.org/city/Weston/WV</url>
<lat>39.0426</lat>
<lon>-80.4687</lon>
<active>1</active>
</city>
<city>
<id>423074</id>
<name>Westover</name>
<state>WV</state>
<rating/>
<url>http://www.greatschools.org/city/Westover/WV</url>
<lat>39.6354</lat>
<lon>-79.9756</lon>
<active>1</active>
</city>
<city>
<id>445882</id>
<name>Wharncliffe</name>
<state>WV</state>
<rating/>
<url>http://www.greatschools.org/city/Wharncliffe/WV</url>
<lat>37.5554</lat>
<lon>-81.9657</lon>
<active>1</active>
</city>
<city>
<id>423203</id>
<name>Wharton</name>
<state>WV</state>
<rating>6</rating>
<url>http://www.greatschools.org/city/Wharton/WV</url>
<lat>37.8997</lat>
<lon>-81.6884</lon>
<active>1</active>
</city>
<city>
<id>422878</id>
<name>Wheeling</name>
<state>WV</state>
<rating>8</rating>
<url>http://www.greatschools.org/city/Wheeling/WV</url>
<lat>40.0699</lat>
<lon>-80.6959</lon>
<active>1</active>
</city>
<city>
<id>446427</id>
<name>White Sulphur Spri</name>
<state>WV</state>
<rating/>
<url>http://www.greatschools.org/city/White_Sulphur_Spri/WV</url>
<lat>37.7947</lat>
<lon>-80.2953</lon>
<active>1</active>
</city>
<city>
<id>423024</id>
<name>Whitesville</name>
<state>WV</state>
<rating>3</rating>
<url>http://www.greatschools.org/city/Whitesville/WV</url>
<lat>37.9797</lat>
<lon>-81.5344</lon>
<active>1</active>
</city>
<city>
<id>423085</id>
<name>Wiley Ford</name>
<state>WV</state>
<rating/>
<url>http://www.greatschools.org/city/Wiley_Ford/WV</url>
<lat>39.6132</lat>
<lon>-78.7735</lon>
<active>1</active>
</city>
<city>
<id>422964</id>
<name>Williamson</name>
<state>WV</state>
<rating>4</rating>
<url>http://www.greatschools.org/city/Williamson/WV</url>
<lat>37.6731</lat>
<lon>-82.2751</lon>
<active>1</active>
</city>
<city>
<id>422934</id>
<name>Williamstown</name>
<state>WV</state>
<rating>8</rating>
<url>http://www.greatschools.org/city/Williamstown/WV</url>
<lat>39.3989</lat>
<lon>-81.4516</lon>
<active>1</active>
</city>
<city>
<id>423039</id>
<name>Winfield</name>
<state>WV</state>
<rating>9</rating>
<url>http://www.greatschools.org/city/Winfield/WV</url>
<lat>38.533</lat>
<lon>-81.8863</lon>
<active>1</active>
</city>
<city>
<id>445884</id>
<name>Wyoming</name>
<state>WV</state>
<rating/>
<url>http://www.greatschools.org/city/Wyoming/WV</url>
<lat>37.5823</lat>
<lon>-81.6018</lon>
<active>1</active>
</city>
<city>
<id>443474</id>
<name>Yolyn</name>
<state>WV</state>
<rating/>
<url>http://www.greatschools.org/city/Yolyn/WV</url>
<lat>37.865</lat>
<lon>-81.8709</lon>
<active>1</active>
</city>
</greatschools-city-feed>
