<?xml version="1.0" encoding="utf-8"?><greatschools-city-feed xmlns:xsi="http://www.w3.org/2001/XMLSchema-instance" xsi:noNamespaceSchemaLocation="http://www.greatschools.org/feeds/greatschools-city2.xsd">
<city>
<id>421957</id>
<name>Addison</name>
<state>VT</state>
<rating>6</rating>
<url>http://www.greatschools.org/city/Addison/VT</url>
<lat>44.1278</lat>
<lon>-73.0635</lon>
<active>1</active>
</city>
<city>
<id>421956</id>
<name>Albany</name>
<state>VT</state>
<rating/>
<url>http://www.greatschools.org/city/Albany/VT</url>
<lat>44.7328</lat>
<lon>-72.3783</lon>
<active>1</active>
</city>
<city>
<id>421955</id>
<name>Alburg</name>
<state>VT</state>
<rating>3</rating>
<url>http://www.greatschools.org/city/Alburg/VT</url>
<lat>44.9741</lat>
<lon>-73.3024</lon>
<active>1</active>
</city>
<city>
<id>421863</id>
<name>Arlington</name>
<state>VT</state>
<rating>5</rating>
<url>http://www.greatschools.org/city/Arlington/VT</url>
<lat>43.0683</lat>
<lon>-73.1487</lon>
<active>1</active>
</city>
<city>
<id>421841</id>
<name>Ascutney</name>
<state>VT</state>
<rating>5</rating>
<url>http://www.greatschools.org/city/Ascutney/VT</url>
<lat>43.4786</lat>
<lon>-72.4109</lon>
<active>1</active>
</city>
<city>
<id>421954</id>
<name>Bakersfield</name>
<state>VT</state>
<rating>5</rating>
<url>http://www.greatschools.org/city/Bakersfield/VT</url>
<lat>44.7796</lat>
<lon>-72.7735</lon>
<active>1</active>
</city>
<city>
<id>421953</id>
<name>Barnard</name>
<state>VT</state>
<rating>6</rating>
<url>http://www.greatschools.org/city/Barnard/VT</url>
<lat>43.6922</lat>
<lon>-72.5347</lon>
<active>1</active>
</city>
<city>
<id>421952</id>
<name>Barnet</name>
<state>VT</state>
<rating>5</rating>
<url>http://www.greatschools.org/city/Barnet/VT</url>
<lat>44.3061</lat>
<lon>-72.1062</lon>
<active>1</active>
</city>
<city>
<id>421816</id>
<name>Barre</name>
<state>VT</state>
<rating>5</rating>
<url>http://www.greatschools.org/city/Barre/VT</url>
<lat>44.1983</lat>
<lon>-72.5034</lon>
<active>1</active>
</city>
<city>
<id>421821</id>
<name>Barton</name>
<state>VT</state>
<rating>6</rating>
<url>http://www.greatschools.org/city/Barton/VT</url>
<lat>44.7482</lat>
<lon>-72.1781</lon>
<active>1</active>
</city>
<city>
<id>421812</id>
<name>Beecher Falls</name>
<state>VT</state>
<rating/>
<url>http://www.greatschools.org/city/Beecher_Falls/VT</url>
<lat>45.0062</lat>
<lon>-71.518</lon>
<active>1</active>
</city>
<city>
<id>421852</id>
<name>Bellows Falls</name>
<state>VT</state>
<rating>3</rating>
<url>http://www.greatschools.org/city/Bellows_Falls/VT</url>
<lat>43.1331</lat>
<lon>-72.451</lon>
<active>1</active>
</city>
<city>
<id>421750</id>
<name>Bennington</name>
<state>VT</state>
<rating>4</rating>
<url>http://www.greatschools.org/city/Bennington/VT</url>
<lat>42.8775</lat>
<lon>-73.1894</lon>
<active>1</active>
</city>
<city>
<id>421781</id>
<name>Benson</name>
<state>VT</state>
<rating>4</rating>
<url>http://www.greatschools.org/city/Benson/VT</url>
<lat>43.6281</lat>
<lon>-73.2698</lon>
<active>1</active>
</city>
<city>
<id>421951</id>
<name>Berlin</name>
<state>VT</state>
<rating>4</rating>
<url>http://www.greatschools.org/city/Berlin/VT</url>
<lat>44.2409</lat>
<lon>-72.5364</lon>
<active>1</active>
</city>
<city>
<id>421950</id>
<name>Bethel</name>
<state>VT</state>
<rating>3</rating>
<url>http://www.greatschools.org/city/Bethel/VT</url>
<lat>43.8214</lat>
<lon>-72.6402</lon>
<active>1</active>
</city>
<city>
<id>421949</id>
<name>Bolton</name>
<state>VT</state>
<rating>8</rating>
<url>http://www.greatschools.org/city/Bolton/VT</url>
<lat>44.3738</lat>
<lon>-72.8769</lon>
<active>1</active>
</city>
<city>
<id>445795</id>
<name>Bomoseen</name>
<state>VT</state>
<rating/>
<url>http://www.greatschools.org/city/Bomoseen/VT</url>
<lat>43.609</lat>
<lon>-73.2129</lon>
<active>1</active>
</city>
<city>
<id>421851</id>
<name>Bradford</name>
<state>VT</state>
<rating>4</rating>
<url>http://www.greatschools.org/city/Bradford/VT</url>
<lat>43.9949</lat>
<lon>-72.1279</lon>
<active>1</active>
</city>
<city>
<id>421948</id>
<name>Braintree</name>
<state>VT</state>
<rating>5</rating>
<url>http://www.greatschools.org/city/Braintree/VT</url>
<lat>43.9556</lat>
<lon>-72.7225</lon>
<active>1</active>
</city>
<city>
<id>421864</id>
<name>Brandon</name>
<state>VT</state>
<rating>4</rating>
<url>http://www.greatschools.org/city/Brandon/VT</url>
<lat>43.7992</lat>
<lon>-73.0862</lon>
<active>1</active>
</city>
<city>
<id>421751</id>
<name>Brattleboro</name>
<state>VT</state>
<rating>6</rating>
<url>http://www.greatschools.org/city/Brattleboro/VT</url>
<lat>42.8512</lat>
<lon>-72.5642</lon>
<active>1</active>
</city>
<city>
<id>421946</id>
<name>Bridgewater</name>
<state>VT</state>
<rating/>
<url>http://www.greatschools.org/city/Bridgewater/VT</url>
<lat>43.5802</lat>
<lon>-72.6432</lon>
<active>1</active>
</city>
<city>
<id>421947</id>
<name>Bridport</name>
<state>VT</state>
<rating>2</rating>
<url>http://www.greatschools.org/city/Bridport/VT</url>
<lat>43.9789</lat>
<lon>-73.339</lon>
<active>1</active>
</city>
<city>
<id>421776</id>
<name>Bristol</name>
<state>VT</state>
<rating>5</rating>
<url>http://www.greatschools.org/city/Bristol/VT</url>
<lat>44.1408</lat>
<lon>-73.0618</lon>
<active>1</active>
</city>
<city>
<id>421944</id>
<name>Brookfield</name>
<state>VT</state>
<rating>8</rating>
<url>http://www.greatschools.org/city/Brookfield/VT</url>
<lat>44.0261</lat>
<lon>-72.5869</lon>
<active>1</active>
</city>
<city>
<id>421943</id>
<name>Brookline</name>
<state>VT</state>
<rating/>
<url>http://www.greatschools.org/city/Brookline/VT</url>
<lat>43.0143</lat>
<lon>-72.6077</lon>
<active>1</active>
</city>
<city>
<id>421942</id>
<name>Brownington</name>
<state>VT</state>
<rating>4</rating>
<url>http://www.greatschools.org/city/Brownington/VT</url>
<lat>44.8199</lat>
<lon>-72.1377</lon>
<active>1</active>
</city>
<city>
<id>421753</id>
<name>Brownsville</name>
<state>VT</state>
<rating>9</rating>
<url>http://www.greatschools.org/city/Brownsville/VT</url>
<lat>43.4619</lat>
<lon>-72.4859</lon>
<active>1</active>
</city>
<city>
<id>446397</id>
<name>Burke</name>
<state>VT</state>
<rating/>
<url>http://www.greatschools.org/city/Burke/VT</url>
<lat>44.5914</lat>
<lon>-71.9081</lon>
<active>1</active>
</city>
<city>
<id>421766</id>
<name>Burlington</name>
<state>VT</state>
<rating>5</rating>
<url>http://www.greatschools.org/city/Burlington/VT</url>
<lat>44.4854</lat>
<lon>-73.221</lon>
<active>1</active>
</city>
<city>
<id>421940</id>
<name>Cabot</name>
<state>VT</state>
<rating>6</rating>
<url>http://www.greatschools.org/city/Cabot/VT</url>
<lat>44.4044</lat>
<lon>-72.3102</lon>
<active>1</active>
</city>
<city>
<id>443416</id>
<name>Calais</name>
<state>VT</state>
<rating/>
<url>http://www.greatschools.org/city/Calais/VT</url>
<lat>44.3844</lat>
<lon>-72.4924</lon>
<active>1</active>
</city>
<city>
<id>421923</id>
<name>Cambridge</name>
<state>VT</state>
<rating>6</rating>
<url>http://www.greatschools.org/city/Cambridge/VT</url>
<lat>44.6437</lat>
<lon>-72.8771</lon>
<active>1</active>
</city>
<city>
<id>421938</id>
<name>Canaan</name>
<state>VT</state>
<rating>4</rating>
<url>http://www.greatschools.org/city/Canaan/VT</url>
<lat>44.9782</lat>
<lon>-71.5653</lon>
<active>1</active>
</city>
<city>
<id>421961</id>
<name>Castleton</name>
<state>VT</state>
<rating>6</rating>
<url>http://www.greatschools.org/city/Castleton/VT</url>
<lat>43.6269</lat>
<lon>-73.1696</lon>
<active>1</active>
</city>
<city>
<id>445796</id>
<name>Cavendish</name>
<state>VT</state>
<rating/>
<url>http://www.greatschools.org/city/Cavendish/VT</url>
<lat>43.4033</lat>
<lon>-72.5796</lon>
<active>1</active>
</city>
<city>
<id>443414</id>
<name>Center Rutland</name>
<state>VT</state>
<rating/>
<url>http://www.greatschools.org/city/Center_Rutland/VT</url>
<lat>43.6181</lat>
<lon>-73.0134</lon>
<active>1</active>
</city>
<city>
<id>421789</id>
<name>Charlotte</name>
<state>VT</state>
<rating>10</rating>
<url>http://www.greatschools.org/city/Charlotte/VT</url>
<lat>44.3092</lat>
<lon>-73.2268</lon>
<active>1</active>
</city>
<city>
<id>421806</id>
<name>Chelsea</name>
<state>VT</state>
<rating>5</rating>
<url>http://www.greatschools.org/city/Chelsea/VT</url>
<lat>43.9929</lat>
<lon>-72.4585</lon>
<active>1</active>
</city>
<city>
<id>421850</id>
<name>Chester</name>
<state>VT</state>
<rating>7</rating>
<url>http://www.greatschools.org/city/Chester/VT</url>
<lat>43.2727</lat>
<lon>-72.6049</lon>
<active>1</active>
</city>
<city>
<id>421822</id>
<name>Chittenden</name>
<state>VT</state>
<rating>8</rating>
<url>http://www.greatschools.org/city/Chittenden/VT</url>
<lat>43.7068</lat>
<lon>-72.9379</lon>
<active>1</active>
</city>
<city>
<id>421778</id>
<name>Colchester</name>
<state>VT</state>
<rating>8</rating>
<url>http://www.greatschools.org/city/Colchester/VT</url>
<lat>44.5359</lat>
<lon>-73.2</lon>
<active>1</active>
</city>
<city>
<id>421827</id>
<name>Concord</name>
<state>VT</state>
<rating>4</rating>
<url>http://www.greatschools.org/city/Concord/VT</url>
<lat>44.4454</lat>
<lon>-71.885</lon>
<active>1</active>
</city>
<city>
<id>421935</id>
<name>Cornwall</name>
<state>VT</state>
<rating>9</rating>
<url>http://www.greatschools.org/city/Cornwall/VT</url>
<lat>43.9639</lat>
<lon>-73.2064</lon>
<active>1</active>
</city>
<city>
<id>421934</id>
<name>Coventry</name>
<state>VT</state>
<rating>5</rating>
<url>http://www.greatschools.org/city/Coventry/VT</url>
<lat>44.8582</lat>
<lon>-72.2368</lon>
<active>1</active>
</city>
<city>
<id>443415</id>
<name>Craftsbury</name>
<state>VT</state>
<rating/>
<url>http://www.greatschools.org/city/Craftsbury/VT</url>
<lat>44.6434</lat>
<lon>-72.3932</lon>
<active>1</active>
</city>
<city>
<id>421933</id>
<name>Craftsbury Common</name>
<state>VT</state>
<rating>6</rating>
<url>http://www.greatschools.org/city/Craftsbury_Common/VT</url>
<lat>44.6743</lat>
<lon>-72.3695</lon>
<active>1</active>
</city>
<city>
<id>421870</id>
<name>Cuttingsville</name>
<state>VT</state>
<rating/>
<url>http://www.greatschools.org/city/Cuttingsville/VT</url>
<lat>43.5231</lat>
<lon>-72.8683</lon>
<active>1</active>
</city>
<city>
<id>421797</id>
<name>Danby</name>
<state>VT</state>
<rating>3</rating>
<url>http://www.greatschools.org/city/Danby/VT</url>
<lat>43.3583</lat>
<lon>-73.0125</lon>
<active>1</active>
</city>
<city>
<id>421828</id>
<name>Danville</name>
<state>VT</state>
<rating>5</rating>
<url>http://www.greatschools.org/city/Danville/VT</url>
<lat>44.4304</lat>
<lon>-72.1179</lon>
<active>1</active>
</city>
<city>
<id>421830</id>
<name>Derby</name>
<state>VT</state>
<rating>4</rating>
<url>http://www.greatschools.org/city/Derby/VT</url>
<lat>44.954</lat>
<lon>-72.1148</lon>
<active>1</active>
</city>
<city>
<id>421913</id>
<name>Derby Line</name>
<state>VT</state>
<rating>5</rating>
<url>http://www.greatschools.org/city/Derby_Line/VT</url>
<lat>45.0016</lat>
<lon>-72.1029</lon>
<active>1</active>
</city>
<city>
<id>421756</id>
<name>Dorset</name>
<state>VT</state>
<rating>8</rating>
<url>http://www.greatschools.org/city/Dorset/VT</url>
<lat>43.2508</lat>
<lon>-73.0711</lon>
<active>1</active>
</city>
<city>
<id>446398</id>
<name>Dover</name>
<state>VT</state>
<rating/>
<url>http://www.greatschools.org/city/Dover/VT</url>
<lat>42.9686</lat>
<lon>-72.8945</lon>
<active>1</active>
</city>
<city>
<id>421915</id>
<name>Duxbury</name>
<state>VT</state>
<rating>5</rating>
<url>http://www.greatschools.org/city/Duxbury/VT</url>
<lat>44.3046</lat>
<lon>-72.7702</lon>
<active>1</active>
</city>
<city>
<id>421889</id>
<name>East Barre</name>
<state>VT</state>
<rating>2</rating>
<url>http://www.greatschools.org/city/East_Barre/VT</url>
<lat>44.1587</lat>
<lon>-72.4484</lon>
<active>1</active>
</city>
<city>
<id>421819</id>
<name>East Burke</name>
<state>VT</state>
<rating/>
<url>http://www.greatschools.org/city/East_Burke/VT</url>
<lat>44.6045</lat>
<lon>-71.9169</lon>
<active>1</active>
</city>
<city>
<id>443413</id>
<name>East Charleston</name>
<state>VT</state>
<rating/>
<url>http://www.greatschools.org/city/East_Charleston/VT</url>
<lat>44.837</lat>
<lon>-71.9789</lon>
<active>1</active>
</city>
<city>
<id>421855</id>
<name>East Corinth</name>
<state>VT</state>
<rating>2</rating>
<url>http://www.greatschools.org/city/East_Corinth/VT</url>
<lat>44.068</lat>
<lon>-72.2106</lon>
<active>1</active>
</city>
<city>
<id>443410</id>
<name>East Dorset</name>
<state>VT</state>
<rating/>
<url>http://www.greatschools.org/city/East_Dorset/VT</url>
<lat>43.2387</lat>
<lon>-73.0074</lon>
<active>1</active>
</city>
<city>
<id>421932</id>
<name>East Dover</name>
<state>VT</state>
<rating>10</rating>
<url>http://www.greatschools.org/city/East_Dover/VT</url>
<lat>42.9518</lat>
<lon>-72.7824</lon>
<active>1</active>
</city>
<city>
<id>421931</id>
<name>East Dummerston</name>
<state>VT</state>
<rating>8</rating>
<url>http://www.greatschools.org/city/East_Dummerston/VT</url>
<lat>43.0313</lat>
<lon>-72.5441</lon>
<active>1</active>
</city>
<city>
<id>443409</id>
<name>East Hardwick</name>
<state>VT</state>
<rating/>
<url>http://www.greatschools.org/city/East_Hardwick/VT</url>
<lat>44.522</lat>
<lon>-72.2957</lon>
<active>1</active>
</city>
<city>
<id>421930</id>
<name>East Haven</name>
<state>VT</state>
<rating/>
<url>http://www.greatschools.org/city/East_Haven/VT</url>
<lat>44.6519</lat>
<lon>-71.8661</lon>
<active>1</active>
</city>
<city>
<id>421786</id>
<name>East Montpelier</name>
<state>VT</state>
<rating>7</rating>
<url>http://www.greatschools.org/city/East_Montpelier/VT</url>
<lat>44.2716</lat>
<lon>-72.4915</lon>
<active>1</active>
</city>
<city>
<id>421758</id>
<name>East Randolph</name>
<state>VT</state>
<rating/>
<url>http://www.greatschools.org/city/East_Randolph/VT</url>
<lat>43.9559</lat>
<lon>-72.5433</lon>
<active>1</active>
</city>
<city>
<id>421929</id>
<name>Eden</name>
<state>VT</state>
<rating>5</rating>
<url>http://www.greatschools.org/city/Eden/VT</url>
<lat>44.7221</lat>
<lon>-72.572</lon>
<active>1</active>
</city>
<city>
<id>421927</id>
<name>Enosburg Falls</name>
<state>VT</state>
<rating>5</rating>
<url>http://www.greatschools.org/city/Enosburg_Falls/VT</url>
<lat>44.9085</lat>
<lon>-72.8041</lon>
<active>1</active>
</city>
<city>
<id>443408</id>
<name>Essex</name>
<state>VT</state>
<rating/>
<url>http://www.greatschools.org/city/Essex/VT</url>
<lat>44.501</lat>
<lon>-73.089</lon>
<active>1</active>
</city>
<city>
<id>443407</id>
<name>Essex Center</name>
<state>VT</state>
<rating/>
<url>http://www.greatschools.org/city/Essex_Center/VT</url>
<lat>44.5111</lat>
<lon>-73.0632</lon>
<active>1</active>
</city>
<city>
<id>421793</id>
<name>Essex Junction</name>
<state>VT</state>
<rating>8</rating>
<url>http://www.greatschools.org/city/Essex_Junction/VT</url>
<lat>44.4923</lat>
<lon>-73.1089</lon>
<active>1</active>
</city>
<city>
<id>421829</id>
<name>Fair Haven</name>
<state>VT</state>
<rating>6</rating>
<url>http://www.greatschools.org/city/Fair_Haven/VT</url>
<lat>43.5952</lat>
<lon>-73.2695</lon>
<active>1</active>
</city>
<city>
<id>421748</id>
<name>Fairfax</name>
<state>VT</state>
<rating>6</rating>
<url>http://www.greatschools.org/city/Fairfax/VT</url>
<lat>44.6965</lat>
<lon>-73.0219</lon>
<active>1</active>
</city>
<city>
<id>421926</id>
<name>Fairfield</name>
<state>VT</state>
<rating>6</rating>
<url>http://www.greatschools.org/city/Fairfield/VT</url>
<lat>44.7936</lat>
<lon>-72.9897</lon>
<active>1</active>
</city>
<city>
<id>421795</id>
<name>Fairlee</name>
<state>VT</state>
<rating>8</rating>
<url>http://www.greatschools.org/city/Fairlee/VT</url>
<lat>43.9126</lat>
<lon>-72.1897</lon>
<active>1</active>
</city>
<city>
<id>421925</id>
<name>Fayston</name>
<state>VT</state>
<rating>9</rating>
<url>http://www.greatschools.org/city/Fayston/VT</url>
<lat>44.1998</lat>
<lon>-72.8587</lon>
<active>1</active>
</city>
<city>
<id>443619</id>
<name>Ferrisburgh</name>
<state>VT</state>
<rating>8</rating>
<url>http://www.greatschools.org/city/Ferrisburgh/VT</url>
<lat>44.2066</lat>
<lon>-73.2477</lon>
<active>1</active>
</city>
<city>
<id>421922</id>
<name>Franklin</name>
<state>VT</state>
<rating>8</rating>
<url>http://www.greatschools.org/city/Franklin/VT</url>
<lat>44.9674</lat>
<lon>-72.9109</lon>
<active>1</active>
</city>
<city>
<id>421906</id>
<name>Gilman</name>
<state>VT</state>
<rating>8</rating>
<url>http://www.greatschools.org/city/Gilman/VT</url>
<lat>44.4113</lat>
<lon>-71.7429</lon>
<active>1</active>
</city>
<city>
<id>421921</id>
<name>Glover</name>
<state>VT</state>
<rating>8</rating>
<url>http://www.greatschools.org/city/Glover/VT</url>
<lat>44.6875</lat>
<lon>-72.198</lon>
<active>1</active>
</city>
<city>
<id>421763</id>
<name>Grafton</name>
<state>VT</state>
<rating>2</rating>
<url>http://www.greatschools.org/city/Grafton/VT</url>
<lat>43.1655</lat>
<lon>-72.6061</lon>
<active>1</active>
</city>
<city>
<id>421919</id>
<name>Grand Isle</name>
<state>VT</state>
<rating>4</rating>
<url>http://www.greatschools.org/city/Grand_Isle/VT</url>
<lat>44.7177</lat>
<lon>-73.3042</lon>
<active>1</active>
</city>
<city>
<id>445798</id>
<name>Graniteville</name>
<state>VT</state>
<rating/>
<url>http://www.greatschools.org/city/Graniteville/VT</url>
<lat>44.1532</lat>
<lon>-72.4742</lon>
<active>1</active>
</city>
<city>
<id>421960</id>
<name>Greensboro</name>
<state>VT</state>
<rating>3</rating>
<url>http://www.greatschools.org/city/Greensboro/VT</url>
<lat>44.5974</lat>
<lon>-72.2795</lon>
<active>1</active>
</city>
<city>
<id>445799</id>
<name>Greensbro Bnd</name>
<state>VT</state>
<rating/>
<url>http://www.greatschools.org/city/Greensbro_Bnd/VT</url>
<lat>44.5871</lat>
<lon>-72.246</lon>
<active>1</active>
</city>
<city>
<id>421918</id>
<name>Guildhall</name>
<state>VT</state>
<rating/>
<url>http://www.greatschools.org/city/Guildhall/VT</url>
<lat>44.6997</lat>
<lon>-71.605</lon>
<active>1</active>
</city>
<city>
<id>421917</id>
<name>Guilford</name>
<state>VT</state>
<rating>4</rating>
<url>http://www.greatschools.org/city/Guilford/VT</url>
<lat>42.8007</lat>
<lon>-72.6224</lon>
<active>1</active>
</city>
<city>
<id>421854</id>
<name>Hardwick</name>
<state>VT</state>
<rating>4</rating>
<url>http://www.greatschools.org/city/Hardwick/VT</url>
<lat>44.5058</lat>
<lon>-72.3611</lon>
<active>1</active>
</city>
<city>
<id>421803</id>
<name>Hartford</name>
<state>VT</state>
<rating/>
<url>http://www.greatschools.org/city/Hartford/VT</url>
<lat>43.6639</lat>
<lon>-72.353</lon>
<active>1</active>
</city>
<city>
<id>421808</id>
<name>Hartland</name>
<state>VT</state>
<rating>7</rating>
<url>http://www.greatschools.org/city/Hartland/VT</url>
<lat>43.5724</lat>
<lon>-72.4125</lon>
<active>1</active>
</city>
<city>
<id>445800</id>
<name>HARTLAND CORS</name>
<state>VT</state>
<rating/>
<url>http://www.greatschools.org/city/HARTLAND_CORS/VT</url>
<lat>43.5475</lat>
<lon>-72.4216</lon>
<active>1</active>
</city>
<city>
<id>421792</id>
<name>Highgate Center</name>
<state>VT</state>
<rating>2</rating>
<url>http://www.greatschools.org/city/Highgate_Center/VT</url>
<lat>44.9409</lat>
<lon>-73.0191</lon>
<active>1</active>
</city>
<city>
<id>421782</id>
<name>Hinesburg</name>
<state>VT</state>
<rating>9</rating>
<url>http://www.greatschools.org/city/Hinesburg/VT</url>
<lat>44.3326</lat>
<lon>-73.0905</lon>
<active>1</active>
</city>
<city>
<id>421912</id>
<name>Huntington</name>
<state>VT</state>
<rating>9</rating>
<url>http://www.greatschools.org/city/Huntington/VT</url>
<lat>44.3001</lat>
<lon>-72.9715</lon>
<active>1</active>
</city>
<city>
<id>421747</id>
<name>Hyde Park</name>
<state>VT</state>
<rating>2</rating>
<url>http://www.greatschools.org/city/Hyde_Park/VT</url>
<lat>44.5958</lat>
<lon>-72.6151</lon>
<active>1</active>
</city>
<city>
<id>421911</id>
<name>Irasburg</name>
<state>VT</state>
<rating>6</rating>
<url>http://www.greatschools.org/city/Irasburg/VT</url>
<lat>44.8095</lat>
<lon>-72.2798</lon>
<active>1</active>
</city>
<city>
<id>421945</id>
<name>Island Pond</name>
<state>VT</state>
<rating>2</rating>
<url>http://www.greatschools.org/city/Island_Pond/VT</url>
<lat>44.8134</lat>
<lon>-71.8828</lon>
<active>1</active>
</city>
<city>
<id>421910</id>
<name>Isle La Motte</name>
<state>VT</state>
<rating/>
<url>http://www.greatschools.org/city/Isle_La_Motte/VT</url>
<lat>44.877</lat>
<lon>-73.3395</lon>
<active>1</active>
</city>
<city>
<id>421837</id>
<name>Jacksonville</name>
<state>VT</state>
<rating>5</rating>
<url>http://www.greatschools.org/city/Jacksonville/VT</url>
<lat>42.7979</lat>
<lon>-72.8209</lon>
<active>1</active>
</city>
<city>
<id>421909</id>
<name>Jamaica</name>
<state>VT</state>
<rating>3</rating>
<url>http://www.greatschools.org/city/Jamaica/VT</url>
<lat>43.1025</lat>
<lon>-72.8005</lon>
<active>1</active>
</city>
<city>
<id>421908</id>
<name>Jay</name>
<state>VT</state>
<rating>9</rating>
<url>http://www.greatschools.org/city/Jay/VT</url>
<lat>44.9344</lat>
<lon>-72.4422</lon>
<active>1</active>
</city>
<city>
<id>421939</id>
<name>Jeffersonville</name>
<state>VT</state>
<rating>6</rating>
<url>http://www.greatschools.org/city/Jeffersonville/VT</url>
<lat>44.6419</lat>
<lon>-72.8313</lon>
<active>1</active>
</city>
<city>
<id>421771</id>
<name>Jericho</name>
<state>VT</state>
<rating>9</rating>
<url>http://www.greatschools.org/city/Jericho/VT</url>
<lat>44.5041</lat>
<lon>-72.9907</lon>
<active>1</active>
</city>
<city>
<id>421799</id>
<name>Johnson</name>
<state>VT</state>
<rating>2</rating>
<url>http://www.greatschools.org/city/Johnson/VT</url>
<lat>44.6366</lat>
<lon>-72.6763</lon>
<active>1</active>
</city>
<city>
<id>445801</id>
<name>Jonesville</name>
<state>VT</state>
<rating/>
<url>http://www.greatschools.org/city/Jonesville/VT</url>
<lat>44.3838</lat>
<lon>-72.9372</lon>
<active>1</active>
</city>
<city>
<id>421761</id>
<name>Killington</name>
<state>VT</state>
<rating>10</rating>
<url>http://www.greatschools.org/city/Killington/VT</url>
<lat>43.6583</lat>
<lon>-72.7997</lon>
<active>1</active>
</city>
<city>
<id>421928</id>
<name>Lake Elmore</name>
<state>VT</state>
<rating/>
<url>http://www.greatschools.org/city/Lake_Elmore/VT</url>
<lat>44.5501</lat>
<lon>-72.4838</lon>
<active>1</active>
</city>
<city>
<id>443402</id>
<name>Leicester</name>
<state>VT</state>
<rating/>
<url>http://www.greatschools.org/city/Leicester/VT</url>
<lat>43.8903</lat>
<lon>-73.1017</lon>
<active>1</active>
</city>
<city>
<id>443401</id>
<name>Lincoln</name>
<state>VT</state>
<rating>8</rating>
<url>http://www.greatschools.org/city/Lincoln/VT</url>
<lat>44.0966</lat>
<lon>-72.9859</lon>
<active>1</active>
</city>
<city>
<id>421856</id>
<name>Londonderry</name>
<state>VT</state>
<rating>8</rating>
<url>http://www.greatschools.org/city/Londonderry/VT</url>
<lat>43.2378</lat>
<lon>-72.8283</lon>
<active>1</active>
</city>
<city>
<id>421907</id>
<name>Lowell</name>
<state>VT</state>
<rating>5</rating>
<url>http://www.greatschools.org/city/Lowell/VT</url>
<lat>44.7966</lat>
<lon>-72.4501</lon>
<active>1</active>
</city>
<city>
<id>421791</id>
<name>Ludlow</name>
<state>VT</state>
<rating>4</rating>
<url>http://www.greatschools.org/city/Ludlow/VT</url>
<lat>43.3967</lat>
<lon>-72.6982</lon>
<active>1</active>
</city>
<city>
<id>445802</id>
<name>Lunenburg</name>
<state>VT</state>
<rating/>
<url>http://www.greatschools.org/city/Lunenburg/VT</url>
<lat>44.4137</lat>
<lon>-71.7167</lon>
<active>1</active>
</city>
<city>
<id>446399</id>
<name>Lyndon</name>
<state>VT</state>
<rating/>
<url>http://www.greatschools.org/city/Lyndon/VT</url>
<lat>44.5133</lat>
<lon>-71.9944</lon>
<active>1</active>
</city>
<city>
<id>421818</id>
<name>Lyndon Center</name>
<state>VT</state>
<rating/>
<url>http://www.greatschools.org/city/Lyndon_Center/VT</url>
<lat>44.5419</lat>
<lon>-72.0158</lon>
<active>1</active>
</city>
<city>
<id>421814</id>
<name>Lyndonville</name>
<state>VT</state>
<rating>4</rating>
<url>http://www.greatschools.org/city/Lyndonville/VT</url>
<lat>44.5354</lat>
<lon>-72.0016</lon>
<active>1</active>
</city>
<city>
<id>421796</id>
<name>Manchester</name>
<state>VT</state>
<rating/>
<url>http://www.greatschools.org/city/Manchester/VT</url>
<lat>43.165</lat>
<lon>-73.0703</lon>
<active>1</active>
</city>
<city>
<id>421905</id>
<name>Manchester Center</name>
<state>VT</state>
<rating>5</rating>
<url>http://www.greatschools.org/city/Manchester_Center/VT</url>
<lat>43.1778</lat>
<lon>-73.0396</lon>
<active>1</active>
</city>
<city>
<id>445803</id>
<name>Manchestr Ctr</name>
<state>VT</state>
<rating/>
<url>http://www.greatschools.org/city/Manchestr_Ctr/VT</url>
<lat>43.1493</lat>
<lon>-73.0641</lon>
<active>1</active>
</city>
<city>
<id>421904</id>
<name>Marlboro</name>
<state>VT</state>
<rating>4</rating>
<url>http://www.greatschools.org/city/Marlboro/VT</url>
<lat>42.8505</lat>
<lon>-72.5981</lon>
<active>1</active>
</city>
<city>
<id>421765</id>
<name>Middlebury</name>
<state>VT</state>
<rating>8</rating>
<url>http://www.greatschools.org/city/Middlebury/VT</url>
<lat>44.0063</lat>
<lon>-73.164</lon>
<active>1</active>
</city>
<city>
<id>421903</id>
<name>Middlesex</name>
<state>VT</state>
<rating>9</rating>
<url>http://www.greatschools.org/city/Middlesex/VT</url>
<lat>44.2633</lat>
<lon>-72.6235</lon>
<active>1</active>
</city>
<city>
<id>421902</id>
<name>Middletown Springs</name>
<state>VT</state>
<rating>7</rating>
<url>http://www.greatschools.org/city/Middletown_Springs/VT</url>
<lat>43.4839</lat>
<lon>-73.1142</lon>
<active>1</active>
</city>
<city>
<id>421901</id>
<name>Milton</name>
<state>VT</state>
<rating>5</rating>
<url>http://www.greatschools.org/city/Milton/VT</url>
<lat>44.6355</lat>
<lon>-73.1124</lon>
<active>1</active>
</city>
<city>
<id>421900</id>
<name>Monkton</name>
<state>VT</state>
<rating>7</rating>
<url>http://www.greatschools.org/city/Monkton/VT</url>
<lat>44.3326</lat>
<lon>-73.0905</lon>
<active>1</active>
</city>
<city>
<id>421899</id>
<name>Montgomery Center</name>
<state>VT</state>
<rating>10</rating>
<url>http://www.greatschools.org/city/Montgomery_Center/VT</url>
<lat>44.8701</lat>
<lon>-72.5913</lon>
<active>1</active>
</city>
<city>
<id>421768</id>
<name>Montpelier</name>
<state>VT</state>
<rating>7</rating>
<url>http://www.greatschools.org/city/Montpelier/VT</url>
<lat>44.2599</lat>
<lon>-72.5707</lon>
<active>1</active>
</city>
<city>
<id>421898</id>
<name>Moretown</name>
<state>VT</state>
<rating>8</rating>
<url>http://www.greatschools.org/city/Moretown/VT</url>
<lat>44.2457</lat>
<lon>-72.765</lon>
<active>1</active>
</city>
<city>
<id>421897</id>
<name>Morgan</name>
<state>VT</state>
<rating/>
<url>http://www.greatschools.org/city/Morgan/VT</url>
<lat>44.9055</lat>
<lon>-71.9943</lon>
<active>1</active>
</city>
<city>
<id>421779</id>
<name>Morrisville</name>
<state>VT</state>
<rating>5</rating>
<url>http://www.greatschools.org/city/Morrisville/VT</url>
<lat>44.5608</lat>
<lon>-72.5956</lon>
<active>1</active>
</city>
<city>
<id>421896</id>
<name>Mount Holly</name>
<state>VT</state>
<rating>8</rating>
<url>http://www.greatschools.org/city/Mount_Holly/VT</url>
<lat>43.4483</lat>
<lon>-72.7963</lon>
<active>1</active>
</city>
<city>
<id>421895</id>
<name>New Haven</name>
<state>VT</state>
<rating>8</rating>
<url>http://www.greatschools.org/city/New_Haven/VT</url>
<lat>44.1194</lat>
<lon>-73.1594</lon>
<active>1</active>
</city>
<city>
<id>421894</id>
<name>Newark</name>
<state>VT</state>
<rating/>
<url>http://www.greatschools.org/city/Newark/VT</url>
<lat>44.6708</lat>
<lon>-71.952</lon>
<active>1</active>
</city>
<city>
<id>421772</id>
<name>Newbury</name>
<state>VT</state>
<rating>3</rating>
<url>http://www.greatschools.org/city/Newbury/VT</url>
<lat>44.081</lat>
<lon>-72.0591</lon>
<active>1</active>
</city>
<city>
<id>421893</id>
<name>Newfane</name>
<state>VT</state>
<rating>5</rating>
<url>http://www.greatschools.org/city/Newfane/VT</url>
<lat>42.9872</lat>
<lon>-72.6552</lon>
<active>1</active>
</city>
<city>
<id>421801</id>
<name>Newport</name>
<state>VT</state>
<rating>4</rating>
<url>http://www.greatschools.org/city/Newport/VT</url>
<lat>44.9383</lat>
<lon>-72.2082</lon>
<active>1</active>
</city>
<city>
<id>421892</id>
<name>Newport Center</name>
<state>VT</state>
<rating>3</rating>
<url>http://www.greatschools.org/city/Newport_Center/VT</url>
<lat>44.9461</lat>
<lon>-72.2956</lon>
<active>1</active>
</city>
<city>
<id>421770</id>
<name>North Bennington</name>
<state>VT</state>
<rating>8</rating>
<url>http://www.greatschools.org/city/North_Bennington/VT</url>
<lat>42.9244</lat>
<lon>-73.2432</lon>
<active>1</active>
</city>
<city>
<id>421853</id>
<name>North Clarendon</name>
<state>VT</state>
<rating>7</rating>
<url>http://www.greatschools.org/city/North_Clarendon/VT</url>
<lat>43.5502</lat>
<lon>-72.9556</lon>
<active>1</active>
</city>
<city>
<id>421891</id>
<name>North Hero</name>
<state>VT</state>
<rating>3</rating>
<url>http://www.greatschools.org/city/North_Hero/VT</url>
<lat>44.8469</lat>
<lon>-73.2729</lon>
<active>1</active>
</city>
<city>
<id>445804</id>
<name>North Thetford</name>
<state>VT</state>
<rating/>
<url>http://www.greatschools.org/city/North_Thetford/VT</url>
<lat>43.8437</lat>
<lon>-72.1847</lon>
<active>1</active>
</city>
<city>
<id>421860</id>
<name>North Troy</name>
<state>VT</state>
<rating>3</rating>
<url>http://www.greatschools.org/city/North_Troy/VT</url>
<lat>44.9961</lat>
<lon>-72.402</lon>
<active>1</active>
</city>
<city>
<id>421825</id>
<name>Northfield</name>
<state>VT</state>
<rating>6</rating>
<url>http://www.greatschools.org/city/Northfield/VT</url>
<lat>44.1479</lat>
<lon>-72.6572</lon>
<active>1</active>
</city>
<city>
<id>421890</id>
<name>Norwich</name>
<state>VT</state>
<rating>10</rating>
<url>http://www.greatschools.org/city/Norwich/VT</url>
<lat>43.742</lat>
<lon>-72.3029</lon>
<active>1</active>
</city>
<city>
<id>421745</id>
<name>Orford</name>
<state>VT</state>
<rating/>
<url>http://www.greatschools.org/city/Orford/VT</url>
<lat>43.9752</lat>
<lon>-72.0804</lon>
<active>1</active>
</city>
<city>
<id>421888</id>
<name>Orleans</name>
<state>VT</state>
<rating>8</rating>
<url>http://www.greatschools.org/city/Orleans/VT</url>
<lat>44.8105</lat>
<lon>-72.2027</lon>
<active>1</active>
</city>
<city>
<id>421887</id>
<name>Orwell</name>
<state>VT</state>
<rating>6</rating>
<url>http://www.greatschools.org/city/Orwell/VT</url>
<lat>43.7856</lat>
<lon>-73.2913</lon>
<active>1</active>
</city>
<city>
<id>421790</id>
<name>Peacham</name>
<state>VT</state>
<rating/>
<url>http://www.greatschools.org/city/Peacham/VT</url>
<lat>44.3248</lat>
<lon>-72.1875</lon>
<active>1</active>
</city>
<city>
<id>445805</id>
<name>Pinewood</name>
<state>VT</state>
<rating/>
<url>http://www.greatschools.org/city/Pinewood/VT</url>
<lat>44.4905</lat>
<lon>-73.1113</lon>
<active>1</active>
</city>
<city>
<id>421886</id>
<name>Pittsford</name>
<state>VT</state>
<rating>4</rating>
<url>http://www.greatschools.org/city/Pittsford/VT</url>
<lat>43.7144</lat>
<lon>-73.0078</lon>
<active>1</active>
</city>
<city>
<id>421759</id>
<name>Plainfield</name>
<state>VT</state>
<rating>6</rating>
<url>http://www.greatschools.org/city/Plainfield/VT</url>
<lat>44.2799</lat>
<lon>-72.4245</lon>
<active>1</active>
</city>
<city>
<id>421885</id>
<name>Plymouth</name>
<state>VT</state>
<rating/>
<url>http://www.greatschools.org/city/Plymouth/VT</url>
<lat>43.5257</lat>
<lon>-72.7221</lon>
<active>1</active>
</city>
<city>
<id>443399</id>
<name>Post Mills</name>
<state>VT</state>
<rating/>
<url>http://www.greatschools.org/city/Post_Mills/VT</url>
<lat>43.8844</lat>
<lon>-72.2671</lon>
<active>1</active>
</city>
<city>
<id>421883</id>
<name>Poultney</name>
<state>VT</state>
<rating>3</rating>
<url>http://www.greatschools.org/city/Poultney/VT</url>
<lat>43.5178</lat>
<lon>-73.2373</lon>
<active>1</active>
</city>
<city>
<id>421882</id>
<name>Pownal</name>
<state>VT</state>
<rating>3</rating>
<url>http://www.greatschools.org/city/Pownal/VT</url>
<lat>42.7802</lat>
<lon>-73.2232</lon>
<active>1</active>
</city>
<city>
<id>421881</id>
<name>Proctor</name>
<state>VT</state>
<rating>5</rating>
<url>http://www.greatschools.org/city/Proctor/VT</url>
<lat>43.6578</lat>
<lon>-73.0344</lon>
<active>1</active>
</city>
<city>
<id>421937</id>
<name>Proctorsville</name>
<state>VT</state>
<rating>7</rating>
<url>http://www.greatschools.org/city/Proctorsville/VT</url>
<lat>43.4054</lat>
<lon>-72.638</lon>
<active>1</active>
</city>
<city>
<id>421775</id>
<name>Putney</name>
<state>VT</state>
<rating>3</rating>
<url>http://www.greatschools.org/city/Putney/VT</url>
<lat>43.012</lat>
<lon>-72.5182</lon>
<active>1</active>
</city>
<city>
<id>421809</id>
<name>Quechee</name>
<state>VT</state>
<rating>6</rating>
<url>http://www.greatschools.org/city/Quechee/VT</url>
<lat>43.6858</lat>
<lon>-72.477</lon>
<active>1</active>
</city>
<city>
<id>421800</id>
<name>Randolph</name>
<state>VT</state>
<rating>3</rating>
<url>http://www.greatschools.org/city/Randolph/VT</url>
<lat>43.9434</lat>
<lon>-72.6737</lon>
<active>1</active>
</city>
<city>
<id>444597</id>
<name>Randolph Center</name>
<state>VT</state>
<rating/>
<url>http://www.greatschools.org/city/Randolph_Center/VT</url>
<lat>43.9407</lat>
<lon>-72.607</lon>
<active>1</active>
</city>
<city>
<id>421880</id>
<name>Reading</name>
<state>VT</state>
<rating/>
<url>http://www.greatschools.org/city/Reading/VT</url>
<lat>43.481</lat>
<lon>-72.5581</lon>
<active>1</active>
</city>
<city>
<id>421879</id>
<name>Readsboro</name>
<state>VT</state>
<rating/>
<url>http://www.greatschools.org/city/Readsboro/VT</url>
<lat>42.7853</lat>
<lon>-72.9603</lon>
<active>1</active>
</city>
<city>
<id>421878</id>
<name>Richford</name>
<state>VT</state>
<rating>4</rating>
<url>http://www.greatschools.org/city/Richford/VT</url>
<lat>44.9844</lat>
<lon>-72.6627</lon>
<active>1</active>
</city>
<city>
<id>421877</id>
<name>Richmond</name>
<state>VT</state>
<rating>8</rating>
<url>http://www.greatschools.org/city/Richmond/VT</url>
<lat>44.4006</lat>
<lon>-72.9832</lon>
<active>1</active>
</city>
<city>
<id>421752</id>
<name>Ripton</name>
<state>VT</state>
<rating/>
<url>http://www.greatschools.org/city/Ripton/VT</url>
<lat>43.9928</lat>
<lon>-73.0222</lon>
<active>1</active>
</city>
<city>
<id>421813</id>
<name>Rochester</name>
<state>VT</state>
<rating>2</rating>
<url>http://www.greatschools.org/city/Rochester/VT</url>
<lat>43.8708</lat>
<lon>-72.8109</lon>
<active>1</active>
</city>
<city>
<id>445806</id>
<name>Rockingham</name>
<state>VT</state>
<rating/>
<url>http://www.greatschools.org/city/Rockingham/VT</url>
<lat>43.1379</lat>
<lon>-72.5098</lon>
<active>1</active>
</city>
<city>
<id>421876</id>
<name>Roxbury</name>
<state>VT</state>
<rating/>
<url>http://www.greatschools.org/city/Roxbury/VT</url>
<lat>44.0866</lat>
<lon>-72.7425</lon>
<active>1</active>
</city>
<city>
<id>421757</id>
<name>Rutland</name>
<state>VT</state>
<rating>5</rating>
<url>http://www.greatschools.org/city/Rutland/VT</url>
<lat>43.6089</lat>
<lon>-72.9748</lon>
<active>1</active>
</city>
<city>
<id>446400</id>
<name>Rutland Town</name>
<state>VT</state>
<rating/>
<url>http://www.greatschools.org/city/Rutland_Town/VT</url>
<lat>43.6381</lat>
<lon>-72.9631</lon>
<active>1</active>
</city>
<city>
<id>446401</id>
<name>Saint Johnsbury</name>
<state>VT</state>
<rating/>
<url>http://www.greatschools.org/city/Saint_Johnsbury/VT</url>
<lat>44.4165</lat>
<lon>-72.0244</lon>
<active>1</active>
</city>
<city>
<id>421874</id>
<name>Salisbury</name>
<state>VT</state>
<rating>5</rating>
<url>http://www.greatschools.org/city/Salisbury/VT</url>
<lat>43.9227</lat>
<lon>-73.1081</lon>
<active>1</active>
</city>
<city>
<id>421780</id>
<name>Saxtons River</name>
<state>VT</state>
<rating>7</rating>
<url>http://www.greatschools.org/city/Saxtons_River/VT</url>
<lat>43.1387</lat>
<lon>-72.5089</lon>
<active>1</active>
</city>
<city>
<id>421873</id>
<name>Shaftsbury</name>
<state>VT</state>
<rating>6</rating>
<url>http://www.greatschools.org/city/Shaftsbury/VT</url>
<lat>42.9682</lat>
<lon>-73.211</lon>
<active>1</active>
</city>
<city>
<id>421802</id>
<name>Sharon</name>
<state>VT</state>
<rating>8</rating>
<url>http://www.greatschools.org/city/Sharon/VT</url>
<lat>43.7771</lat>
<lon>-72.4323</lon>
<active>1</active>
</city>
<city>
<id>421857</id>
<name>Sheffield</name>
<state>VT</state>
<rating>3</rating>
<url>http://www.greatschools.org/city/Sheffield/VT</url>
<lat>44.6245</lat>
<lon>-72.1227</lon>
<active>1</active>
</city>
<city>
<id>421807</id>
<name>Shelburne</name>
<state>VT</state>
<rating>9</rating>
<url>http://www.greatschools.org/city/Shelburne/VT</url>
<lat>44.3876</lat>
<lon>-73.2169</lon>
<active>1</active>
</city>
<city>
<id>421872</id>
<name>Sheldon</name>
<state>VT</state>
<rating>2</rating>
<url>http://www.greatschools.org/city/Sheldon/VT</url>
<lat>44.8884</lat>
<lon>-72.9713</lon>
<active>1</active>
</city>
<city>
<id>421871</id>
<name>Shoreham</name>
<state>VT</state>
<rating>4</rating>
<url>http://www.greatschools.org/city/Shoreham/VT</url>
<lat>43.8921</lat>
<lon>-73.3182</lon>
<active>1</active>
</city>
<city>
<id>443397</id>
<name>Shrewsbury</name>
<state>VT</state>
<rating/>
<url>http://www.greatschools.org/city/Shrewsbury/VT</url>
<lat>43.5255</lat>
<lon>-72.8309</lon>
<active>1</active>
</city>
<city>
<id>421826</id>
<name>South Barre</name>
<state>VT</state>
<rating/>
<url>http://www.greatschools.org/city/South_Barre/VT</url>
<lat>44.1649</lat>
<lon>-72.5031</lon>
<active>1</active>
</city>
<city>
<id>421773</id>
<name>South Burlington</name>
<state>VT</state>
<rating>9</rating>
<url>http://www.greatschools.org/city/South_Burlington/VT</url>
<lat>44.4523</lat>
<lon>-73.1803</lon>
<active>1</active>
</city>
<city>
<id>421869</id>
<name>South Hero</name>
<state>VT</state>
<rating>10</rating>
<url>http://www.greatschools.org/city/South_Hero/VT</url>
<lat>44.6395</lat>
<lon>-73.31</lon>
<active>1</active>
</city>
<city>
<id>421805</id>
<name>South Londonderry</name>
<state>VT</state>
<rating/>
<url>http://www.greatschools.org/city/South_Londonderry/VT</url>
<lat>43.1794</lat>
<lon>-72.8088</lon>
<active>1</active>
</city>
<city>
<id>421884</id>
<name>South Pomfret</name>
<state>VT</state>
<rating>10</rating>
<url>http://www.greatschools.org/city/South_Pomfret/VT</url>
<lat>43.6922</lat>
<lon>-72.5347</lon>
<active>1</active>
</city>
<city>
<id>421875</id>
<name>South Royalton</name>
<state>VT</state>
<rating>7</rating>
<url>http://www.greatschools.org/city/South_Royalton/VT</url>
<lat>43.8068</lat>
<lon>-72.526</lon>
<active>1</active>
</city>
<city>
<id>421865</id>
<name>South Strafford</name>
<state>VT</state>
<rating>9</rating>
<url>http://www.greatschools.org/city/South_Strafford/VT</url>
<lat>43.8286</lat>
<lon>-72.3585</lon>
<active>1</active>
</city>
<city>
<id>421769</id>
<name>Springfield</name>
<state>VT</state>
<rating>4</rating>
<url>http://www.greatschools.org/city/Springfield/VT</url>
<lat>43.2931</lat>
<lon>-72.4794</lon>
<active>1</active>
</city>
<city>
<id>421744</id>
<name>St. Albans</name>
<state>VT</state>
<rating>5</rating>
<url>http://www.greatschools.org/city/St._Albans/VT</url>
<lat>44.811</lat>
<lon>-73.0853</lon>
<active>1</active>
</city>
<city>
<id>446402</id>
<name>St. Albans Town</name>
<state>VT</state>
<rating/>
<url>http://www.greatschools.org/city/St._Albans_Town/VT</url>
<lat>44.8085</lat>
<lon>-73.1397</lon>
<active>1</active>
</city>
<city>
<id>421754</id>
<name>St. Johnsbury</name>
<state>VT</state>
<rating>4</rating>
<url>http://www.greatschools.org/city/St._Johnsbury/VT</url>
<lat>44.4253</lat>
<lon>-72.0138</lon>
<active>1</active>
</city>
<city>
<id>421868</id>
<name>Stamford</name>
<state>VT</state>
<rating/>
<url>http://www.greatschools.org/city/Stamford/VT</url>
<lat>42.7766</lat>
<lon>-73.0718</lon>
<active>1</active>
</city>
<city>
<id>421867</id>
<name>Starksboro</name>
<state>VT</state>
<rating>7</rating>
<url>http://www.greatschools.org/city/Starksboro/VT</url>
<lat>44.2431</lat>
<lon>-73.0273</lon>
<active>1</active>
</city>
<city>
<id>421866</id>
<name>Stockbridge</name>
<state>VT</state>
<rating/>
<url>http://www.greatschools.org/city/Stockbridge/VT</url>
<lat>43.7761</lat>
<lon>-72.7342</lon>
<active>1</active>
</city>
<city>
<id>421755</id>
<name>Stowe</name>
<state>VT</state>
<rating>9</rating>
<url>http://www.greatschools.org/city/Stowe/VT</url>
<lat>44.4696</lat>
<lon>-72.6937</lon>
<active>1</active>
</city>
<city>
<id>443618</id>
<name>Sudbury</name>
<state>VT</state>
<rating/>
<url>http://www.greatschools.org/city/Sudbury/VT</url>
<lat>43.8232</lat>
<lon>-73.1865</lon>
<active>1</active>
</city>
<city>
<id>421787</id>
<name>Sutton</name>
<state>VT</state>
<rating>4</rating>
<url>http://www.greatschools.org/city/Sutton/VT</url>
<lat>44.6511</lat>
<lon>-72.0264</lon>
<active>1</active>
</city>
<city>
<id>421777</id>
<name>Swanton</name>
<state>VT</state>
<rating>3</rating>
<url>http://www.greatschools.org/city/Swanton/VT</url>
<lat>44.9206</lat>
<lon>-73.12</lon>
<active>1</active>
</city>
<city>
<id>421810</id>
<name>Thetford</name>
<state>VT</state>
<rating>8</rating>
<url>http://www.greatschools.org/city/Thetford/VT</url>
<lat>43.7998</lat>
<lon>-72.2112</lon>
<active>1</active>
</city>
<city>
<id>445810</id>
<name>Thetford Center</name>
<state>VT</state>
<rating/>
<url>http://www.greatschools.org/city/Thetford_Center/VT</url>
<lat>43.8194</lat>
<lon>-72.2295</lon>
<active>1</active>
</city>
<city>
<id>421862</id>
<name>Tinmouth</name>
<state>VT</state>
<rating/>
<url>http://www.greatschools.org/city/Tinmouth/VT</url>
<lat>43.4777</lat>
<lon>-73.0664</lon>
<active>1</active>
</city>
<city>
<id>421861</id>
<name>Townshend</name>
<state>VT</state>
<rating>5</rating>
<url>http://www.greatschools.org/city/Townshend/VT</url>
<lat>43.0594</lat>
<lon>-72.6651</lon>
<active>1</active>
</city>
<city>
<id>445811</id>
<name>Troy</name>
<state>VT</state>
<rating/>
<url>http://www.greatschools.org/city/Troy/VT</url>
<lat>44.9045</lat>
<lon>-72.4009</lon>
<active>1</active>
</city>
<city>
<id>421859</id>
<name>Tunbridge</name>
<state>VT</state>
<rating>5</rating>
<url>http://www.greatschools.org/city/Tunbridge/VT</url>
<lat>43.904</lat>
<lon>-72.4857</lon>
<active>1</active>
</city>
<city>
<id>421774</id>
<name>Underhill</name>
<state>VT</state>
<rating/>
<url>http://www.greatschools.org/city/Underhill/VT</url>
<lat>44.5545</lat>
<lon>-72.9153</lon>
<active>1</active>
</city>
<city>
<id>421858</id>
<name>Underhill Center</name>
<state>VT</state>
<rating>7</rating>
<url>http://www.greatschools.org/city/Underhill_Center/VT</url>
<lat>44.5545</lat>
<lon>-72.9153</lon>
<active>1</active>
</city>
<city>
<id>421760</id>
<name>Vergennes</name>
<state>VT</state>
<rating>6</rating>
<url>http://www.greatschools.org/city/Vergennes/VT</url>
<lat>44.1657</lat>
<lon>-73.253</lon>
<active>1</active>
</city>
<city>
<id>421849</id>
<name>Vernon</name>
<state>VT</state>
<rating>4</rating>
<url>http://www.greatschools.org/city/Vernon/VT</url>
<lat>42.7573</lat>
<lon>-72.5116</lon>
<active>1</active>
</city>
<city>
<id>421820</id>
<name>Vershire</name>
<state>VT</state>
<rating/>
<url>http://www.greatschools.org/city/Vershire/VT</url>
<lat>43.9613</lat>
<lon>-72.3264</lon>
<active>1</active>
</city>
<city>
<id>421767</id>
<name>Waitsfield</name>
<state>VT</state>
<rating>9</rating>
<url>http://www.greatschools.org/city/Waitsfield/VT</url>
<lat>44.1901</lat>
<lon>-72.8294</lon>
<active>1</active>
</city>
<city>
<id>444187</id>
<name>Walden</name>
<state>VT</state>
<rating>5</rating>
<url>http://www.greatschools.org/city/Walden/VT</url>
<lat>44.4528</lat>
<lon>-72.2193</lon>
<active>1</active>
</city>
<city>
<id>421847</id>
<name>Wallingford</name>
<state>VT</state>
<rating>8</rating>
<url>http://www.greatschools.org/city/Wallingford/VT</url>
<lat>43.4735</lat>
<lon>-72.972</lon>
<active>1</active>
</city>
<city>
<id>421846</id>
<name>Wardsboro</name>
<state>VT</state>
<rating>10</rating>
<url>http://www.greatschools.org/city/Wardsboro/VT</url>
<lat>43.0318</lat>
<lon>-72.8052</lon>
<active>1</active>
</city>
<city>
<id>421845</id>
<name>Warren</name>
<state>VT</state>
<rating>9</rating>
<url>http://www.greatschools.org/city/Warren/VT</url>
<lat>44.1118</lat>
<lon>-72.8513</lon>
<active>1</active>
</city>
<city>
<id>421844</id>
<name>Washington</name>
<state>VT</state>
<rating>1</rating>
<url>http://www.greatschools.org/city/Washington/VT</url>
<lat>44.089</lat>
<lon>-72.4326</lon>
<active>1</active>
</city>
<city>
<id>421959</id>
<name>Waterbury</name>
<state>VT</state>
<rating>8</rating>
<url>http://www.greatschools.org/city/Waterbury/VT</url>
<lat>44.3393</lat>
<lon>-72.7535</lon>
<active>1</active>
</city>
<city>
<id>421784</id>
<name>Waterford</name>
<state>VT</state>
<rating>6</rating>
<url>http://www.greatschools.org/city/Waterford/VT</url>
<lat>44.3913</lat>
<lon>-72.0241</lon>
<active>1</active>
</city>
<city>
<id>421843</id>
<name>Waterville</name>
<state>VT</state>
<rating>5</rating>
<url>http://www.greatschools.org/city/Waterville/VT</url>
<lat>44.7098</lat>
<lon>-72.7607</lon>
<active>1</active>
</city>
<city>
<id>421840</id>
<name>Wells</name>
<state>VT</state>
<rating>6</rating>
<url>http://www.greatschools.org/city/Wells/VT</url>
<lat>43.4312</lat>
<lon>-73.202</lon>
<active>1</active>
</city>
<city>
<id>421823</id>
<name>Wells River</name>
<state>VT</state>
<rating>3</rating>
<url>http://www.greatschools.org/city/Wells_River/VT</url>
<lat>44.152</lat>
<lon>-72.052</lon>
<active>1</active>
</city>
<city>
<id>421941</id>
<name>West Burke</name>
<state>VT</state>
<rating>6</rating>
<url>http://www.greatschools.org/city/West_Burke/VT</url>
<lat>44.6421</lat>
<lon>-71.9802</lon>
<active>1</active>
</city>
<city>
<id>421936</id>
<name>West Charleston</name>
<state>VT</state>
<rating>4</rating>
<url>http://www.greatschools.org/city/West_Charleston/VT</url>
<lat>44.8722</lat>
<lon>-72.0558</lon>
<active>1</active>
</city>
<city>
<id>441886</id>
<name>West Dover</name>
<state>VT</state>
<rating/>
<url>http://www.greatschools.org/city/West_Dover/VT</url>
<lat>42.9536</lat>
<lon>-72.8589</lon>
<active>1</active>
</city>
<city>
<id>421794</id>
<name>West Fairlee</name>
<state>VT</state>
<rating>6</rating>
<url>http://www.greatschools.org/city/West_Fairlee/VT</url>
<lat>43.927</lat>
<lon>-72.2664</lon>
<active>1</active>
</city>
<city>
<id>421916</id>
<name>West Halifax</name>
<state>VT</state>
<rating/>
<url>http://www.greatschools.org/city/West_Halifax/VT</url>
<lat>42.7704</lat>
<lon>-72.7411</lon>
<active>1</active>
</city>
<city>
<id>445812</id>
<name>West Minster</name>
<state>VT</state>
<rating/>
<url>http://www.greatschools.org/city/West_Minster/VT</url>
<lat>43.1087</lat>
<lon>-72.4672</lon>
<active>1</active>
</city>
<city>
<id>421958</id>
<name>West Pawlet</name>
<state>VT</state>
<rating>5</rating>
<url>http://www.greatschools.org/city/West_Pawlet/VT</url>
<lat>43.3641</lat>
<lon>-73.2296</lon>
<active>1</active>
</city>
<city>
<id>421839</id>
<name>West Rutland</name>
<state>VT</state>
<rating>5</rating>
<url>http://www.greatschools.org/city/West_Rutland/VT</url>
<lat>43.595</lat>
<lon>-73.0464</lon>
<active>1</active>
</city>
<city>
<id>421838</id>
<name>Westford</name>
<state>VT</state>
<rating>7</rating>
<url>http://www.greatschools.org/city/Westford/VT</url>
<lat>44.6089</lat>
<lon>-73.0174</lon>
<active>1</active>
</city>
<city>
<id>421804</id>
<name>Westminster</name>
<state>VT</state>
<rating>3</rating>
<url>http://www.greatschools.org/city/Westminster/VT</url>
<lat>43.0726</lat>
<lon>-72.4559</lon>
<active>1</active>
</city>
<city>
<id>443389</id>
<name>Weston</name>
<state>VT</state>
<rating/>
<url>http://www.greatschools.org/city/Weston/VT</url>
<lat>43.2966</lat>
<lon>-72.7957</lon>
<active>1</active>
</city>
<city>
<id>445813</id>
<name>Wheelock</name>
<state>VT</state>
<rating/>
<url>http://www.greatschools.org/city/Wheelock/VT</url>
<lat>44.5882</lat>
<lon>-72.0885</lon>
<active>1</active>
</city>
<city>
<id>421811</id>
<name>White River Junction</name>
<state>VT</state>
<rating>6</rating>
<url>http://www.greatschools.org/city/White_River_Junction/VT</url>
<lat>43.6496</lat>
<lon>-72.3228</lon>
<active>1</active>
</city>
<city>
<id>421785</id>
<name>Whiting</name>
<state>VT</state>
<rating/>
<url>http://www.greatschools.org/city/Whiting/VT</url>
<lat>43.8737</lat>
<lon>-73.2145</lon>
<active>1</active>
</city>
<city>
<id>445814</id>
<name>Whitingham</name>
<state>VT</state>
<rating/>
<url>http://www.greatschools.org/city/Whitingham/VT</url>
<lat>42.7879</lat>
<lon>-72.8402</lon>
<active>1</active>
</city>
<city>
<id>443388</id>
<name>Wilder</name>
<state>VT</state>
<rating/>
<url>http://www.greatschools.org/city/Wilder/VT</url>
<lat>43.6741</lat>
<lon>-72.311</lon>
<active>1</active>
</city>
<city>
<id>421836</id>
<name>Williamstown</name>
<state>VT</state>
<rating>3</rating>
<url>http://www.greatschools.org/city/Williamstown/VT</url>
<lat>44.1143</lat>
<lon>-72.5428</lon>
<active>1</active>
</city>
<city>
<id>445815</id>
<name>Williamsville</name>
<state>VT</state>
<rating/>
<url>http://www.greatschools.org/city/Williamsville/VT</url>
<lat>42.9345</lat>
<lon>-72.6802</lon>
<active>1</active>
</city>
<city>
<id>421783</id>
<name>Williston</name>
<state>VT</state>
<rating>8</rating>
<url>http://www.greatschools.org/city/Williston/VT</url>
<lat>44.4397</lat>
<lon>-73.0933</lon>
<active>1</active>
</city>
<city>
<id>421746</id>
<name>Wilmington</name>
<state>VT</state>
<rating>5</rating>
<url>http://www.greatschools.org/city/Wilmington/VT</url>
<lat>42.8823</lat>
<lon>-72.8646</lon>
<active>1</active>
</city>
<city>
<id>443617</id>
<name>Windham</name>
<state>VT</state>
<rating/>
<url>http://www.greatschools.org/city/Windham/VT</url>
<lat>43.1657</lat>
<lon>-72.7253</lon>
<active>1</active>
</city>
<city>
<id>421834</id>
<name>Windsor</name>
<state>VT</state>
<rating>6</rating>
<url>http://www.greatschools.org/city/Windsor/VT</url>
<lat>43.4786</lat>
<lon>-72.4109</lon>
<active>1</active>
</city>
<city>
<id>446403</id>
<name>Winhall</name>
<state>VT</state>
<rating/>
<url>http://www.greatschools.org/city/Winhall/VT</url>
<lat>43.1458</lat>
<lon>-72.8895</lon>
<active>1</active>
</city>
<city>
<id>421762</id>
<name>Winooski</name>
<state>VT</state>
<rating>2</rating>
<url>http://www.greatschools.org/city/Winooski/VT</url>
<lat>44.4952</lat>
<lon>-73.1871</lon>
<active>1</active>
</city>
<city>
<id>421833</id>
<name>Wolcott</name>
<state>VT</state>
<rating>7</rating>
<url>http://www.greatschools.org/city/Wolcott/VT</url>
<lat>44.5501</lat>
<lon>-72.4838</lon>
<active>1</active>
</city>
<city>
<id>421832</id>
<name>Woodbury</name>
<state>VT</state>
<rating/>
<url>http://www.greatschools.org/city/Woodbury/VT</url>
<lat>44.447</lat>
<lon>-72.4096</lon>
<active>1</active>
</city>
<city>
<id>421824</id>
<name>Woodstock</name>
<state>VT</state>
<rating>8</rating>
<url>http://www.greatschools.org/city/Woodstock/VT</url>
<lat>43.6243</lat>
<lon>-72.5171</lon>
<active>1</active>
</city>
<city>
<id>421831</id>
<name>Worcester</name>
<state>VT</state>
<rating>3</rating>
<url>http://www.greatschools.org/city/Worcester/VT</url>
<lat>44.3828</lat>
<lon>-72.5704</lon>
<active>1</active>
</city>
</greatschools-city-feed>
