<?xml version="1.0" encoding="utf-8"?><greatschools-city-feed xmlns:xsi="http://www.w3.org/2001/XMLSchema-instance" xsi:noNamespaceSchemaLocation="http://www.greatschools.org/feeds/greatschools-city2.xsd">
<city>
<id>419180</id>
<name>Ashaway</name>
<state>RI</state>
<rating>9</rating>
<url>http://www.greatschools.org/city/Ashaway/RI</url>
<lat>41.424</lat>
<lon>-71.7879</lon>
<active>1</active>
</city>
<city>
<id>419140</id>
<name>Barrington</name>
<state>RI</state>
<rating>10</rating>
<url>http://www.greatschools.org/city/Barrington/RI</url>
<lat>41.7449</lat>
<lon>-71.3174</lon>
<active>1</active>
</city>
<city>
<id>419174</id>
<name>Block Island</name>
<state>RI</state>
<rating>8</rating>
<url>http://www.greatschools.org/city/Block_Island/RI</url>
<lat>41.172</lat>
<lon>-71.5765</lon>
<active>1</active>
</city>
<city>
<id>419164</id>
<name>Bradford</name>
<state>RI</state>
<rating>5</rating>
<url>http://www.greatschools.org/city/Bradford/RI</url>
<lat>41.3972</lat>
<lon>-71.7483</lon>
<active>1</active>
</city>
<city>
<id>419152</id>
<name>Bristol</name>
<state>RI</state>
<rating>8</rating>
<url>http://www.greatschools.org/city/Bristol/RI</url>
<lat>41.6824</lat>
<lon>-71.2678</lon>
<active>1</active>
</city>
<city>
<id>445640</id>
<name>Burrillville</name>
<state>RI</state>
<rating/>
<url>http://www.greatschools.org/city/Burrillville/RI</url>
<lat>41.9527</lat>
<lon>-71.6726</lon>
<active>1</active>
</city>
<city>
<id>419129</id>
<name>Central Falls</name>
<state>RI</state>
<rating>2</rating>
<url>http://www.greatschools.org/city/Central_Falls/RI</url>
<lat>41.8891</lat>
<lon>-71.3938</lon>
<active>1</active>
</city>
<city>
<id>419181</id>
<name>Charlestown</name>
<state>RI</state>
<rating>9</rating>
<url>http://www.greatschools.org/city/Charlestown/RI</url>
<lat>41.401</lat>
<lon>-71.6582</lon>
<active>1</active>
</city>
<city>
<id>419159</id>
<name>Chepachet</name>
<state>RI</state>
<rating>4</rating>
<url>http://www.greatschools.org/city/Chepachet/RI</url>
<lat>41.9015</lat>
<lon>-71.6791</lon>
<active>1</active>
</city>
<city>
<id>419170</id>
<name>Clayville</name>
<state>RI</state>
<rating>9</rating>
<url>http://www.greatschools.org/city/Clayville/RI</url>
<lat>41.7727</lat>
<lon>-71.6761</lon>
<active>1</active>
</city>
<city>
<id>419142</id>
<name>Coventry</name>
<state>RI</state>
<rating>7</rating>
<url>http://www.greatschools.org/city/Coventry/RI</url>
<lat>41.6926</lat>
<lon>-71.5757</lon>
<active>1</active>
</city>
<city>
<id>419126</id>
<name>Cranston</name>
<state>RI</state>
<rating>6</rating>
<url>http://www.greatschools.org/city/Cranston/RI</url>
<lat>41.7723</lat>
<lon>-71.4554</lon>
<active>1</active>
</city>
<city>
<id>419163</id>
<name>Cumberland</name>
<state>RI</state>
<rating>7</rating>
<url>http://www.greatschools.org/city/Cumberland/RI</url>
<lat>41.9502</lat>
<lon>-71.4168</lon>
<active>1</active>
</city>
<city>
<id>419136</id>
<name>East Greenwich</name>
<state>RI</state>
<rating>10</rating>
<url>http://www.greatschools.org/city/East_Greenwich/RI</url>
<lat>41.6505</lat>
<lon>-71.478</lon>
<active>1</active>
</city>
<city>
<id>419130</id>
<name>East Providence</name>
<state>RI</state>
<rating>5</rating>
<url>http://www.greatschools.org/city/East_Providence/RI</url>
<lat>41.8035</lat>
<lon>-71.3607</lon>
<active>1</active>
</city>
<city>
<id>419155</id>
<name>Exeter</name>
<state>RI</state>
<rating/>
<url>http://www.greatschools.org/city/Exeter/RI</url>
<lat>41.565</lat>
<lon>-71.5853</lon>
<active>1</active>
</city>
<city>
<id>419177</id>
<name>Foster</name>
<state>RI</state>
<rating>8</rating>
<url>http://www.greatschools.org/city/Foster/RI</url>
<lat>41.7818</lat>
<lon>-71.7195</lon>
<active>1</active>
</city>
<city>
<id>446332</id>
<name>Glocester</name>
<state>RI</state>
<rating/>
<url>http://www.greatschools.org/city/Glocester/RI</url>
<lat>41.9161</lat>
<lon>-71.6258</lon>
<active>1</active>
</city>
<city>
<id>419162</id>
<name>Greenville</name>
<state>RI</state>
<rating/>
<url>http://www.greatschools.org/city/Greenville/RI</url>
<lat>41.8765</lat>
<lon>-71.5548</lon>
<active>1</active>
</city>
<city>
<id>419182</id>
<name>Harrisville</name>
<state>RI</state>
<rating>5</rating>
<url>http://www.greatschools.org/city/Harrisville/RI</url>
<lat>41.968</lat>
<lon>-71.6801</lon>
<active>1</active>
</city>
<city>
<id>419158</id>
<name>Hope</name>
<state>RI</state>
<rating>8</rating>
<url>http://www.greatschools.org/city/Hope/RI</url>
<lat>41.739</lat>
<lon>-71.5709</lon>
<active>1</active>
</city>
<city>
<id>419178</id>
<name>Hope Valley</name>
<state>RI</state>
<rating>9</rating>
<url>http://www.greatschools.org/city/Hope_Valley/RI</url>
<lat>41.5147</lat>
<lon>-71.7187</lon>
<active>1</active>
</city>
<city>
<id>419176</id>
<name>Jamestown</name>
<state>RI</state>
<rating>9</rating>
<url>http://www.greatschools.org/city/Jamestown/RI</url>
<lat>41.5172</lat>
<lon>-71.3759</lon>
<active>1</active>
</city>
<city>
<id>419141</id>
<name>Johnston</name>
<state>RI</state>
<rating>5</rating>
<url>http://www.greatschools.org/city/Johnston/RI</url>
<lat>41.8267</lat>
<lon>-71.4983</lon>
<active>1</active>
</city>
<city>
<id>419148</id>
<name>Kingston</name>
<state>RI</state>
<rating>9</rating>
<url>http://www.greatschools.org/city/Kingston/RI</url>
<lat>41.4821</lat>
<lon>-71.5295</lon>
<active>1</active>
</city>
<city>
<id>419144</id>
<name>Lincoln</name>
<state>RI</state>
<rating>8</rating>
<url>http://www.greatschools.org/city/Lincoln/RI</url>
<lat>41.9101</lat>
<lon>-71.4356</lon>
<active>1</active>
</city>
<city>
<id>419175</id>
<name>Little Compton</name>
<state>RI</state>
<rating>9</rating>
<url>http://www.greatschools.org/city/Little_Compton/RI</url>
<lat>41.5229</lat>
<lon>-71.1605</lon>
<active>1</active>
</city>
<city>
<id>419139</id>
<name>Manville</name>
<state>RI</state>
<rating>6</rating>
<url>http://www.greatschools.org/city/Manville/RI</url>
<lat>41.9682</lat>
<lon>-71.4737</lon>
<active>1</active>
</city>
<city>
<id>419147</id>
<name>Middletown</name>
<state>RI</state>
<rating>7</rating>
<url>http://www.greatschools.org/city/Middletown/RI</url>
<lat>41.5204</lat>
<lon>-71.2872</lon>
<active>1</active>
</city>
<city>
<id>419154</id>
<name>Narragansett</name>
<state>RI</state>
<rating>9</rating>
<url>http://www.greatschools.org/city/Narragansett/RI</url>
<lat>41.4346</lat>
<lon>-71.4618</lon>
<active>1</active>
</city>
<city>
<id>445641</id>
<name>New Shoreham</name>
<state>RI</state>
<rating/>
<url>http://www.greatschools.org/city/New_Shoreham/RI</url>
<lat>41.1722</lat>
<lon>-71.5595</lon>
<active>1</active>
</city>
<city>
<id>419145</id>
<name>Newport</name>
<state>RI</state>
<rating>4</rating>
<url>http://www.greatschools.org/city/Newport/RI</url>
<lat>41.4914</lat>
<lon>-71.3113</lon>
<active>1</active>
</city>
<city>
<id>419137</id>
<name>North Kingstown</name>
<state>RI</state>
<rating>8</rating>
<url>http://www.greatschools.org/city/North_Kingstown/RI</url>
<lat>41.5893</lat>
<lon>-71.462</lon>
<active>1</active>
</city>
<city>
<id>419146</id>
<name>North Providence</name>
<state>RI</state>
<rating>5</rating>
<url>http://www.greatschools.org/city/North_Providence/RI</url>
<lat>41.8604</lat>
<lon>-71.4583</lon>
<active>1</active>
</city>
<city>
<id>419169</id>
<name>North Scituate</name>
<state>RI</state>
<rating>7</rating>
<url>http://www.greatschools.org/city/North_Scituate/RI</url>
<lat>41.8394</lat>
<lon>-71.6233</lon>
<active>1</active>
</city>
<city>
<id>419172</id>
<name>North Smithfield</name>
<state>RI</state>
<rating>9</rating>
<url>http://www.greatschools.org/city/North_Smithfield/RI</url>
<lat>41.9849</lat>
<lon>-71.5528</lon>
<active>1</active>
</city>
<city>
<id>419157</id>
<name>Pascoag</name>
<state>RI</state>
<rating>7</rating>
<url>http://www.greatschools.org/city/Pascoag/RI</url>
<lat>41.958</lat>
<lon>-71.7042</lon>
<active>1</active>
</city>
<city>
<id>419131</id>
<name>Pawtucket</name>
<state>RI</state>
<rating>3</rating>
<url>http://www.greatschools.org/city/Pawtucket/RI</url>
<lat>41.8763</lat>
<lon>-71.3775</lon>
<active>1</active>
</city>
<city>
<id>419167</id>
<name>Peace Dale</name>
<state>RI</state>
<rating>9</rating>
<url>http://www.greatschools.org/city/Peace_Dale/RI</url>
<lat>41.4346</lat>
<lon>-71.4618</lon>
<active>1</active>
</city>
<city>
<id>419135</id>
<name>Portsmouth</name>
<state>RI</state>
<rating>9</rating>
<url>http://www.greatschools.org/city/Portsmouth/RI</url>
<lat>41.5917</lat>
<lon>-71.2512</lon>
<active>1</active>
</city>
<city>
<id>419125</id>
<name>Providence</name>
<state>RI</state>
<rating>3</rating>
<url>http://www.greatschools.org/city/Providence/RI</url>
<lat>41.823</lat>
<lon>-71.4255</lon>
<active>1</active>
</city>
<city>
<id>419171</id>
<name>Prudence Island</name>
<state>RI</state>
<rating/>
<url>http://www.greatschools.org/city/Prudence_Island/RI</url>
<lat>41.6155</lat>
<lon>-71.3115</lon>
<active>1</active>
</city>
<city>
<id>419161</id>
<name>Riverside</name>
<state>RI</state>
<rating>5</rating>
<url>http://www.greatschools.org/city/Riverside/RI</url>
<lat>41.7726</lat>
<lon>-71.3535</lon>
<active>1</active>
</city>
<city>
<id>419153</id>
<name>Rumford</name>
<state>RI</state>
<rating>8</rating>
<url>http://www.greatschools.org/city/Rumford/RI</url>
<lat>41.8428</lat>
<lon>-71.3556</lon>
<active>1</active>
</city>
<city>
<id>419133</id>
<name>Saunderstown</name>
<state>RI</state>
<rating>9</rating>
<url>http://www.greatschools.org/city/Saunderstown/RI</url>
<lat>41.5124</lat>
<lon>-71.4616</lon>
<active>1</active>
</city>
<city>
<id>419173</id>
<name>Slatersville</name>
<state>RI</state>
<rating>8</rating>
<url>http://www.greatschools.org/city/Slatersville/RI</url>
<lat>42.0017</lat>
<lon>-71.5589</lon>
<active>1</active>
</city>
<city>
<id>419150</id>
<name>Smithfield</name>
<state>RI</state>
<rating>9</rating>
<url>http://www.greatschools.org/city/Smithfield/RI</url>
<lat>41.8961</lat>
<lon>-71.5229</lon>
<active>1</active>
</city>
<city>
<id>419128</id>
<name>South Kingstown</name>
<state>RI</state>
<rating/>
<url>http://www.greatschools.org/city/South_Kingstown/RI</url>
<lat>41.4567</lat>
<lon>-71.4719</lon>
<active>1</active>
</city>
<city>
<id>419165</id>
<name>Tiverton</name>
<state>RI</state>
<rating>8</rating>
<url>http://www.greatschools.org/city/Tiverton/RI</url>
<lat>41.6549</lat>
<lon>-71.194</lon>
<active>1</active>
</city>
<city>
<id>419138</id>
<name>Wakefield</name>
<state>RI</state>
<rating>9</rating>
<url>http://www.greatschools.org/city/Wakefield/RI</url>
<lat>41.4347</lat>
<lon>-71.5217</lon>
<active>1</active>
</city>
<city>
<id>419156</id>
<name>Warren</name>
<state>RI</state>
<rating>7</rating>
<url>http://www.greatschools.org/city/Warren/RI</url>
<lat>41.7262</lat>
<lon>-71.2697</lon>
<active>1</active>
</city>
<city>
<id>419127</id>
<name>Warwick</name>
<state>RI</state>
<rating>6</rating>
<url>http://www.greatschools.org/city/Warwick/RI</url>
<lat>41.7145</lat>
<lon>-71.423</lon>
<active>1</active>
</city>
<city>
<id>419151</id>
<name>West Greenwich</name>
<state>RI</state>
<rating>9</rating>
<url>http://www.greatschools.org/city/West_Greenwich/RI</url>
<lat>41.6378</lat>
<lon>-71.6605</lon>
<active>1</active>
</city>
<city>
<id>419166</id>
<name>West Kingston</name>
<state>RI</state>
<rating>9</rating>
<url>http://www.greatschools.org/city/West_Kingston/RI</url>
<lat>41.5112</lat>
<lon>-71.6015</lon>
<active>1</active>
</city>
<city>
<id>419134</id>
<name>West Warwick</name>
<state>RI</state>
<rating>5</rating>
<url>http://www.greatschools.org/city/West_Warwick/RI</url>
<lat>41.7001</lat>
<lon>-71.5184</lon>
<active>1</active>
</city>
<city>
<id>419160</id>
<name>Westerly</name>
<state>RI</state>
<rating>8</rating>
<url>http://www.greatschools.org/city/Westerly/RI</url>
<lat>41.3739</lat>
<lon>-71.818</lon>
<active>1</active>
</city>
<city>
<id>419143</id>
<name>Wood River Junction</name>
<state>RI</state>
<rating>9</rating>
<url>http://www.greatschools.org/city/Wood_River_Junction/RI</url>
<lat>41.4581</lat>
<lon>-71.6994</lon>
<active>1</active>
</city>
<city>
<id>419132</id>
<name>Woonsocket</name>
<state>RI</state>
<rating>3</rating>
<url>http://www.greatschools.org/city/Woonsocket/RI</url>
<lat>42.0028</lat>
<lon>-71.5049</lon>
<active>1</active>
</city>
<city>
<id>419179</id>
<name>Wyoming</name>
<state>RI</state>
<rating>10</rating>
<url>http://www.greatschools.org/city/Wyoming/RI</url>
<lat>41.5265</lat>
<lon>-71.6731</lon>
<active>1</active>
</city>
</greatschools-city-feed>
